{
  "accelerations": [
    {
      "x": 0.2465972900390625,
      "y": 9.765945434570312,
      "z": 0.71826171875,
      "time_usec": 533497489698
    },
    {
      "x": 0.258575439453125,
      "y": 9.797073364257812,
      "z": 0.6464385986328125,
      "time_usec": 533497493666
    },
    {
      "x": 0.2825164794921875,
      "y": 9.80426025390625,
      "z": 0.627288818359375,
      "time_usec": 533497497633
    },
    {
      "x": 0.248992919921875,
      "y": 9.809036254882812,
      "z": 0.627288818359375,
      "time_usec": 533497501600
    },
    {
      "x": 0.296875,
      "y": 9.821014404296875,
      "z": 0.6296844482421875,
      "time_usec": 533497505598
    },
    {
      "x": 0.2657470703125,
      "y": 9.775527954101562,
      "z": 0.632080078125,
      "time_usec": 533497509565
    },
    {
      "x": 0.3160247802734375,
      "y": 9.765945434570312,
      "z": 0.557861328125,
      "time_usec": 533497513533
    },
    {
      "x": 0.39263916015625,
      "y": 9.744400024414062,
      "z": 0.574615478515625,
      "time_usec": 533497517530
    },
    {
      "x": 0.5051727294921875,
      "y": 9.739608764648438,
      "z": 0.5554656982421875,
      "time_usec": 533497521498
    },
    {
      "x": 0.545867919921875,
      "y": 9.749191284179688,
      "z": 0.5195465087890625,
      "time_usec": 533497525465
    },
    {
      "x": 0.59136962890625,
      "y": 9.684539794921875,
      "z": 0.4884185791015625,
      "time_usec": 533497529432
    },
    {
      "x": 0.5578460693359375,
      "y": 9.691726684570312,
      "z": 0.509979248046875,
      "time_usec": 533497533430
    },
    {
      "x": 0.608123779296875,
      "y": 9.643844604492188,
      "z": 0.3806915283203125,
      "time_usec": 533497537397
    },
    {
      "x": 0.586578369140625,
      "y": 9.674972534179688,
      "z": 0.3351898193359375,
      "time_usec": 533497541365
    },
    {
      "x": 0.565032958984375,
      "y": 9.598358154296875,
      "z": 0.2920989990234375,
      "time_usec": 533497545362
    },
    {
      "x": 0.507568359375,
      "y": 9.651031494140625,
      "z": 0.246612548828125,
      "time_usec": 533497549330
    },
    {
      "x": 0.4788360595703125,
      "y": 9.607925415039062,
      "z": 0.225067138671875,
      "time_usec": 533497553297
    },
    {
      "x": 0.4261627197265625,
      "y": 9.586380004882812,
      "z": 0.15802001953125,
      "time_usec": 533497557295
    },
    {
      "x": 0.375885009765625,
      "y": 9.610321044921875,
      "z": 0.14605712890625,
      "time_usec": 533497561262
    },
    {
      "x": 0.3686981201171875,
      "y": 9.586380004882812,
      "z": 0.14605712890625,
      "time_usec": 533497565229
    },
    {
      "x": 0.313629150390625,
      "y": 9.6151123046875,
      "z": 0.184356689453125,
      "time_usec": 533497569197
    },
    {
      "x": 0.3303985595703125,
      "y": 9.59356689453125,
      "z": 0.2130889892578125,
      "time_usec": 533497573195
    },
    {
      "x": 0.301666259765625,
      "y": 9.572021484375,
      "z": 0.2274627685546875,
      "time_usec": 533497577162
    },
    {
      "x": 0.270538330078125,
      "y": 9.610321044921875,
      "z": 0.2394256591796875,
      "time_usec": 533497581129
    },
    {
      "x": 0.160400390625,
      "y": 9.595962524414062,
      "z": 0.2920989990234375,
      "time_usec": 533497585096
    },
    {
      "x": 0.1460418701171875,
      "y": 9.62469482421875,
      "z": 0.311248779296875,
      "time_usec": 533497589094
    },
    {
      "x": 0.112518310546875,
      "y": 9.622299194335938,
      "z": 0.3088531494140625,
      "time_usec": 533497593061
    },
    {
      "x": 0.090972900390625,
      "y": 9.610321044921875,
      "z": 0.3806915283203125,
      "time_usec": 533497597029
    },
    {
      "x": 0.153228759765625,
      "y": 9.595962524414062,
      "z": 0.3447723388671875,
      "time_usec": 533497601027
    },
    {
      "x": 0.03350830078125,
      "y": 9.600753784179688,
      "z": 0.3591461181640625,
      "time_usec": 533497604994
    },
    {
      "x": 0.134063720703125,
      "y": 9.660598754882812,
      "z": 0.3591461181640625,
      "time_usec": 533497608961
    },
    {
      "x": 0.1675872802734375,
      "y": 9.672576904296875,
      "z": 0.39984130859375,
      "time_usec": 533497612959
    },
    {
      "x": 0.1723785400390625,
      "y": 9.74200439453125,
      "z": 0.409423828125,
      "time_usec": 533497616926
    },
    {
      "x": 0.1556243896484375,
      "y": 9.713272094726562,
      "z": 0.4764556884765625,
      "time_usec": 533497620893
    },
    {
      "x": 0.1292877197265625,
      "y": 9.718063354492188,
      "z": 0.509979248046875,
      "time_usec": 533497624891
    },
    {
      "x": 0.13885498046875,
      "y": 9.708480834960938,
      "z": 0.5554656982421875,
      "time_usec": 533497628859
    },
    {
      "x": 0.205902099609375,
      "y": 9.674972534179688,
      "z": 0.553070068359375,
      "time_usec": 533497632826
    },
    {
      "x": 0.2082977294921875,
      "y": 9.6773681640625,
      "z": 0.557861328125,
      "time_usec": 533497636793
    },
    {
      "x": 0.280120849609375,
      "y": 9.655807495117188,
      "z": 0.56982421875,
      "time_usec": 533497640791
    },
    {
      "x": 0.3303985595703125,
      "y": 9.69891357421875,
      "z": 0.57940673828125,
      "time_usec": 533497644758
    },
    {
      "x": 0.39263916015625,
      "y": 9.737213134765625,
      "z": 0.61053466796875,
      "time_usec": 533497648726
    },
    {
      "x": 0.3375701904296875,
      "y": 9.722854614257812,
      "z": 0.648834228515625,
      "time_usec": 533497652723
    },
    {
      "x": 0.313629150390625,
      "y": 9.744400024414062,
      "z": 0.627288818359375,
      "time_usec": 533497656691
    },
    {
      "x": 0.2825164794921875,
      "y": 9.730026245117188,
      "z": 0.5937652587890625,
      "time_usec": 533497660658
    },
    {
      "x": 0.284912109375,
      "y": 9.718063354492188,
      "z": 0.632080078125,
      "time_usec": 533497664656
    },
    {
      "x": 0.2825164794921875,
      "y": 9.69891357421875,
      "z": 0.5674285888671875,
      "time_usec": 533497668623
    },
    {
      "x": 0.2513885498046875,
      "y": 9.694122314453125,
      "z": 0.50518798828125,
      "time_usec": 533497672590
    },
    {
      "x": 0.280120849609375,
      "y": 9.730026245117188,
      "z": 0.5147552490234375,
      "time_usec": 533497676558
    },
    {
      "x": 0.2418060302734375,
      "y": 9.746795654296875,
      "z": 0.4597015380859375,
      "time_usec": 533497680555
    },
    {
      "x": 0.2250518798828125,
      "y": 9.780303955078125,
      "z": 0.4860382080078125,
      "time_usec": 533497684523
    },
    {
      "x": 0.1891326904296875,
      "y": 9.842559814453125,
      "z": 0.5386962890625,
      "time_usec": 533497688490
    },
    {
      "x": 0.165191650390625,
      "y": 9.849746704101562,
      "z": 0.5386962890625,
      "time_usec": 533497692457
    },
    {
      "x": 0.1508331298828125,
      "y": 9.828201293945312,
      "z": 0.562652587890625,
      "time_usec": 533497696455
    },
    {
      "x": 0.165191650390625,
      "y": 9.806640625,
      "z": 0.59136962890625,
      "time_usec": 533497700422
    },
    {
      "x": 0.1891326904296875,
      "y": 9.789886474609375,
      "z": 0.6033477783203125,
      "time_usec": 533497704390
    },
    {
      "x": 0.2370147705078125,
      "y": 9.792282104492188,
      "z": 0.5889892578125,
      "time_usec": 533497708387
    },
    {
      "x": 0.24420166015625,
      "y": 9.768341064453125,
      "z": 0.6153106689453125,
      "time_usec": 533497712355
    },
    {
      "x": 0.2681427001953125,
      "y": 9.77313232421875,
      "z": 0.59136962890625,
      "time_usec": 533497716322
    },
    {
      "x": 0.239410400390625,
      "y": 9.80426025390625,
      "z": 0.617706298828125,
      "time_usec": 533497720289
    },
    {
      "x": 0.205902099609375,
      "y": 9.81622314453125,
      "z": 0.53631591796875,
      "time_usec": 533497724287
    },
    {
      "x": 0.2035064697265625,
      "y": 9.849746704101562,
      "z": 0.51715087890625,
      "time_usec": 533497728254
    },
    {
      "x": 0.227447509765625,
      "y": 9.823410034179688,
      "z": 0.50518798828125,
      "time_usec": 533497732222
    },
    {
      "x": 0.23223876953125,
      "y": 9.809036254882812,
      "z": 0.500396728515625,
      "time_usec": 533497736219
    },
    {
      "x": 0.2777252197265625,
      "y": 9.864105224609375,
      "z": 0.5195465087890625,
      "time_usec": 533497740187
    },
    {
      "x": 0.3399658203125,
      "y": 9.856918334960938,
      "z": 0.5506744384765625,
      "time_usec": 533497744154
    },
    {
      "x": 0.3734893798828125,
      "y": 9.832977294921875,
      "z": 0.5770111083984375,
      "time_usec": 533497748152
    },
    {
      "x": 0.397430419921875,
      "y": 9.813827514648438,
      "z": 0.6727752685546875,
      "time_usec": 533497752119
    },
    {
      "x": 0.4141845703125,
      "y": 9.849746704101562,
      "z": 0.6943206787109375,
      "time_usec": 533497756086
    },
    {
      "x": 0.38067626953125,
      "y": 9.811431884765625,
      "z": 0.7302398681640625,
      "time_usec": 533497760054
    },
    {
      "x": 0.344757080078125,
      "y": 9.768341064453125,
      "z": 0.7948760986328125,
      "time_usec": 533497764051
    },
    {
      "x": 0.3423614501953125,
      "y": 9.80426025390625,
      "z": 0.806854248046875,
      "time_usec": 533497768019
    },
    {
      "x": 0.39263916015625,
      "y": 9.686935424804688,
      "z": 0.79010009765625,
      "time_usec": 533497771986
    },
    {
      "x": 0.3902435302734375,
      "y": 9.71087646484375,
      "z": 0.7398223876953125,
      "time_usec": 533497775984
    },
    {
      "x": 0.4213714599609375,
      "y": 9.6893310546875,
      "z": 0.77093505859375,
      "time_usec": 533497779951
    },
    {
      "x": 0.4572906494140625,
      "y": 9.694122314453125,
      "z": 0.72784423828125,
      "time_usec": 533497783918
    },
    {
      "x": 0.4453125,
      "y": 9.651031494140625,
      "z": 0.732635498046875,
      "time_usec": 533497787916
    },
    {
      "x": 0.440521240234375,
      "y": 9.696517944335938,
      "z": 0.670379638671875,
      "time_usec": 533497791883
    },
    {
      "x": 0.4261627197265625,
      "y": 9.718063354492188,
      "z": 0.7302398681640625,
      "time_usec": 533497795851
    },
    {
      "x": 0.428558349609375,
      "y": 9.674972534179688,
      "z": 0.711090087890625,
      "time_usec": 533497799849
    },
    {
      "x": 0.4309539794921875,
      "y": 9.703689575195312,
      "z": 0.6823577880859375,
      "time_usec": 533497803816
    },
    {
      "x": 0.3902435302734375,
      "y": 9.6773681640625,
      "z": 0.679962158203125,
      "time_usec": 533497807783
    },
    {
      "x": 0.3686981201171875,
      "y": 9.6270751953125,
      "z": 0.658416748046875,
      "time_usec": 533497811750
    },
    {
      "x": 0.3088531494140625,
      "y": 9.63665771484375,
      "z": 0.6081390380859375,
      "time_usec": 533497815748
    },
    {
      "x": 0.3280029296875,
      "y": 9.622299194335938,
      "z": 0.56982421875,
      "time_usec": 533497819716
    },
    {
      "x": 0.3303985595703125,
      "y": 9.6151123046875,
      "z": 0.596160888671875,
      "time_usec": 533497823683
    },
    {
      "x": 0.366302490234375,
      "y": 9.651031494140625,
      "z": 0.5722198486328125,
      "time_usec": 533497827681
    },
    {
      "x": 0.3375701904296875,
      "y": 9.643844604492188,
      "z": 0.56982421875,
      "time_usec": 533497831648
    },
    {
      "x": 0.366302490234375,
      "y": 9.694122314453125,
      "z": 0.574615478515625,
      "time_usec": 533497835615
    },
    {
      "x": 0.3423614501953125,
      "y": 9.665390014648438,
      "z": 0.627288818359375,
      "time_usec": 533497839613
    },
    {
      "x": 0.3734893798828125,
      "y": 9.6270751953125,
      "z": 0.648834228515625,
      "time_usec": 533497843580
    },
    {
      "x": 0.2992706298828125,
      "y": 9.6151123046875,
      "z": 0.632080078125,
      "time_usec": 533497847548
    },
    {
      "x": 0.3519439697265625,
      "y": 9.576797485351562,
      "z": 0.636871337890625,
      "time_usec": 533497851545
    },
    {
      "x": 0.3734893798828125,
      "y": 9.557647705078125,
      "z": 0.6416473388671875,
      "time_usec": 533497855513
    },
    {
      "x": 0.3351898193359375,
      "y": 9.548080444335938,
      "z": 0.5722198486328125,
      "time_usec": 533497859480
    },
    {
      "x": 0.3615264892578125,
      "y": 9.56243896484375,
      "z": 0.54827880859375,
      "time_usec": 533497863447
    },
    {
      "x": 0.3040618896484375,
      "y": 9.533706665039062,
      "z": 0.4764556884765625,
      "time_usec": 533497867445
    },
    {
      "x": 0.2729339599609375,
      "y": 9.579193115234375,
      "z": 0.4453277587890625,
      "time_usec": 533497871412
    },
    {
      "x": 0.2418060302734375,
      "y": 9.538497924804688,
      "z": 0.490814208984375,
      "time_usec": 533497875410
    },
    {
      "x": 0.2298431396484375,
      "y": 9.560043334960938,
      "z": 0.404632568359375,
      "time_usec": 533497879377
    },
    {
      "x": 0.1819610595703125,
      "y": 9.581588745117188,
      "z": 0.3663177490234375,
      "time_usec": 533497883345
    },
    {
      "x": 0.2202606201171875,
      "y": 9.643844604492188,
      "z": 0.36871337890625,
      "time_usec": 533497887312
    },
    {
      "x": 0.196319580078125,
      "y": 9.641448974609375,
      "z": 0.3591461181640625,
      "time_usec": 533497891310
    },
    {
      "x": 0.2298431396484375,
      "y": 9.674972534179688,
      "z": 0.43096923828125,
      "time_usec": 533497895277
    },
    {
      "x": 0.280120849609375,
      "y": 9.653411865234375,
      "z": 0.4932098388671875,
      "time_usec": 533497899244
    },
    {
      "x": 0.3088531494140625,
      "y": 9.617507934570312,
      "z": 0.4668731689453125,
      "time_usec": 533497903212
    },
    {
      "x": 0.296875,
      "y": 9.617507934570312,
      "z": 0.57940673828125,
      "time_usec": 533497907209
    },
    {
      "x": 0.332794189453125,
      "y": 9.603134155273438,
      "z": 0.5818023681640625,
      "time_usec": 533497911177
    },
    {
      "x": 0.3423614501953125,
      "y": 9.622299194335938,
      "z": 0.6464385986328125,
      "time_usec": 533497915144
    },
    {
      "x": 0.3423614501953125,
      "y": 9.653411865234375,
      "z": 0.72784423828125,
      "time_usec": 533497919142
    },
    {
      "x": 0.2944793701171875,
      "y": 9.641448974609375,
      "z": 0.7302398681640625,
      "time_usec": 533497923109
    },
    {
      "x": 0.2825164794921875,
      "y": 9.62469482421875,
      "z": 0.711090087890625,
      "time_usec": 533497927076
    },
    {
      "x": 0.3280029296875,
      "y": 9.607925415039062,
      "z": 0.6871490478515625,
      "time_usec": 533497931074
    },
    {
      "x": 0.2825164794921875,
      "y": 9.62469482421875,
      "z": 0.7517852783203125,
      "time_usec": 533497935041
    },
    {
      "x": 0.2657470703125,
      "y": 9.619903564453125,
      "z": 0.7206573486328125,
      "time_usec": 533497939009
    },
    {
      "x": 0.2896881103515625,
      "y": 9.583984375,
      "z": 0.701507568359375,
      "time_usec": 533497942976
    },
    {
      "x": 0.2657470703125,
      "y": 9.60552978515625,
      "z": 0.6656036376953125,
      "time_usec": 533497946974
    },
    {
      "x": 0.332794189453125,
      "y": 9.6893310546875,
      "z": 0.711090087890625,
      "time_usec": 533497950941
    },
    {
      "x": 0.3375701904296875,
      "y": 9.6893310546875,
      "z": 0.6991119384765625,
      "time_usec": 533497954908
    },
    {
      "x": 0.3734893798828125,
      "y": 9.682144165039062,
      "z": 0.706298828125,
      "time_usec": 533497958906
    },
    {
      "x": 0.3639068603515625,
      "y": 9.713272094726562,
      "z": 0.679962158203125,
      "time_usec": 533497962873
    },
    {
      "x": 0.37109375,
      "y": 9.708480834960938,
      "z": 0.7086944580078125,
      "time_usec": 533497966841
    },
    {
      "x": 0.3567352294921875,
      "y": 9.6893310546875,
      "z": 0.6727752685546875,
      "time_usec": 533497970808
    },
    {
      "x": 0.3471527099609375,
      "y": 9.69891357421875,
      "z": 0.7302398681640625,
      "time_usec": 533497974806
    },
    {
      "x": 0.3615264892578125,
      "y": 9.730026245117188,
      "z": 0.7206573486328125,
      "time_usec": 533497978773
    },
    {
      "x": 0.41180419921875,
      "y": 9.765945434570312,
      "z": 0.7565765380859375,
      "time_usec": 533497982740
    },
    {
      "x": 0.4165802001953125,
      "y": 9.739608764648438,
      "z": 0.7685546875,
      "time_usec": 533497986708
    },
    {
      "x": 0.418975830078125,
      "y": 9.694122314453125,
      "z": 0.763763427734375,
      "time_usec": 533497990706
    },
    {
      "x": 0.4141845703125,
      "y": 9.67974853515625,
      "z": 0.7829132080078125,
      "time_usec": 533497994673
    },
    {
      "x": 0.4572906494140625,
      "y": 9.665390014648438,
      "z": 0.7493896484375,
      "time_usec": 533497998640
    },
    {
      "x": 0.46685791015625,
      "y": 9.696517944335938,
      "z": 0.763763427734375,
      "time_usec": 533498002638
    },
    {
      "x": 0.5051727294921875,
      "y": 9.670181274414062,
      "z": 0.71826171875,
      "time_usec": 533498006605
    },
    {
      "x": 0.5315093994140625,
      "y": 9.69891357421875,
      "z": 0.6560211181640625,
      "time_usec": 533498010572
    },
    {
      "x": 0.4764404296875,
      "y": 9.670181274414062,
      "z": 0.6560211181640625,
      "time_usec": 533498014540
    },
    {
      "x": 0.4309539794921875,
      "y": 9.660598754882812,
      "z": 0.605743408203125,
      "time_usec": 533498018538
    },
    {
      "x": 0.428558349609375,
      "y": 9.708480834960938,
      "z": 0.5937652587890625,
      "time_usec": 533498022505
    },
    {
      "x": 0.39263916015625,
      "y": 9.682144165039062,
      "z": 0.6632080078125,
      "time_usec": 533498026472
    },
    {
      "x": 0.4477081298828125,
      "y": 9.749191284179688,
      "z": 0.6679840087890625,
      "time_usec": 533498030439
    },
    {
      "x": 0.4572906494140625,
      "y": 9.703689575195312,
      "z": 0.6823577880859375,
      "time_usec": 533498034437
    },
    {
      "x": 0.4309539794921875,
      "y": 9.753982543945312,
      "z": 0.7685546875,
      "time_usec": 533498038404
    },
    {
      "x": 0.3950347900390625,
      "y": 9.725250244140625,
      "z": 0.8044586181640625,
      "time_usec": 533498042402
    },
    {
      "x": 0.41180419921875,
      "y": 9.74200439453125,
      "z": 0.854736328125,
      "time_usec": 533498046370
    },
    {
      "x": 0.4884185791015625,
      "y": 9.734817504882812,
      "z": 0.8738861083984375,
      "time_usec": 533498050337
    },
    {
      "x": 0.4165802001953125,
      "y": 9.799468994140625,
      "z": 0.871490478515625,
      "time_usec": 533498054304
    },
    {
      "x": 0.4261627197265625,
      "y": 9.780303955078125,
      "z": 0.955291748046875,
      "time_usec": 533498058302
    },
    {
      "x": 0.41180419921875,
      "y": 9.77313232421875,
      "z": 0.921783447265625,
      "time_usec": 533498062269
    },
    {
      "x": 0.3615264892578125,
      "y": 9.737213134765625,
      "z": 0.9002227783203125,
      "time_usec": 533498066237
    },
    {
      "x": 0.344757080078125,
      "y": 9.744400024414062,
      "z": 0.8882598876953125,
      "time_usec": 533498070204
    },
    {
      "x": 0.3303985595703125,
      "y": 9.684539794921875,
      "z": 0.837982177734375,
      "time_usec": 533498074202
    },
    {
      "x": 0.2896881103515625,
      "y": 9.703689575195312,
      "z": 0.7924957275390625,
      "time_usec": 533498078169
    },
    {
      "x": 0.30645751953125,
      "y": 9.71087646484375,
      "z": 0.780517578125,
      "time_usec": 533498082136
    },
    {
      "x": 0.280120849609375,
      "y": 9.684539794921875,
      "z": 0.6991119384765625,
      "time_usec": 533498086103
    },
    {
      "x": 0.2657470703125,
      "y": 9.682144165039062,
      "z": 0.658416748046875,
      "time_usec": 533498090101
    },
    {
      "x": 0.24420166015625,
      "y": 9.765945434570312,
      "z": 0.61053466796875,
      "time_usec": 533498094069
    },
    {
      "x": 0.20111083984375,
      "y": 9.7635498046875,
      "z": 0.5554656982421875,
      "time_usec": 533498098036
    },
    {
      "x": 0.2082977294921875,
      "y": 9.718063354492188,
      "z": 0.584197998046875,
      "time_usec": 533498102003
    },
    {
      "x": 0.1939239501953125,
      "y": 9.715667724609375,
      "z": 0.4812469482421875,
      "time_usec": 533498106001
    },
    {
      "x": 0.23223876953125,
      "y": 9.6151123046875,
      "z": 0.478851318359375,
      "time_usec": 533498109968
    },
    {
      "x": 0.227447509765625,
      "y": 9.63665771484375,
      "z": 0.5027923583984375,
      "time_usec": 533498113935
    },
    {
      "x": 0.2825164794921875,
      "y": 9.60552978515625,
      "z": 0.4764556884765625,
      "time_usec": 533498117933
    },
    {
      "x": 0.31842041015625,
      "y": 9.612716674804688,
      "z": 0.500396728515625,
      "time_usec": 533498121901
    },
    {
      "x": 0.3303985595703125,
      "y": 9.662994384765625,
      "z": 0.5075836181640625,
      "time_usec": 533498125868
    },
    {
      "x": 0.3471527099609375,
      "y": 9.629470825195312,
      "z": 0.483642578125,
      "time_usec": 533498129835
    },
    {
      "x": 0.34954833984375,
      "y": 9.591171264648438,
      "z": 0.4980010986328125,
      "time_usec": 533498133833
    },
    {
      "x": 0.375885009765625,
      "y": 9.610321044921875,
      "z": 0.3878631591796875,
      "time_usec": 533498137800
    },
    {
      "x": 0.4644622802734375,
      "y": 9.569625854492188,
      "z": 0.373504638671875,
      "time_usec": 533498141768
    },
    {
      "x": 0.4620819091796875,
      "y": 9.643844604492188,
      "z": 0.299285888671875,
      "time_usec": 533498145735
    },
    {
      "x": 0.507568359375,
      "y": 9.643844604492188,
      "z": 0.34716796875,
      "time_usec": 533498149733
    },
    {
      "x": 0.5506591796875,
      "y": 9.71087646484375,
      "z": 0.3232269287109375,
      "time_usec": 533498153700
    },
    {
      "x": 0.5961456298828125,
      "y": 9.730026245117188,
      "z": 0.3759002685546875,
      "time_usec": 533498157667
    },
    {
      "x": 0.56024169921875,
      "y": 9.74200439453125,
      "z": 0.426177978515625,
      "time_usec": 533498161665
    },
    {
      "x": 0.5626373291015625,
      "y": 9.708480834960938,
      "z": 0.4620819091796875,
      "time_usec": 533498165632
    },
    {
      "x": 0.5626373291015625,
      "y": 9.732421875,
      "z": 0.553070068359375,
      "time_usec": 533498169600
    },
    {
      "x": 0.620086669921875,
      "y": 9.715667724609375,
      "z": 0.617706298828125,
      "time_usec": 533498173567
    },
    {
      "x": 0.629669189453125,
      "y": 9.753982543945312,
      "z": 0.68475341796875,
      "time_usec": 533498177565
    },
    {
      "x": 0.6584014892578125,
      "y": 9.7515869140625,
      "z": 0.7302398681640625,
      "time_usec": 533498181532
    },
    {
      "x": 0.6416473388671875,
      "y": 9.782699584960938,
      "z": 0.8116455078125,
      "time_usec": 533498185530
    },
    {
      "x": 0.620086669921875,
      "y": 9.823410034179688,
      "z": 0.8571319580078125,
      "time_usec": 533498189497
    },
    {
      "x": 0.5961456298828125,
      "y": 9.87847900390625,
      "z": 0.9193878173828125,
      "time_usec": 533498193464
    },
    {
      "x": 0.5506591796875,
      "y": 9.866500854492188,
      "z": 0.9528961181640625,
      "time_usec": 533498197432
    },
    {
      "x": 0.5530548095703125,
      "y": 9.823410034179688,
      "z": 0.943328857421875,
      "time_usec": 533498201399
    },
    {
      "x": 0.5482635498046875,
      "y": 9.794677734375,
      "z": 0.9457244873046875,
      "time_usec": 533498205397
    },
    {
      "x": 0.5506591796875,
      "y": 9.797073364257812,
      "z": 0.90740966796875,
      "time_usec": 533498209364
    },
    {
      "x": 0.5889739990234375,
      "y": 9.7515869140625,
      "z": 0.912200927734375,
      "time_usec": 533498213331
    },
    {
      "x": 0.507568359375,
      "y": 9.706085205078125,
      "z": 0.8858642578125,
      "time_usec": 533498217329
    },
    {
      "x": 0.440521240234375,
      "y": 9.701309204101562,
      "z": 0.83319091796875,
      "time_usec": 533498221296
    },
    {
      "x": 0.440521240234375,
      "y": 9.684539794921875,
      "z": 0.77093505859375,
      "time_usec": 533498225264
    },
    {
      "x": 0.407012939453125,
      "y": 9.674972534179688,
      "z": 0.69671630859375,
      "time_usec": 533498229261
    },
    {
      "x": 0.3950347900390625,
      "y": 9.660598754882812,
      "z": 0.6656036376953125,
      "time_usec": 533498233229
    },
    {
      "x": 0.387847900390625,
      "y": 9.653411865234375,
      "z": 0.6033477783203125,
      "time_usec": 533498237196
    },
    {
      "x": 0.30645751953125,
      "y": 9.634262084960938,
      "z": 0.4980010986328125,
      "time_usec": 533498241163
    },
    {
      "x": 0.2944793701171875,
      "y": 9.588775634765625,
      "z": 0.4884185791015625,
      "time_usec": 533498245161
    },
    {
      "x": 0.3303985595703125,
      "y": 9.569625854492188,
      "z": 0.4597015380859375,
      "time_usec": 533498249128
    },
    {
      "x": 0.3950347900390625,
      "y": 9.564834594726562,
      "z": 0.363922119140625,
      "time_usec": 533498253096
    },
    {
      "x": 0.3950347900390625,
      "y": 9.51934814453125,
      "z": 0.35675048828125,
      "time_usec": 533498257093
    },
    {
      "x": 0.4022216796875,
      "y": 9.536102294921875,
      "z": 0.3088531494140625,
      "time_usec": 533498261061
    },
    {
      "x": 0.4022216796875,
      "y": 9.574417114257812,
      "z": 0.351959228515625,
      "time_usec": 533498265028
    },
    {
      "x": 0.4046173095703125,
      "y": 9.576797485351562,
      "z": 0.404632568359375,
      "time_usec": 533498269026
    },
    {
      "x": 0.3734893798828125,
      "y": 9.639053344726562,
      "z": 0.426177978515625,
      "time_usec": 533498272993
    },
    {
      "x": 0.3615264892578125,
      "y": 9.617507934570312,
      "z": 0.500396728515625,
      "time_usec": 533498276960
    },
    {
      "x": 0.3615264892578125,
      "y": 9.612716674804688,
      "z": 0.553070068359375,
      "time_usec": 533498280928
    },
    {
      "x": 0.3040618896484375,
      "y": 9.603134155273438,
      "z": 0.5985565185546875,
      "time_usec": 533498284925
    },
    {
      "x": 0.227447509765625,
      "y": 9.545684814453125,
      "z": 0.6201019287109375,
      "time_usec": 533498288893
    },
    {
      "x": 0.260955810546875,
      "y": 9.512161254882812,
      "z": 0.658416748046875,
      "time_usec": 533498292860
    },
    {
      "x": 0.296875,
      "y": 9.45709228515625,
      "z": 0.6248931884765625,
      "time_usec": 533498296858
    },
    {
      "x": 0.3423614501953125,
      "y": 9.433151245117188,
      "z": 0.6679840087890625,
      "time_usec": 533498300825
    },
    {
      "x": 0.3639068603515625,
      "y": 9.41400146484375,
      "z": 0.6679840087890625,
      "time_usec": 533498304792
    },
    {
      "x": 0.3734893798828125,
      "y": 9.42596435546875,
      "z": 0.6081390380859375,
      "time_usec": 533498308760
    },
    {
      "x": 0.375885009765625,
      "y": 9.411605834960938,
      "z": 0.5339202880859375,
      "time_usec": 533498312758
    },
    {
      "x": 0.3519439697265625,
      "y": 9.469070434570312,
      "z": 0.4549102783203125,
      "time_usec": 533498316725
    },
    {
      "x": 0.31842041015625,
      "y": 9.490615844726562,
      "z": 0.395050048828125,
      "time_usec": 533498320692
    },
    {
      "x": 0.2681427001953125,
      "y": 9.50018310546875,
      "z": 0.34716796875,
      "time_usec": 533498324690
    },
    {
      "x": 0.227447509765625,
      "y": 9.536102294921875,
      "z": 0.2609710693359375,
      "time_usec": 533498328657
    },
    {
      "x": 0.227447509765625,
      "y": 9.543289184570312,
      "z": 0.210693359375,
      "time_usec": 533498332624
    },
    {
      "x": 0.227447509765625,
      "y": 9.509765625,
      "z": 0.14605712890625,
      "time_usec": 533498336592
    },
    {
      "x": 0.239410400390625,
      "y": 9.461883544921875,
      "z": 0.1292877197265625,
      "time_usec": 533498340559
    },
    {
      "x": 0.2944793701171875,
      "y": 9.44512939453125,
      "z": 0.162811279296875,
      "time_usec": 533498344557
    },
    {
      "x": 0.375885009765625,
      "y": 9.42596435546875,
      "z": 0.1221160888671875,
      "time_usec": 533498348524
    },
    {
      "x": 0.438140869140625,
      "y": 9.452301025390625,
      "z": 0.1556243896484375,
      "time_usec": 533498352522
    },
    {
      "x": 0.4141845703125,
      "y": 9.483428955078125,
      "z": 0.1005706787109375,
      "time_usec": 533498356489
    },
    {
      "x": 0.4165802001953125,
      "y": 9.51934814453125,
      "z": 0.172393798828125,
      "time_usec": 533498360456
    },
    {
      "x": 0.3734893798828125,
      "y": 9.48822021484375,
      "z": 0.2346343994140625,
      "time_usec": 533498364424
    },
    {
      "x": 0.3351898193359375,
      "y": 9.574417114257812,
      "z": 0.2705535888671875,
      "time_usec": 533498368422
    },
    {
      "x": 0.2992706298828125,
      "y": 9.564834594726562,
      "z": 0.33758544921875,
      "time_usec": 533498372389
    },
    {
      "x": 0.27532958984375,
      "y": 9.6151123046875,
      "z": 0.404632568359375,
      "time_usec": 533498376356
    },
    {
      "x": 0.234619140625,
      "y": 9.643844604492188,
      "z": 0.416595458984375,
      "time_usec": 533498380354
    },
    {
      "x": 0.296875,
      "y": 9.653411865234375,
      "z": 0.4932098388671875,
      "time_usec": 533498384321
    },
    {
      "x": 0.3423614501953125,
      "y": 9.63665771484375,
      "z": 0.51715087890625,
      "time_usec": 533498388289
    },
    {
      "x": 0.3351898193359375,
      "y": 9.708480834960938,
      "z": 0.6296844482421875,
      "time_usec": 533498392256
    },
    {
      "x": 0.407012939453125,
      "y": 9.617507934570312,
      "z": 0.679962158203125,
      "time_usec": 533498396254
    },
    {
      "x": 0.3998260498046875,
      "y": 9.67974853515625,
      "z": 0.7134857177734375,
      "time_usec": 533498400221
    },
    {
      "x": 0.440521240234375,
      "y": 9.662994384765625,
      "z": 0.77093505859375,
      "time_usec": 533498404188
    },
    {
      "x": 0.4453125,
      "y": 9.69891357421875,
      "z": 0.79010009765625,
      "time_usec": 533498408186
    },
    {
      "x": 0.440521240234375,
      "y": 9.71087646484375,
      "z": 0.780517578125,
      "time_usec": 533498412153
    },
    {
      "x": 0.42376708984375,
      "y": 9.727645874023438,
      "z": 0.79010009765625,
      "time_usec": 533498416121
    },
    {
      "x": 0.41180419921875,
      "y": 9.66778564453125,
      "z": 0.8260040283203125,
      "time_usec": 533498420088
    },
    {
      "x": 0.3519439697265625,
      "y": 9.706085205078125,
      "z": 0.8523406982421875,
      "time_usec": 533498424086
    },
    {
      "x": 0.354339599609375,
      "y": 9.67974853515625,
      "z": 0.869110107421875,
      "time_usec": 533498428053
    },
    {
      "x": 0.344757080078125,
      "y": 9.6270751953125,
      "z": 0.80206298828125,
      "time_usec": 533498432020
    },
    {
      "x": 0.332794189453125,
      "y": 9.603134155273438,
      "z": 0.7829132080078125,
      "time_usec": 533498436018
    },
    {
      "x": 0.3160247802734375,
      "y": 9.545684814453125,
      "z": 0.7302398681640625,
      "time_usec": 533498439985
    },
    {
      "x": 0.3280029296875,
      "y": 9.471466064453125,
      "z": 0.7374267578125,
      "time_usec": 533498443953
    },
    {
      "x": 0.3519439697265625,
      "y": 9.461883544921875,
      "z": 0.64404296875,
      "time_usec": 533498447920
    },
    {
      "x": 0.4213714599609375,
      "y": 9.464279174804688,
      "z": 0.5722198486328125,
      "time_usec": 533498451918
    },
    {
      "x": 0.440521240234375,
      "y": 9.452301025390625,
      "z": 0.5195465087890625,
      "time_usec": 533498455885
    },
    {
      "x": 0.407012939453125,
      "y": 9.469070434570312,
      "z": 0.4189910888671875,
      "time_usec": 533498459852
    },
    {
      "x": 0.3160247802734375,
      "y": 9.418792724609375,
      "z": 0.3495635986328125,
      "time_usec": 533498463850
    },
    {
      "x": 0.2537841796875,
      "y": 9.435546875,
      "z": 0.28253173828125,
      "time_usec": 533498467817
    },
    {
      "x": 0.234619140625,
      "y": 9.473846435546875,
      "z": 0.225067138671875,
      "time_usec": 533498471785
    },
    {
      "x": 0.1580047607421875,
      "y": 9.507369995117188,
      "z": 0.193939208984375,
      "time_usec": 533498475782
    },
    {
      "x": 0.1627960205078125,
      "y": 9.536102294921875,
      "z": 0.2082977294921875,
      "time_usec": 533498479750
    },
    {
      "x": 0.153228759765625,
      "y": 9.50018310546875,
      "z": 0.2082977294921875,
      "time_usec": 533498483717
    },
    {
      "x": 0.20111083984375,
      "y": 9.497802734375,
      "z": 0.1699981689453125,
      "time_usec": 533498487684
    },
    {
      "x": 0.2657470703125,
      "y": 9.4786376953125,
      "z": 0.237030029296875,
      "time_usec": 533498491682
    },
    {
      "x": 0.2825164794921875,
      "y": 9.48822021484375,
      "z": 0.2418212890625,
      "time_usec": 533498495649
    },
    {
      "x": 0.3112335205078125,
      "y": 9.497802734375,
      "z": 0.2968902587890625,
      "time_usec": 533498499617
    },
    {
      "x": 0.2250518798828125,
      "y": 9.497802734375,
      "z": 0.3495635986328125,
      "time_usec": 533498503614
    },
    {
      "x": 0.2537841796875,
      "y": 9.48822021484375,
      "z": 0.3711090087890625,
      "time_usec": 533498507582
    },
    {
      "x": 0.28729248046875,
      "y": 9.4786376953125,
      "z": 0.4333648681640625,
      "time_usec": 533498511549
    },
    {
      "x": 0.2992706298828125,
      "y": 9.473846435546875,
      "z": 0.457305908203125,
      "time_usec": 533498515547
    },
    {
      "x": 0.280120849609375,
      "y": 9.4666748046875,
      "z": 0.438140869140625,
      "time_usec": 533498519514
    },
    {
      "x": 0.270538330078125,
      "y": 9.473846435546875,
      "z": 0.4716644287109375,
      "time_usec": 533498523481
    },
    {
      "x": 0.280120849609375,
      "y": 9.447525024414062,
      "z": 0.49560546875,
      "time_usec": 533498527449
    },
    {
      "x": 0.3112335205078125,
      "y": 9.442733764648438,
      "z": 0.5195465087890625,
      "time_usec": 533498531446
    },
    {
      "x": 0.3112335205078125,
      "y": 9.421188354492188,
      "z": 0.5267333984375,
      "time_usec": 533498535414
    },
    {
      "x": 0.3471527099609375,
      "y": 9.437942504882812,
      "z": 0.5554656982421875,
      "time_usec": 533498539381
    },
    {
      "x": 0.3351898193359375,
      "y": 9.447525024414062,
      "z": 0.5554656982421875,
      "time_usec": 533498543379
    },
    {
      "x": 0.3639068603515625,
      "y": 9.471466064453125,
      "z": 0.5075836181640625,
      "time_usec": 533498547346
    },
    {
      "x": 0.3471527099609375,
      "y": 9.449905395507812,
      "z": 0.543487548828125,
      "time_usec": 533498551313
    },
    {
      "x": 0.3615264892578125,
      "y": 9.4786376953125,
      "z": 0.5267333984375,
      "time_usec": 533498555281
    },
    {
      "x": 0.284912109375,
      "y": 9.469070434570312,
      "z": 0.4501190185546875,
      "time_usec": 533498559279
    },
    {
      "x": 0.258575439453125,
      "y": 9.524139404296875,
      "z": 0.426177978515625,
      "time_usec": 533498563246
    },
    {
      "x": 0.248992919921875,
      "y": 9.502578735351562,
      "z": 0.351959228515625,
      "time_usec": 533498567213
    },
    {
      "x": 0.258575439453125,
      "y": 9.464279174804688,
      "z": 0.2968902587890625,
      "time_usec": 533498571180
    },
    {
      "x": 0.284912109375,
      "y": 9.464279174804688,
      "z": 0.289703369140625,
      "time_usec": 533498575178
    },
    {
      "x": 0.3112335205078125,
      "y": 9.454696655273438,
      "z": 0.2346343994140625,
      "time_usec": 533498579145
    },
    {
      "x": 0.359130859375,
      "y": 9.4786376953125,
      "z": 0.25140380859375,
      "time_usec": 533498583113
    },
    {
      "x": 0.3351898193359375,
      "y": 9.514556884765625,
      "z": 0.258575439453125,
      "time_usec": 533498587080
    },
    {
      "x": 0.41180419921875,
      "y": 9.564834594726562,
      "z": 0.277740478515625,
      "time_usec": 533498591078
    },
    {
      "x": 0.3830718994140625,
      "y": 9.629470825195312,
      "z": 0.268157958984375,
      "time_usec": 533498595045
    },
    {
      "x": 0.440521240234375,
      "y": 9.674972534179688,
      "z": 0.363922119140625,
      "time_usec": 533498599012
    },
    {
      "x": 0.4884185791015625,
      "y": 9.600753784179688,
      "z": 0.35675048828125,
      "time_usec": 533498603010
    },
    {
      "x": 0.51953125,
      "y": 9.665390014648438,
      "z": 0.44293212890625,
      "time_usec": 533498606977
    },
    {
      "x": 0.576995849609375,
      "y": 9.694122314453125,
      "z": 0.4716644287109375,
      "time_usec": 533498610945
    },
    {
      "x": 0.52911376953125,
      "y": 9.684539794921875,
      "z": 0.5291290283203125,
      "time_usec": 533498614912
    },
    {
      "x": 0.5267181396484375,
      "y": 9.63665771484375,
      "z": 0.47406005859375,
      "time_usec": 533498618910
    },
    {
      "x": 0.6153106689453125,
      "y": 9.560043334960938,
      "z": 0.4764556884765625,
      "time_usec": 533498622877
    },
    {
      "x": 0.6129150390625,
      "y": 9.600753784179688,
      "z": 0.4501190185546875,
      "time_usec": 533498626844
    },
    {
      "x": 0.5889739990234375,
      "y": 9.722854614257812,
      "z": 0.435760498046875,
      "time_usec": 533498630812
    },
    {
      "x": 0.6320648193359375,
      "y": 9.744400024414062,
      "z": 0.3064727783203125,
      "time_usec": 533498634810
    },
    {
      "x": 0.7326202392578125,
      "y": 9.739608764648438,
      "z": 0.258575439453125,
      "time_usec": 533498638777
    },
    {
      "x": 0.7900848388671875,
      "y": 9.794677734375,
      "z": 0.1077423095703125,
      "time_usec": 533498642744
    },
    {
      "x": 0.7948760986328125,
      "y": 9.823410034179688,
      "z": 0.023956298828125,
      "time_usec": 533498646742
    },
    {
      "x": 0.8020477294921875,
      "y": 9.809036254882812,
      "z": -0.0550537109375,
      "time_usec": 533498650709
    },
    {
      "x": 0.7900848388671875,
      "y": 9.84735107421875,
      "z": -0.059844970703125,
      "time_usec": 533498654676
    },
    {
      "x": 0.8020477294921875,
      "y": 9.809036254882812,
      "z": -0.112518310546875,
      "time_usec": 533498658644
    },
    {
      "x": 0.804443359375,
      "y": 9.787490844726562,
      "z": -0.1939239501953125,
      "time_usec": 533498662642
    },
    {
      "x": 0.7541656494140625,
      "y": 9.81622314453125,
      "z": -0.1580047607421875,
      "time_usec": 533498666609
    },
    {
      "x": 0.730224609375,
      "y": 9.856918334960938,
      "z": -0.186737060546875,
      "time_usec": 533498670576
    },
    {
      "x": 0.735015869140625,
      "y": 9.856918334960938,
      "z": -0.1580047607421875,
      "time_usec": 533498674574
    },
    {
      "x": 0.6847381591796875,
      "y": 9.907211303710938,
      "z": -0.07659912109375,
      "time_usec": 533498678541
    },
    {
      "x": 0.672760009765625,
      "y": 9.928756713867188,
      "z": -0.0526580810546875,
      "time_usec": 533498682508
    },
    {
      "x": 0.620086669921875,
      "y": 9.98382568359375,
      "z": 0.0071868896484375,
      "time_usec": 533498686476
    },
    {
      "x": 0.5434722900390625,
      "y": 9.976638793945312,
      "z": 0.0287322998046875,
      "time_usec": 533498690474
    },
    {
      "x": 0.5363006591796875,
      "y": 10.000579833984375,
      "z": 0.062255859375,
      "time_usec": 533498694441
    },
    {
      "x": 0.4836273193359375,
      "y": 9.998184204101562,
      "z": 0.1436614990234375,
      "time_usec": 533498698408
    },
    {
      "x": 0.4884185791015625,
      "y": 10.053253173828125,
      "z": 0.2442169189453125,
      "time_usec": 533498702375
    },
    {
      "x": 0.4261627197265625,
      "y": 10.007766723632812,
      "z": 0.27294921875,
      "time_usec": 533498706373
    },
    {
      "x": 0.42376708984375,
      "y": 10.034103393554688,
      "z": 0.320831298828125,
      "time_usec": 533498710341
    },
    {
      "x": 0.4094085693359375,
      "y": 10.034103393554688,
      "z": 0.3160400390625,
      "time_usec": 533498714308
    },
    {
      "x": 0.3782806396484375,
      "y": 9.998184204101562,
      "z": 0.2801361083984375,
      "time_usec": 533498718306
    },
    {
      "x": 0.407012939453125,
      "y": 10.019729614257812,
      "z": 0.2657623291015625,
      "time_usec": 533498722273
    },
    {
      "x": 0.3902435302734375,
      "y": 9.988601684570312,
      "z": 0.246612548828125,
      "time_usec": 533498726240
    },
    {
      "x": 0.387847900390625,
      "y": 9.9862060546875,
      "z": 0.1915435791015625,
      "time_usec": 533498730207
    },
    {
      "x": 0.3351898193359375,
      "y": 9.981430053710938,
      "z": 0.150848388671875,
      "time_usec": 533498734205
    },
    {
      "x": 0.3280029296875,
      "y": 9.959869384765625,
      "z": 0.1077423095703125,
      "time_usec": 533498738173
    },
    {
      "x": 0.3040618896484375,
      "y": 9.959869384765625,
      "z": 0.1077423095703125,
      "time_usec": 533498742140
    },
    {
      "x": 0.260955810546875,
      "y": 9.914382934570312,
      "z": 0.088592529296875,
      "time_usec": 533498746107
    },
    {
      "x": 0.22265625,
      "y": 9.928756713867188,
      "z": 0.0814056396484375,
      "time_usec": 533498750105
    },
    {
      "x": 0.1101226806640625,
      "y": 9.897628784179688,
      "z": 0.07183837890625,
      "time_usec": 533498754072
    },
    {
      "x": 0.0311126708984375,
      "y": 9.895233154296875,
      "z": 0.023956298828125,
      "time_usec": 533498758039
    },
    {
      "x": -0.067047119140625,
      "y": 9.87847900390625,
      "z": -0.011962890625,
      "time_usec": 533498762007
    },
    {
      "x": -0.1652069091796875,
      "y": 9.861709594726562,
      "z": -0.03350830078125,
      "time_usec": 533498766005
    },
    {
      "x": -0.1795654296875,
      "y": 9.854537963867188,
      "z": 0.0431060791015625,
      "time_usec": 533498769972
    },
    {
      "x": -0.131683349609375,
      "y": 9.81622314453125,
      "z": 0.088592529296875,
      "time_usec": 533498773939
    },
    {
      "x": -0.14605712890625,
      "y": 9.864105224609375,
      "z": 0.1747894287109375,
      "time_usec": 533498777937
    },
    {
      "x": -0.1795654296875,
      "y": 9.876083374023438,
      "z": 0.2298583984375,
      "time_usec": 533498781904
    },
    {
      "x": -0.2082977294921875,
      "y": 9.864105224609375,
      "z": 0.3184356689453125,
      "time_usec": 533498785872
    },
    {
      "x": -0.246612548828125,
      "y": 9.873687744140625,
      "z": 0.3160400390625,
      "time_usec": 533498789839
    },
    {
      "x": -0.1867523193359375,
      "y": 9.89044189453125,
      "z": 0.373504638671875,
      "time_usec": 533498793837
    },
    {
      "x": -0.2346343994140625,
      "y": 9.8377685546875,
      "z": 0.3782958984375,
      "time_usec": 533498797804
    },
    {
      "x": -0.210693359375,
      "y": 9.797073364257812,
      "z": 0.395050048828125,
      "time_usec": 533498801771
    },
    {
      "x": -0.1747894287109375,
      "y": 9.782699584960938,
      "z": 0.4022369384765625,
      "time_usec": 533498805738
    },
    {
      "x": -0.153228759765625,
      "y": 9.780303955078125,
      "z": 0.404632568359375,
      "time_usec": 533498809736
    },
    {
      "x": -0.1292877197265625,
      "y": 9.792282104492188,
      "z": 0.3495635986328125,
      "time_usec": 533498813704
    },
    {
      "x": -0.0766143798828125,
      "y": 9.746795654296875,
      "z": 0.3088531494140625,
      "time_usec": 533498817671
    },
    {
      "x": -0.0167694091796875,
      "y": 9.782699584960938,
      "z": 0.25140380859375,
      "time_usec": 533498821669
    },
    {
      "x": 0.0430908203125,
      "y": 9.753982543945312,
      "z": 0.1340789794921875,
      "time_usec": 533498825636
    },
    {
      "x": 0.06463623046875,
      "y": 9.758758544921875,
      "z": 0.1125335693359375,
      "time_usec": 533498829603
    },
    {
      "x": 0.1292877197265625,
      "y": 9.78509521484375,
      "z": 0.0742340087890625,
      "time_usec": 533498833570
    },
    {
      "x": 0.1627960205078125,
      "y": 9.715667724609375,
      "z": -0.0359039306640625,
      "time_usec": 533498837568
    },
    {
      "x": 0.143646240234375,
      "y": 9.703689575195312,
      "z": -0.0047760009765625,
      "time_usec": 533498841536
    },
    {
      "x": 0.160400390625,
      "y": 9.718063354492188,
      "z": -0.0837860107421875,
      "time_usec": 533498845533
    },
    {
      "x": 0.174774169921875,
      "y": 9.684539794921875,
      "z": -0.0526580810546875,
      "time_usec": 533498849501
    },
    {
      "x": 0.2298431396484375,
      "y": 9.600753784179688,
      "z": -0.155609130859375,
      "time_usec": 533498853468
    },
    {
      "x": 0.31842041015625,
      "y": 9.629470825195312,
      "z": -0.1173095703125,
      "time_usec": 533498857435
    },
    {
      "x": 0.3375701904296875,
      "y": 9.53131103515625,
      "z": -0.13885498046875,
      "time_usec": 533498861403
    },
    {
      "x": 0.332794189453125,
      "y": 9.5408935546875,
      "z": -0.16998291015625,
      "time_usec": 533498865400
    },
    {
      "x": 0.280120849609375,
      "y": 9.550460815429688,
      "z": -0.18194580078125,
      "time_usec": 533498869368
    },
    {
      "x": 0.3160247802734375,
      "y": 9.53131103515625,
      "z": -0.2418060302734375,
      "time_usec": 533498873335
    },
    {
      "x": 0.3399658203125,
      "y": 9.524139404296875,
      "z": -0.24420166015625,
      "time_usec": 533498877333
    },
    {
      "x": 0.41180419921875,
      "y": 9.550460815429688,
      "z": -0.234619140625,
      "time_usec": 533498881300
    },
    {
      "x": 0.440521240234375,
      "y": 9.572021484375,
      "z": -0.1915283203125,
      "time_usec": 533498885267
    },
    {
      "x": 0.4309539794921875,
      "y": 9.495407104492188,
      "z": -0.196319580078125,
      "time_usec": 533498889265
    },
    {
      "x": 0.45489501953125,
      "y": 9.461883544921875,
      "z": -0.234619140625,
      "time_usec": 533498893232
    },
    {
      "x": 0.4644622802734375,
      "y": 9.406814575195312,
      "z": -0.280120849609375,
      "time_usec": 533498897200
    },
    {
      "x": 0.5386962890625,
      "y": 9.387664794921875,
      "z": -0.234619140625,
      "time_usec": 533498901167
    },
    {
      "x": 0.512359619140625,
      "y": 9.363723754882812,
      "z": -0.2585601806640625,
      "time_usec": 533498905165
    },
    {
      "x": 0.5530548095703125,
      "y": 9.3924560546875,
      "z": -0.28729248046875,
      "time_usec": 533498909132
    },
    {
      "x": 0.63446044921875,
      "y": 9.435546875,
      "z": -0.1939239501953125,
      "time_usec": 533498913099
    },
    {
      "x": 0.6129150390625,
      "y": 9.418792724609375,
      "z": -0.2633514404296875,
      "time_usec": 533498917097
    },
    {
      "x": 0.5171356201171875,
      "y": 9.409210205078125,
      "z": -0.2250518798828125,
      "time_usec": 533498921064
    },
    {
      "x": 0.524322509765625,
      "y": 9.38287353515625,
      "z": -0.234619140625,
      "time_usec": 533498925032
    },
    {
      "x": 0.5315093994140625,
      "y": 9.421188354492188,
      "z": -0.270538330078125,
      "time_usec": 533498928999
    },
    {
      "x": 0.581787109375,
      "y": 9.411605834960938,
      "z": -0.3567352294921875,
      "time_usec": 533498932997
    },
    {
      "x": 0.54107666015625,
      "y": 9.42596435546875,
      "z": -0.3256072998046875,
      "time_usec": 533498936964
    },
    {
      "x": 0.5746002197265625,
      "y": 9.437942504882812,
      "z": -0.3998260498046875,
      "time_usec": 533498940931
    },
    {
      "x": 0.5482635498046875,
      "y": 9.497802734375,
      "z": -0.3327789306640625,
      "time_usec": 533498944929
    },
    {
      "x": 0.5434722900390625,
      "y": 9.442733764648438,
      "z": -0.433349609375,
      "time_usec": 533498948896
    },
    {
      "x": 0.5051727294921875,
      "y": 9.51934814453125,
      "z": -0.418975830078125,
      "time_usec": 533498952864
    },
    {
      "x": 0.4572906494140625,
      "y": 9.493011474609375,
      "z": -0.4261627197265625,
      "time_usec": 533498956862
    },
    {
      "x": 0.4094085693359375,
      "y": 9.490615844726562,
      "z": -0.4453125,
      "time_usec": 533498960829
    },
    {
      "x": 0.31842041015625,
      "y": 9.533706665039062,
      "z": -0.4141845703125,
      "time_usec": 533498964796
    },
    {
      "x": 0.2513885498046875,
      "y": 9.564834594726562,
      "z": -0.4165802001953125,
      "time_usec": 533498968763
    },
    {
      "x": 0.153228759765625,
      "y": 9.545684814453125,
      "z": -0.2992706298828125,
      "time_usec": 533498972761
    },
    {
      "x": 0.1508331298828125,
      "y": 9.641448974609375,
      "z": -0.292083740234375,
      "time_usec": 533498976728
    },
    {
      "x": 0.1484375,
      "y": 9.583984375,
      "z": -0.2370147705078125,
      "time_usec": 533498980696
    },
    {
      "x": 0.23223876953125,
      "y": 9.617507934570312,
      "z": -0.21307373046875,
      "time_usec": 533498984694
    },
    {
      "x": 0.280120849609375,
      "y": 9.643844604492188,
      "z": -0.1484375,
      "time_usec": 533498988661
    },
    {
      "x": 0.3375701904296875,
      "y": 9.639053344726562,
      "z": -0.1675872802734375,
      "time_usec": 533498992628
    },
    {
      "x": 0.3734893798828125,
      "y": 9.6151123046875,
      "z": -0.16998291015625,
      "time_usec": 533498996595
    },
    {
      "x": 0.375885009765625,
      "y": 9.576797485351562,
      "z": -0.20111083984375,
      "time_usec": 533499000593
    },
    {
      "x": 0.3280029296875,
      "y": 9.60552978515625,
      "z": -0.2106781005859375,
      "time_usec": 533499004560
    },
    {
      "x": 0.3040618896484375,
      "y": 9.569625854492188,
      "z": -0.2585601806640625,
      "time_usec": 533499008528
    },
    {
      "x": 0.3040618896484375,
      "y": 9.658203125,
      "z": -0.3040618896484375,
      "time_usec": 533499012526
    },
    {
      "x": 0.284912109375,
      "y": 9.62469482421875,
      "z": -0.3064422607421875,
      "time_usec": 533499016493
    },
    {
      "x": 0.27532958984375,
      "y": 9.706085205078125,
      "z": -0.3471527099609375,
      "time_usec": 533499020460
    },
    {
      "x": 0.27532958984375,
      "y": 9.631866455078125,
      "z": -0.3375701904296875,
      "time_usec": 533499024427
    },
    {
      "x": 0.323211669921875,
      "y": 9.648635864257812,
      "z": -0.2729339599609375,
      "time_usec": 533499028425
    },
    {
      "x": 0.3686981201171875,
      "y": 9.641448974609375,
      "z": -0.3112335205078125,
      "time_usec": 533499032393
    },
    {
      "x": 0.38067626953125,
      "y": 9.639053344726562,
      "z": -0.2896881103515625,
      "time_usec": 533499036360
    },
    {
      "x": 0.387847900390625,
      "y": 9.653411865234375,
      "z": -0.24420166015625,
      "time_usec": 533499040358
    },
    {
      "x": 0.3782806396484375,
      "y": 9.720458984375,
      "z": -0.1891326904296875,
      "time_usec": 533499044325
    },
    {
      "x": 0.359130859375,
      "y": 9.753982543945312,
      "z": -0.208282470703125,
      "time_usec": 533499048292
    },
    {
      "x": 0.332794189453125,
      "y": 9.782699584960938,
      "z": -0.165191650390625,
      "time_usec": 533499052259
    },
    {
      "x": 0.2465972900390625,
      "y": 9.797073364257812,
      "z": -0.1580047607421875,
      "time_usec": 533499056257
    },
    {
      "x": 0.227447509765625,
      "y": 9.782699584960938,
      "z": -0.0981597900390625,
      "time_usec": 533499060225
    },
    {
      "x": 0.186737060546875,
      "y": 9.799468994140625,
      "z": -0.1364593505859375,
      "time_usec": 533499064192
    },
    {
      "x": 0.1508331298828125,
      "y": 9.806640625,
      "z": -0.069427490234375,
      "time_usec": 533499068190
    },
    {
      "x": 0.1101226806640625,
      "y": 9.809036254882812,
      "z": -0.090972900390625,
      "time_usec": 533499072157
    },
    {
      "x": 0.081390380859375,
      "y": 9.844955444335938,
      "z": -0.0574493408203125,
      "time_usec": 533499076124
    },
    {
      "x": 0.0981597900390625,
      "y": 9.842559814453125,
      "z": -0.07659912109375,
      "time_usec": 533499080091
    },
    {
      "x": 0.069427490234375,
      "y": 9.89044189453125,
      "z": -0.112518310546875,
      "time_usec": 533499084089
    },
    {
      "x": 0.026336669921875,
      "y": 9.89044189453125,
      "z": -0.1627960205078125,
      "time_usec": 533499088057
    },
    {
      "x": 0.086181640625,
      "y": 9.943115234375,
      "z": -0.18194580078125,
      "time_usec": 533499092024
    },
    {
      "x": 0.0885772705078125,
      "y": 9.9119873046875,
      "z": -0.2250518798828125,
      "time_usec": 533499096022
    },
    {
      "x": 0.086181640625,
      "y": 9.923965454101562,
      "z": -0.282501220703125,
      "time_usec": 533499099989
    },
    {
      "x": 0.1292877197265625,
      "y": 9.967056274414062,
      "z": -0.354339599609375,
      "time_usec": 533499103956
    },
    {
      "x": 0.1292877197265625,
      "y": 10.036483764648438,
      "z": -0.366302490234375,
      "time_usec": 533499107924
    },
    {
      "x": 0.1244964599609375,
      "y": 10.062820434570312,
      "z": -0.375885009765625,
      "time_usec": 533499111921
    },
    {
      "x": 0.16998291015625,
      "y": 10.034103393554688,
      "z": -0.39263916015625,
      "time_usec": 533499115889
    },
    {
      "x": 0.1915283203125,
      "y": 10.096343994140625,
      "z": -0.3303985595703125,
      "time_usec": 533499119856
    },
    {
      "x": 0.22265625,
      "y": 10.07958984375,
      "z": -0.344757080078125,
      "time_usec": 533499123854
    },
    {
      "x": 0.2537841796875,
      "y": 10.067611694335938,
      "z": -0.313629150390625,
      "time_usec": 533499127821
    },
    {
      "x": 0.3351898193359375,
      "y": 10.086776733398438,
      "z": -0.2513885498046875,
      "time_usec": 533499131788
    },
    {
      "x": 0.397430419921875,
      "y": 10.10113525390625,
      "z": -0.24420166015625,
      "time_usec": 533499135756
    },
    {
      "x": 0.4644622802734375,
      "y": 10.199295043945312,
      "z": -0.260955810546875,
      "time_usec": 533499139753
    },
    {
      "x": 0.4955902099609375,
      "y": 10.160995483398438,
      "z": -0.2034912109375,
      "time_usec": 533499143721
    },
    {
      "x": 0.5315093994140625,
      "y": 10.278305053710938,
      "z": -0.196319580078125,
      "time_usec": 533499147688
    },
    {
      "x": 0.52911376953125,
      "y": 10.307037353515625,
      "z": -0.174774169921875,
      "time_usec": 533499151686
    },
    {
      "x": 0.586578369140625,
      "y": 10.335769653320312,
      "z": -0.143646240234375,
      "time_usec": 533499155653
    },
    {
      "x": 0.6248779296875,
      "y": 10.431533813476562,
      "z": -0.1795501708984375,
      "time_usec": 533499159620
    },
    {
      "x": 0.6129150390625,
      "y": 10.46026611328125,
      "z": -0.1891326904296875,
      "time_usec": 533499163588
    },
    {
      "x": 0.5889739990234375,
      "y": 10.52490234375,
      "z": -0.165191650390625,
      "time_usec": 533499167585
    },
    {
      "x": 0.555450439453125,
      "y": 10.623077392578125,
      "z": -0.2418060302734375,
      "time_usec": 533499171553
    },
    {
      "x": 0.4764404296875,
      "y": 10.6302490234375,
      "z": -0.308837890625,
      "time_usec": 533499175520
    },
    {
      "x": 0.45489501953125,
      "y": 10.7786865234375,
      "z": -0.3160247802734375,
      "time_usec": 533499179518
    },
    {
      "x": 0.4524993896484375,
      "y": 10.833755493164062,
      "z": -0.418975830078125,
      "time_usec": 533499183485
    },
    {
      "x": 0.512359619140625,
      "y": 10.884033203125,
      "z": -0.450103759765625,
      "time_usec": 533499187452
    },
    {
      "x": 0.581787109375,
      "y": 10.975021362304688,
      "z": -0.440521240234375,
      "time_usec": 533499191420
    },
    {
      "x": 0.5626373291015625,
      "y": 11.08514404296875,
      "z": -0.471649169921875,
      "time_usec": 533499195417
    },
    {
      "x": 0.4884185791015625,
      "y": 11.214431762695312,
      "z": -0.493194580078125,
      "time_usec": 533499199385
    },
    {
      "x": 0.49798583984375,
      "y": 11.324569702148438,
      "z": -0.5099639892578125,
      "time_usec": 533499203352
    },
    {
      "x": 0.502777099609375,
      "y": 11.453857421875,
      "z": -0.56024169921875,
      "time_usec": 533499207350
    },
    {
      "x": 0.4309539794921875,
      "y": 11.6334228515625,
      "z": -0.4884033203125,
      "time_usec": 533499211317
    },
    {
      "x": 0.3639068603515625,
      "y": 11.772293090820312,
      "z": -0.4884033203125,
      "time_usec": 533499215284
    },
    {
      "x": 0.42376708984375,
      "y": 11.882415771484375,
      "z": -0.4788360595703125,
      "time_usec": 533499219252
    },
    {
      "x": 0.5482635498046875,
      "y": 11.96142578125,
      "z": -0.4788360595703125,
      "time_usec": 533499223249
    },
    {
      "x": 0.56024169921875,
      "y": 12.052413940429688,
      "z": -0.46685791015625,
      "time_usec": 533499227217
    },
    {
      "x": 0.59375,
      "y": 12.169723510742188,
      "z": -0.323211669921875,
      "time_usec": 533499231184
    },
    {
      "x": 0.703887939453125,
      "y": 12.251129150390625,
      "z": -0.1675872802734375,
      "time_usec": 533499235182
    },
    {
      "x": 0.703887939453125,
      "y": 12.349288940429688,
      "z": -0.03350830078125,
      "time_usec": 533499239149
    },
    {
      "x": 0.70867919921875,
      "y": 12.440277099609375,
      "z": 0.1077423095703125,
      "time_usec": 533499243116
    },
    {
      "x": 0.7278289794921875,
      "y": 12.4881591796875,
      "z": 0.28253173828125,
      "time_usec": 533499247084
    },
    {
      "x": 0.746978759765625,
      "y": 12.543212890625,
      "z": 0.42138671875,
      "time_usec": 533499251081
    },
    {
      "x": 0.8643035888671875,
      "y": 12.603073120117188,
      "z": 0.59136962890625,
      "time_usec": 533499255049
    },
    {
      "x": 0.8762664794921875,
