{
  "frames": [
    {
      "frame_id": 0,
      "sensor_timestamp": 533498148301094,
      "time_usec": 928317324139
    },
    {
      "frame_id": 1,
      "sensor_timestamp": 533498181595094,
      "time_usec": 928317357433
    },
    {
      "frame_id": 2,
      "sensor_timestamp": 533498214838094,
      "time_usec": 928317390676
    },
    {
      "frame_id": 3,
      "sensor_timestamp": 533498248284094,
      "time_usec": 928317424122
    },
    {
      "frame_id": 4,
      "sensor_timestamp": 533498281450094,
      "time_usec": 928317457288
    },
    {
      "frame_id": 5,
      "sensor_timestamp": 533498314885094,
      "time_usec": 928317490723
    },
    {
      "frame_id": 6,
      "sensor_timestamp": 533498348353094,
      "time_usec": 928317524191
    },
    {
      "frame_id": 7,
      "sensor_timestamp": 533498381587094,
      "time_usec": 928317557425
    },
    {
      "frame_id": 8,
      "sensor_timestamp": 533498414916094,
      "time_usec": 928317590754
    },
    {
      "frame_id": 9,
      "sensor_timestamp": 533498448359094,
      "time_usec": 928317624197
    },
    {
      "frame_id": 10,
      "sensor_timestamp": 533498481474094,
      "time_usec": 928317657312
    },
    {
      "frame_id": 11,
      "sensor_timestamp": 533498514923094,
      "time_usec": 928317690761
    },
    {
      "frame_id": 12,
      "sensor_timestamp": 533498548144094,
      "time_usec": 928317723982
    },
    {
      "frame_id": 13,
      "sensor_timestamp": 533498581637094,
      "time_usec": 928317757475
    },
    {
      "frame_id": 14,
      "sensor_timestamp": 533498614978094,
      "time_usec": 928317790816
    },
    {
      "frame_id": 15,
      "sensor_timestamp": 533498648283094,
      "time_usec": 928317824121
    },
    {
      "frame_id": 16,
      "sensor_timestamp": 533498681634094,
      "time_usec": 928317857472
    },
    {
      "frame_id": 17,
      "sensor_timestamp": 533498714825094,
      "time_usec": 928317890663
    },
    {
      "frame_id": 18,
      "sensor_timestamp": 533498748298094,
      "time_usec": 928317924136
    },
    {
      "frame_id": 19,
      "sensor_timestamp": 533498781760094,
      "time_usec": 928317957598
    },
    {
      "frame_id": 20,
      "sensor_timestamp": 533498815008094,
      "time_usec": 928317990846
    },
    {
      "frame_id": 21,
      "sensor_timestamp": 533498848299094,
      "time_usec": 928318024137
    },
    {
      "frame_id": 22,
      "sensor_timestamp": 533498881504094,
      "time_usec": 928318057342
    },
    {
      "frame_id": 23,
      "sensor_timestamp": 533498914985094,
      "time_usec": 928318090823
    },
    {
      "frame_id": 24,
      "sensor_timestamp": 533498948178094,
      "time_usec": 928318124016
    },
    {
      "frame_id": 25,
      "sensor_timestamp": 533498981737094,
      "time_usec": 928318157575
    },
    {
      "frame_id": 26,
      "sensor_timestamp": 533499015044094,
      "time_usec": 928318190882
    },
    {
      "frame_id": 27,
      "sensor_timestamp": 533499048331094,
      "time_usec": 928318224169
    },
    {
      "frame_id": 28,
      "sensor_timestamp": 533499081654094,
      "time_usec": 928318257492
    },
    {
      "frame_id": 29,
      "sensor_timestamp": 533499115003094,
      "time_usec": 928318290841
    },
    {
      "frame_id": 30,
      "sensor_timestamp": 533499148199094,
      "time_usec": 928318324037
    },
    {
      "frame_id": 31,
      "sensor_timestamp": 533499181685094,
      "time_usec": 928318357523
    },
    {
      "frame_id": 32,
      "sensor_timestamp": 533499214869094,
      "time_usec": 928318390707
    },
    {
      "frame_id": 33,
      "sensor_timestamp": 533499248335094,
      "time_usec": 928318424173
    },
    {
      "frame_id": 34,
      "sensor_timestamp": 533499281697094,
      "time_usec": 928318457535
    },
    {
      "frame_id": 35,
      "sensor_timestamp": 533499315044094,
      "time_usec": 928318490882
    },
    {
      "frame_id": 36,
      "sensor_timestamp": 533499348362094,
      "time_usec": 928318524200
    },
    {
      "frame_id": 37,
      "sensor_timestamp": 533499381680094,
      "time_usec": 928318557518
    },
    {
      "frame_id": 38,
      "sensor_timestamp": 533499415016094,
      "time_usec": 928318590854
    },
    {
      "frame_id": 39,
      "sensor_timestamp": 533499448223094,
      "time_usec": 928318624061
    },
    {
      "frame_id": 40,
      "sensor_timestamp": 533499481731094,
      "time_usec": 928318657569
    },
    {
      "frame_id": 41,
      "sensor_timestamp": 533499515070094,
      "time_usec": 928318690908
    },
    {
      "frame_id": 42,
      "sensor_timestamp": 533499548362094,
      "time_usec": 928318724200
    },
    {
      "frame_id": 43,
      "sensor_timestamp": 533499581565094,
      "time_usec": 928318757403
    },
    {
      "frame_id": 44,
      "sensor_timestamp": 533499615072094,
      "time_usec": 928318790910
    },
    {
      "frame_id": 45,
      "sensor_timestamp": 533499648454094,
      "time_usec": 928318824292
    },
    {
      "frame_id": 46,
      "sensor_timestamp": 533499681578094,
      "time_usec": 928318857416
    },
    {
      "frame_id": 47,
      "sensor_timestamp": 533499714914094,
      "time_usec": 928318890752
    },
    {
      "frame_id": 48,
      "sensor_timestamp": 533499748372094,
      "time_usec": 928318924210
    },
    {
      "frame_id": 49,
      "sensor_timestamp": 533499781605094,
      "time_usec": 928318957443
    },
    {
      "frame_id": 50,
      "sensor_timestamp": 533499815060094,
      "time_usec": 928318990898
    },
    {
      "frame_id": 51,
      "sensor_timestamp": 533499848256094,
      "time_usec": 928319024094
    },
    {
      "frame_id": 52,
      "sensor_timestamp": 533499881720094,
      "time_usec": 928319057558
    },
    {
      "frame_id": 53,
      "sensor_timestamp": 533499915178094,
      "time_usec": 928319091016
    },
    {
      "frame_id": 54,
      "sensor_timestamp": 533499948485094,
      "time_usec": 928319124323
    },
    {
      "frame_id": 55,
      "sensor_timestamp": 533499981846094,
      "time_usec": 928319157684
    },
    {
      "frame_id": 56,
      "sensor_timestamp": 533500015081094,
      "time_usec": 928319190919
    },
    {
      "frame_id": 57,
      "sensor_timestamp": 533500048277094,
      "time_usec": 928319224115
    },
    {
      "frame_id": 58,
      "sensor_timestamp": 533500081657094,
      "time_usec": 928319257495
    },
    {
      "frame_id": 59,
      "sensor_timestamp": 533500115077094,
      "time_usec": 928319290915
    },
    {
      "frame_id": 60,
      "sensor_timestamp": 533500148426094,
      "time_usec": 928319324264
    },
    {
      "frame_id": 61,
      "sensor_timestamp": 533500181827094,
      "time_usec": 928319357665
    },
    {
      "frame_id": 62,
      "sensor_timestamp": 533500215098094,
      "time_usec": 928319390936
    },
    {
      "frame_id": 63,
      "sensor_timestamp": 533500248477094,
      "time_usec": 928319424315
    },
    {
      "frame_id": 64,
      "sensor_timestamp": 533500281863094,
      "time_usec": 928319457701
    },
    {
      "frame_id": 65,
      "sensor_timestamp": 533500315134094,
      "time_usec": 928319490972
    },
    {
      "frame_id": 66,
      "sensor_timestamp": 533500348536094,
      "time_usec": 928319524374
    },
    {
      "frame_id": 67,
      "sensor_timestamp": 533500382201094,
      "time_usec": 928319558039
    },
    {
      "frame_id": 68,
      "sensor_timestamp": 533500415198094,
      "time_usec": 928319591036
    },
    {
      "frame_id": 69,
      "sensor_timestamp": 533500448447094,
      "time_usec": 928319624285
    },
    {
      "frame_id": 70,
      "sensor_timestamp": 533500481826094,
      "time_usec": 928319657664
    },
    {
      "frame_id": 71,
      "sensor_timestamp": 533500515335094,
      "time_usec": 928319691173
    },
    {
      "frame_id": 72,
      "sensor_timestamp": 533500548443094,
      "time_usec": 928319724281
    },
    {
      "frame_id": 73,
      "sensor_timestamp": 533500581895094,
      "time_usec": 928319757733
    },
    {
      "frame_id": 74,
      "sensor_timestamp": 533500615105094,
      "time_usec": 928319790943
    },
    {
      "frame_id": 75,
      "sensor_timestamp": 533500648329094,
      "time_usec": 928319824167
    },
    {
      "frame_id": 76,
      "sensor_timestamp": 533500681940094,
      "time_usec": 928319857778
    },
    {
      "frame_id": 77,
      "sensor_timestamp": 533500715153094,
      "time_usec": 928319890991
    },
    {
      "frame_id": 78,
      "sensor_timestamp": 533500748493094,
      "time_usec": 928319924331
    },
    {
      "frame_id": 79,
      "sensor_timestamp": 533500781865094,
      "time_usec": 928319957703
    },
    {
      "frame_id": 80,
      "sensor_timestamp": 533500815177094,
      "time_usec": 928319991015
    },
    {
      "frame_id": 81,
      "sensor_timestamp": 533500848471094,
      "time_usec": 928320024309
    },
    {
      "frame_id": 82,
      "sensor_timestamp": 533500881815094,
      "time_usec": 928320057653
    },
    {
      "frame_id": 83,
      "sensor_timestamp": 533500915163094,
      "time_usec": 928320091001
    },
    {
      "frame_id": 84,
      "sensor_timestamp": 533500948678094,
      "time_usec": 928320124516
    },
    {
      "frame_id": 85,
      "sensor_timestamp": 533500981942094,
      "time_usec": 928320157780
    },
    {
      "frame_id": 86,
      "sensor_timestamp": 533501015279094,
      "time_usec": 928320191117
    },
    {
      "frame_id": 87,
      "sensor_timestamp": 533501048541094,
      "time_usec": 928320224379
    },
    {
      "frame_id": 88,
      "sensor_timestamp": 533501081927094,
      "time_usec": 928320257765
    },
    {
      "frame_id": 89,
      "sensor_timestamp": 533501115673094,
      "time_usec": 928320291511
    },
    {
      "frame_id": 90,
      "sensor_timestamp": 533501148618094,
      "time_usec": 928320324456
    },
    {
      "frame_id": 91,
      "sensor_timestamp": 533501181934094,
      "time_usec": 928320357772
    },
    {
      "frame_id": 92,
      "sensor_timestamp": 533501215379094,
      "time_usec": 928320391217
    },
    {
      "frame_id": 93,
      "sensor_timestamp": 533501248658094,
      "time_usec": 928320424496
    },
    {
      "frame_id": 94,
      "sensor_timestamp": 533501281949094,
      "time_usec": 928320457787
    },
    {
      "frame_id": 95,
      "sensor_timestamp": 533501315355094,
      "time_usec": 928320491193
    },
    {
      "frame_id": 96,
      "sensor_timestamp": 533501348529094,
      "time_usec": 928320524367
    },
    {
      "frame_id": 97,
      "sensor_timestamp": 533501381828094,
      "time_usec": 928320557666
    },
    {
      "frame_id": 98,
      "sensor_timestamp": 533501415199094,
      "time_usec": 928320591037
    },
    {
      "frame_id": 99,
      "sensor_timestamp": 533501448616094,
      "time_usec": 928320624454
    },
    {
      "frame_id": 100,
      "sensor_timestamp": 533501482079094,
      "time_usec": 928320657917
    },
    {
      "frame_id": 101,
      "sensor_timestamp": 533501515250094,
      "time_usec": 928320691088
    },
    {
      "frame_id": 102,
      "sensor_timestamp": 533501548641094,
      "time_usec": 928320724479
    },
    {
      "frame_id": 103,
      "sensor_timestamp": 533501581770094,
      "time_usec": 928320757608
    },
    {
      "frame_id": 104,
      "sensor_timestamp": 533501615205094,
      "time_usec": 928320791043
    },
    {
      "frame_id": 105,
      "sensor_timestamp": 533501648576094,
      "time_usec": 928320824414
    },
    {
      "frame_id": 106,
      "sensor_timestamp": 533501681769094,
      "time_usec": 928320857607
    },
    {
      "frame_id": 107,
      "sensor_timestamp": 533501715287094,
      "time_usec": 928320891125
    },
    {
      "frame_id": 108,
      "sensor_timestamp": 533501748629094,
      "time_usec": 928320924467
    },
    {
      "frame_id": 109,
      "sensor_timestamp": 533501781869094,
      "time_usec": 928320957707
    },
    {
      "frame_id": 110,
      "sensor_timestamp": 533501815637094,
      "time_usec": 928320991475
    },
    {
      "frame_id": 111,
      "sensor_timestamp": 533501848552094,
      "time_usec": 928321024390
    },
    {
      "frame_id": 112,
      "sensor_timestamp": 533501881917094,
      "time_usec": 928321057755
    },
    {
      "frame_id": 113,
      "sensor_timestamp": 533501915316094,
      "time_usec": 928321091154
    },
    {
      "frame_id": 114,
      "sensor_timestamp": 533501948740094,
      "time_usec": 928321124578
    },
    {
      "frame_id": 115,
      "sensor_timestamp": 533501982021094,
      "time_usec": 928321157859
    },
    {
      "frame_id": 116,
      "sensor_timestamp": 533502015261094,
      "time_usec": 928321191099
    },
    {
      "frame_id": 117,
      "sensor_timestamp": 533502048737094,
      "time_usec": 928321224575
    },
    {
      "frame_id": 118,
      "sensor_timestamp": 533502081999094,
      "time_usec": 928321257837
    },
    {
      "frame_id": 119,
      "sensor_timestamp": 533502115393094,
      "time_usec": 928321291231
    },
    {
      "frame_id": 120,
      "sensor_timestamp": 533502148451094,
      "time_usec": 928321324289
    },
    {
      "frame_id": 121,
      "sensor_timestamp": 533502182000094,
      "time_usec": 928321357838
    },
    {
      "frame_id": 122,
      "sensor_timestamp": 533502215290094,
      "time_usec": 928321391128
    },
    {
      "frame_id": 123,
      "sensor_timestamp": 533502248503094,
      "time_usec": 928321424341
    },
    {
      "frame_id": 124,
      "sensor_timestamp": 533502282101094,
      "time_usec": 928321457939
    },
    {
      "frame_id": 125,
      "sensor_timestamp": 533502315303094,
      "time_usec": 928321491141
    },
    {
      "frame_id": 126,
      "sensor_timestamp": 533502348707094,
      "time_usec": 928321524545
    },
    {
      "frame_id": 127,
      "sensor_timestamp": 533502381965094,
      "time_usec": 928321557803
    },
    {
      "frame_id": 128,
      "sensor_timestamp": 533502415331094,
      "time_usec": 928321591169
    },
    {
      "frame_id": 129,
      "sensor_timestamp": 533502448604094,
      "time_usec": 928321624442
    },
    {
      "frame_id": 130,
      "sensor_timestamp": 533502482074094,
      "time_usec": 928321657912
    },
    {
      "frame_id": 131,
      "sensor_timestamp": 533502515283094,
      "time_usec": 928321691121
    },
    {
      "frame_id": 132,
      "sensor_timestamp": 533502548727094,
      "time_usec": 928321724565
    },
    {
      "frame_id": 133,
      "sensor_timestamp": 533502582124094,
      "time_usec": 928321757962
    },
    {
      "frame_id": 134,
      "sensor_timestamp": 533502615520094,
      "time_usec": 928321791358
    },
    {
      "frame_id": 135,
      "sensor_timestamp": 533502648713094,
      "time_usec": 928321824551
    },
    {
      "frame_id": 136,
      "sensor_timestamp": 533502682066094,
      "time_usec": 928321857904
    },
    {
      "frame_id": 137,
      "sensor_timestamp": 533502715200094,
      "time_usec": 928321891038
    },
    {
      "frame_id": 138,
      "sensor_timestamp": 533502748633094,
      "time_usec": 928321924471
    },
    {
      "frame_id": 139,
      "sensor_timestamp": 533502781991094,
      "time_usec": 928321957829
    },
    {
      "frame_id": 140,
      "sensor_timestamp": 533502815246094,
      "time_usec": 928321991084
    },
    {
      "frame_id": 141,
      "sensor_timestamp": 533502848684094,
      "time_usec": 928322024522
    },
    {
      "frame_id": 142,
      "sensor_timestamp": 533502882048094,
      "time_usec": 928322057886
    },
    {
      "frame_id": 143,
      "sensor_timestamp": 533502915454094,
      "time_usec": 928322091292
    },
    {
      "frame_id": 144,
      "sensor_timestamp": 533502948667094,
      "time_usec": 928322124505
    },
    {
      "frame_id": 145,
      "sensor_timestamp": 533502982109094,
      "time_usec": 928322157947
    },
    {
      "frame_id": 146,
      "sensor_timestamp": 533503015518094,
      "time_usec": 928322191356
    },
    {
      "frame_id": 147,
      "sensor_timestamp": 533503048814094,
      "time_usec": 928322224652
    },
    {
      "frame_id": 148,
      "sensor_timestamp": 533503082005094,
      "time_usec": 928322257843
    },
    {
      "frame_id": 149,
      "sensor_timestamp": 533503115273094,
      "time_usec": 928322291111
    },
    {
      "frame_id": 150,
      "sensor_timestamp": 533503148669094,
      "time_usec": 928322324507
    },
    {
      "frame_id": 151,
      "sensor_timestamp": 533503182030094,
      "time_usec": 928322357868
    },
    {
      "frame_id": 152,
      "sensor_timestamp": 533503215354094,
      "time_usec": 928322391192
    },
    {
      "frame_id": 153,
      "sensor_timestamp": 533503248791094,
      "time_usec": 928322424629
    },
    {
      "frame_id": 154,
      "sensor_timestamp": 533503282056094,
      "time_usec": 928322457894
    },
    {
      "frame_id": 155,
      "sensor_timestamp": 533503315685094,
      "time_usec": 928322491523
    },
    {
      "frame_id": 156,
      "sensor_timestamp": 533503348812094,
      "time_usec": 928322524650
    },
    {
      "frame_id": 157,
      "sensor_timestamp": 533503382041094,
      "time_usec": 928322557879
    },
    {
      "frame_id": 158,
      "sensor_timestamp": 533503415361094,
      "time_usec": 928322591199
    },
    {
      "frame_id": 159,
      "sensor_timestamp": 533503448789094,
      "time_usec": 928322624627
    },
    {
      "frame_id": 160,
      "sensor_timestamp": 533503482043094,
      "time_usec": 928322657881
    },
    {
      "frame_id": 161,
      "sensor_timestamp": 533503515455094,
      "time_usec": 928322691293
    },
    {
      "frame_id": 162,
      "sensor_timestamp": 533503548703094,
      "time_usec": 928322724541
    },
    {
      "frame_id": 163,
      "sensor_timestamp": 533503582139094,
      "time_usec": 928322757977
    },
    {
      "frame_id": 164,
      "sensor_timestamp": 533503615477094,
      "time_usec": 928322791315
    },
    {
      "frame_id": 165,
      "sensor_timestamp": 533503648809094,
      "time_usec": 928322824647
    },
    {
      "frame_id": 166,
      "sensor_timestamp": 533503682046094,
      "time_usec": 928322857884
    },
    {
      "frame_id": 167,
      "sensor_timestamp": 533503715500094,
      "time_usec": 928322891338
    },
    {
      "frame_id": 168,
      "sensor_timestamp": 533503748804094,
      "time_usec": 928322924642
    },
    {
      "frame_id": 169,
      "sensor_timestamp": 533503782107094,
      "time_usec": 928322957945
    },
    {
      "frame_id": 170,
      "sensor_timestamp": 533503815484094,
      "time_usec": 928322991322
    },
    {
      "frame_id": 171,
      "sensor_timestamp": 533503848726094,
      "time_usec": 928323024564
    },
    {
      "frame_id": 172,
      "sensor_timestamp": 533503882113094,
      "time_usec": 928323057951
    },
    {
      "frame_id": 173,
      "sensor_timestamp": 533503915422094,
      "time_usec": 928323091260
    },
    {
      "frame_id": 174,
      "sensor_timestamp": 533503948735094,
      "time_usec": 928323124573
    },
    {
      "frame_id": 175,
      "sensor_timestamp": 533503982075094,
      "time_usec": 928323157913
    },
    {
      "frame_id": 176,
      "sensor_timestamp": 533504015515094,
      "time_usec": 928323191353
    },
    {
      "frame_id": 177,
      "sensor_timestamp": 533504048832094,
      "time_usec": 928323224670
    },
    {
      "frame_id": 178,
      "sensor_timestamp": 533504082146094,
      "time_usec": 928323257984
    },
    {
      "frame_id": 179,
      "sensor_timestamp": 533504115330094,
      "time_usec": 928323291168
    },
    {
      "frame_id": 180,
      "sensor_timestamp": 533504148697094,
      "time_usec": 928323324535
    },
    {
      "frame_id": 181,
      "sensor_timestamp": 533504182078094,
      "time_usec": 928323357916
    },
    {
      "frame_id": 182,
      "sensor_timestamp": 533504215370094,
      "time_usec": 928323391208
    },
    {
      "frame_id": 183,
      "sensor_timestamp": 533504248717094,
      "time_usec": 928323424555
    },
    {
      "frame_id": 184,
      "sensor_timestamp": 533504282232094,
      "time_usec": 928323458070
    },
    {
      "frame_id": 185,
      "sensor_timestamp": 533504315709094,
      "time_usec": 928323491547
    },
    {
      "frame_id": 186,
      "sensor_timestamp": 533504348864094,
      "time_usec": 928323524702
    },
    {
      "frame_id": 187,
      "sensor_timestamp": 533504382132094,
      "time_usec": 928323557970
    },
    {
      "frame_id": 188,
      "sensor_timestamp": 533504415439094,
      "time_usec": 928323591277
    },
    {
      "frame_id": 189,
      "sensor_timestamp": 533504448773094,
      "time_usec": 928323624611
    },
    {
      "frame_id": 190,
      "sensor_timestamp": 533504482198094,
      "time_usec": 928323658036
    },
    {
      "frame_id": 191,
      "sensor_timestamp": 533504515364094,
      "time_usec": 928323691202
    },
    {
      "frame_id": 192,
      "sensor_timestamp": 533504548782094,
      "time_usec": 928323724620
    },
    {
      "frame_id": 193,
      "sensor_timestamp": 533504582171094,
      "time_usec": 928323758009
    },
    {
      "frame_id": 194,
      "sensor_timestamp": 533504615430094,
      "time_usec": 928323791268
    },
    {
      "frame_id": 195,
      "sensor_timestamp": 533504648853094,
      "time_usec": 928323824691
    },
    {
      "frame_id": 196,
      "sensor_timestamp": 533504682265094,
      "time_usec": 928323858103
    },
    {
      "frame_id": 197,
      "sensor_timestamp": 533504715472094,
      "time_usec": 928323891310
    },
    {
      "frame_id": 198,
      "sensor_timestamp": 533504748833094,
      "time_usec": 928323924671
    },
    {
      "frame_id": 199,
      "sensor_timestamp": 533504782123094,
      "time_usec": 928323957961
    },
    {
      "frame_id": 200,
      "sensor_timestamp": 533504815584094,
      "time_usec": 928323991422
    },
    {
      "frame_id": 201,
      "sensor_timestamp": 533504848947094,
      "time_usec": 928324024785
    },
    {
      "frame_id": 202,
      "sensor_timestamp": 533504882145094,
      "time_usec": 928324057983
    },
    {
      "frame_id": 203,
      "sensor_timestamp": 533504915583094,
      "time_usec": 928324091421
    },
    {
      "frame_id": 204,
      "sensor_timestamp": 533504948783094,
      "time_usec": 928324124621
    },
    {
      "frame_id": 205,
      "sensor_timestamp": 533504982131094,
      "time_usec": 928324157969
    },
    {
      "frame_id": 206,
      "sensor_timestamp": 533505015499094,
      "time_usec": 928324191337
    },
    {
      "frame_id": 207,
      "sensor_timestamp": 533505048760094,
      "time_usec": 928324224598
    },
    {
      "frame_id": 208,
      "sensor_timestamp": 533505082274094,
      "time_usec": 928324258112
    },
    {
      "frame_id": 209,
      "sensor_timestamp": 533505115511094,
      "time_usec": 928324291349
    },
    {
      "frame_id": 210,
      "sensor_timestamp": 533505148953094,
      "time_usec": 928324324791
    },
    {
      "frame_id": 211,
      "sensor_timestamp": 533505182171094,
      "time_usec": 928324358009
    },
    {
      "frame_id": 212,
      "sensor_timestamp": 533505215640094,
      "time_usec": 928324391478
    },
    {
      "frame_id": 213,
      "sensor_timestamp": 533505248958094,
      "time_usec": 928324424796
    },
    {
      "frame_id": 214,
      "sensor_timestamp": 533505282397094,
      "time_usec": 928324458235
    },
    {
      "frame_id": 215,
      "sensor_timestamp": 533505315536094,
      "time_usec": 928324491374
    },
    {
      "frame_id": 216,
      "sensor_timestamp": 533505348984094,
      "time_usec": 928324524822
    },
    {
      "frame_id": 217,
      "sensor_timestamp": 533505382269094,
      "time_usec": 928324558107
    },
    {
      "frame_id": 218,
      "sensor_timestamp": 533505415594094,
      "time_usec": 928324591432
    },
    {
      "frame_id": 219,
      "sensor_timestamp": 533505448898094,
      "time_usec": 928324624736
    },
    {
      "frame_id": 220,
      "sensor_timestamp": 533505482255094,
      "time_usec": 928324658093
    },
    {
      "frame_id": 221,
      "sensor_timestamp": 533505515600094,
      "time_usec": 928324691438
    },
    {
      "frame_id": 222,
      "sensor_timestamp": 533505548741094,
      "time_usec": 928324724579
    },
    {
      "frame_id": 223,
      "sensor_timestamp": 533505582288094,
      "time_usec": 928324758126
    },
    {
      "frame_id": 224,
      "sensor_timestamp": 533505615539094,
      "time_usec": 928324791377
    },
    {
      "frame_id": 225,
      "sensor_timestamp": 533505649013094,
      "time_usec": 928324824851
    },
    {
      "frame_id": 226,
      "sensor_timestamp": 533505682089094,
      "time_usec": 928324857927
    },
    {
      "frame_id": 227,
      "sensor_timestamp": 533505715422094,
      "time_usec": 928324891260
    },
    {
      "frame_id": 228,
      "sensor_timestamp": 533505748793094,
      "time_usec": 928324924631
    },
    {
      "frame_id": 229,
      "sensor_timestamp": 533505782100094,
      "time_usec": 928324957938
    },
    {
      "frame_id": 230,
      "sensor_timestamp": 533505815531094,
      "time_usec": 928324991369
    },
    {
      "frame_id": 231,
      "sensor_timestamp": 533505848938094,
      "time_usec": 928325024776
    },
    {
      "frame_id": 232,
      "sensor_timestamp": 533505882212094,
      "time_usec": 928325058050
    },
    {
      "frame_id": 233,
      "sensor_timestamp": 533505915546094,
      "time_usec": 928325091384
    },
    {
      "frame_id": 234,
      "sensor_timestamp": 533505949076094,
      "time_usec": 928325124914
    },
    {
      "frame_id": 235,
      "sensor_timestamp": 533505982282094,
      "time_usec": 928325158120
    },
    {
      "frame_id": 236,
      "sensor_timestamp": 533506015614094,
      "time_usec": 928325191452
    },
    {
      "frame_id": 237,
      "sensor_timestamp": 533506048936094,
      "time_usec": 928325224774
    },
    {
      "frame_id": 238,
      "sensor_timestamp": 533506082293094,
      "time_usec": 928325258131
    },
    {
      "frame_id": 239,
      "sensor_timestamp": 533506115460094,
      "time_usec": 928325291298
    },
    {
      "frame_id": 240,
      "sensor_timestamp": 533506148892094,
      "time_usec": 928325324730
    },
    {
      "frame_id": 241,
      "sensor_timestamp": 533506182313094,
      "time_usec": 928325358151
    },
    {
      "frame_id": 242,
      "sensor_timestamp": 533506215668094,
      "time_usec": 928325391506
    },
    {
      "frame_id": 243,
      "sensor_timestamp": 533506248911094,
      "time_usec": 928325424749
    },
    {
      "frame_id": 244,
      "sensor_timestamp": 533506282319094,
      "time_usec": 928325458157
    },
    {
      "frame_id": 245,
      "sensor_timestamp": 533506315588094,
      "time_usec": 928325491426
    },
    {
      "frame_id": 246,
      "sensor_timestamp": 533506349076094,
      "time_usec": 928325524914
    },
    {
      "frame_id": 247,
      "sensor_timestamp": 533506382279094,
      "time_usec": 928325558117
    },
    {
      "frame_id": 248,
      "sensor_timestamp": 533506415704094,
      "time_usec": 928325591542
    },
    {
      "frame_id": 249,
      "sensor_timestamp": 533506449138094,
      "time_usec": 928325624976
    },
    {
      "frame_id": 250,
      "sensor_timestamp": 533506482323094,
      "time_usec": 928325658161
    },
    {
      "frame_id": 251,
      "sensor_timestamp": 533506515665094,
      "time_usec": 928325691503
    },
    {
      "frame_id": 252,
      "sensor_timestamp": 533506549021094,
      "time_usec": 928325724859
    },
    {
      "frame_id": 253,
      "sensor_timestamp": 533506582370094,
      "time_usec": 928325758208
    },
    {
      "frame_id": 254,
      "sensor_timestamp": 533506615707094,
      "time_usec": 928325791545
    },
    {
      "frame_id": 255,
      "sensor_timestamp": 533506649028094,
      "time_usec": 928325824866
    },
    {
      "frame_id": 256,
      "sensor_timestamp": 533506682360094,
      "time_usec": 928325858198
    },
    {
      "frame_id": 257,
      "sensor_timestamp": 533506715751094,
      "time_usec": 928325891589
    },
    {
      "frame_id": 258,
      "sensor_timestamp": 533506748959094,
      "time_usec": 928325924797
    },
    {
      "frame_id": 259,
      "sensor_timestamp": 533506782284094,
      "time_usec": 928325958122
    },
    {
      "frame_id": 260,
      "sensor_timestamp": 533506815575094,
      "time_usec": 928325991413
    },
    {
      "frame_id": 261,
      "sensor_timestamp": 533506849145094,
      "time_usec": 928326024983
    },
    {
      "frame_id": 262,
      "sensor_timestamp": 533506882372094,
      "time_usec": 928326058210
    },
    {
      "frame_id": 263,
      "sensor_timestamp": 533506915712094,
      "time_usec": 928326091550
    },
    {
      "frame_id": 264,
      "sensor_timestamp": 533506949273094,
      "time_usec": 928326125111
    },
    {
      "frame_id": 265,
      "sensor_timestamp": 533506982418094,
      "time_usec": 928326158256
    },
    {
      "frame_id": 266,
      "sensor_timestamp": 533507015541094,
      "time_usec": 928326191379
    },
    {
      "frame_id": 267,
      "sensor_timestamp": 533507049066094,
      "time_usec": 928326224904
    },
    {
      "frame_id": 268,
      "sensor_timestamp": 533507082431094,
      "time_usec": 928326258269
    },
    {
      "frame_id": 269,
      "sensor_timestamp": 533507115688094,
      "time_usec": 928326291526
    },
    {
      "frame_id": 270,
      "sensor_timestamp": 533507149030094,
      "time_usec": 928326324868
    },
    {
      "frame_id": 271,
      "sensor_timestamp": 533507182218094,
      "time_usec": 928326358056
    },
    {
      "frame_id": 272,
      "sensor_timestamp": 533507215558094,
      "time_usec": 928326391396
    },
    {
      "frame_id": 273,
      "sensor_timestamp": 533507249002094,
      "time_usec": 928326424840
    },
    {
      "frame_id": 274,
      "sensor_timestamp": 533507282551094,
      "time_usec": 928326458389
    },
    {
      "frame_id": 275,
      "sensor_timestamp": 533507315715094,
      "time_usec": 928326491553
    },
    {
      "frame_id": 276,
      "sensor_timestamp": 533507349044094,
      "time_usec": 928326524882
    },
    {
      "frame_id": 277,
      "sensor_timestamp": 533507382239094,
      "time_usec": 928326558077
    },
    {
      "frame_id": 278,
      "sensor_timestamp": 533507415723094,
      "time_usec": 928326591561
    },
    {
      "frame_id": 279,
      "sensor_timestamp": 533507449192094,
      "time_usec": 928326625030
    },
    {
      "frame_id": 280,
      "sensor_timestamp": 533507482387094,
      "time_usec": 928326658225
    },
    {
      "frame_id": 281,
      "sensor_timestamp": 533507515731094,
      "time_usec": 928326691569
    },
    {
      "frame_id": 282,
      "sensor_timestamp": 533507549051094,
      "time_usec": 928326724889
    },
    {
      "frame_id": 283,
      "sensor_timestamp": 533507582412094,
      "time_usec": 928326758250
    },
    {
      "frame_id": 284,
      "sensor_timestamp": 533507615717094,
      "time_usec": 928326791555
    },
    {
      "frame_id": 285,
      "sensor_timestamp": 533507649063094,
      "time_usec": 928326824901
    },
    {
      "frame_id": 286,
      "sensor_timestamp": 533507682489094,
      "time_usec": 928326858327
    },
    {
      "frame_id": 287,
      "sensor_timestamp": 533507715603094,
      "time_usec": 928326891441
    },
    {
      "frame_id": 288,
      "sensor_timestamp": 533507749127094,
      "time_usec": 928326924965
    },
    {
      "frame_id": 289,
      "sensor_timestamp": 533507782562094,
      "time_usec": 928326958400
    },
    {
      "frame_id": 290,
      "sensor_timestamp": 533507815879094,
      "time_usec": 928326991717
    },
    {
      "frame_id": 291,
      "sensor_timestamp": 533507849235094,
      "time_usec": 928327025073
    },
    {
      "frame_id": 292,
      "sensor_timestamp": 533507882512094,
      "time_usec": 928327058350
    },
    {
      "frame_id": 293,
      "sensor_timestamp": 533507915688094,
      "time_usec": 928327091526
    },
    {
      "frame_id": 294,
      "sensor_timestamp": 533507940813022,
      "time_usec": 928327116651
    },
    {
      "frame_id": 295,
      "sensor_timestamp": 533507974120022,
      "time_usec": 928327149958
    },
    {
      "frame_id": 296,
      "sensor_timestamp": 533508007609022,
      "time_usec": 928327183447
    },
    {
      "frame_id": 297,
      "sensor_timestamp": 533508040627022,
      "time_usec": 928327216465
    },
    {
      "frame_id": 298,
      "sensor_timestamp": 533508074177022,
      "time_usec": 928327250015
    },
    {
      "frame_id": 299,
      "sensor_timestamp": 533508107304022,
      "time_usec": 928327283142
    },
    {
      "frame_id": 300,
      "sensor_timestamp": 533508140834022,
      "time_usec": 928327316672
    },
    {
      "frame_id": 301,
      "sensor_timestamp": 533508174219022,
      "time_usec": 928327350057
    },
    {
      "frame_id": 302,
      "sensor_timestamp": 533508207489022,
      "time_usec": 928327383327
    },
    {
      "frame_id": 303,
      "sensor_timestamp": 533508240896022,
      "time_usec": 928327416734
    },
    {
      "frame_id": 304,
      "sensor_timestamp": 533508274193022,
      "time_usec": 928327450031
    },
    {
      "frame_id": 305,
      "sensor_timestamp": 533508307509022,
      "time_usec": 928327483347
    },
    {
      "frame_id": 306,
      "sensor_timestamp": 533508340812022,
      "time_usec": 928327516650
    },
    {
      "frame_id": 307,
      "sensor_timestamp": 533508374114022,
      "time_usec": 928327549952
    },
    {
      "frame_id": 308,
      "sensor_timestamp": 533508407382022,
      "time_usec": 928327583220
    },
    {
      "frame_id": 309,
      "sensor_timestamp": 533508449172094,
      "time_usec": 928327625010
    },
    {
      "frame_id": 310,
      "sensor_timestamp": 533508482330094,
      "time_usec": 928327658168
    },
    {
      "frame_id": 311,
      "sensor_timestamp": 533508515670094,
      "time_usec": 928327691508
    },
    {
      "frame_id": 312,
      "sensor_timestamp": 533508549165094,
      "time_usec": 928327725003
    },
    {
      "frame_id": 313,
      "sensor_timestamp": 533508582342094,
      "time_usec": 928327758180
    },
    {
      "frame_id": 314,
      "sensor_timestamp": 533508615850094,
      "time_usec": 928327791688
    },
    {
      "frame_id": 315,
      "sensor_timestamp": 533508649145094,
      "time_usec": 928327824983
    },
    {
      "frame_id": 316,
      "sensor_timestamp": 533508682478094,
      "time_usec": 928327858316
    },
    {
      "frame_id": 317,
      "sensor_timestamp": 533508715824094,
      "time_usec": 928327891662
    },
    {
      "frame_id": 318,
      "sensor_timestamp": 533508749153094,
      "time_usec": 928327924991
    },
    {
      "frame_id": 319,
      "sensor_timestamp": 533508782754094,
      "time_usec": 928327958592
    },
    {
      "frame_id": 320,
      "sensor_timestamp": 533508815855094,
      "time_usec": 928327991693
    },
    {
      "frame_id": 321,
      "sensor_timestamp": 533508849135094,
      "time_usec": 928328024973
    },
    {
      "frame_id": 322,
      "sensor_timestamp": 533508882491094,
      "time_usec": 928328058329
    },
    {
      "frame_id": 323,
      "sensor_timestamp": 533508915738094,
      "time_usec": 928328091576
    },
    {
      "frame_id": 324,
      "sensor_timestamp": 533508949210094,
      "time_usec": 928328125048
    },
    {
      "frame_id": 325,
      "sensor_timestamp": 533508982586094,
      "time_usec": 928328158424
    },
    {
      "frame_id": 326,
      "sensor_timestamp": 533509015852094,
      "time_usec": 928328191690
    },
    {
      "frame_id": 327,
      "sensor_timestamp": 533509049112094,
      "time_usec": 928328224950
    },
    {
      "frame_id": 328,
      "sensor_timestamp": 533509082599094,
      "time_usec": 928328258437
    },
    {
      "frame_id": 329,
      "sensor_timestamp": 533509115933094,
      "time_usec": 928328291771
    },
    {
      "frame_id": 330,
      "sensor_timestamp": 533509149221094,
      "time_usec": 928328325059
    },
    {
      "frame_id": 331,
      "sensor_timestamp": 533509182395094,
      "time_usec": 928328358233
    },
    {
      "frame_id": 332,
      "sensor_timestamp": 533509215726094,
      "time_usec": 928328391564
    },
    {
      "frame_id": 333,
      "sensor_timestamp": 533509249066094,
      "time_usec": 928328424904
    },
    {
      "frame_id": 334,
      "sensor_timestamp": 533509282515094,
      "time_usec": 928328458353
    },
    {
      "frame_id": 335,
      "sensor_timestamp": 533509315998094,
      "time_usec": 928328491836
    },
    {
      "frame_id": 336,
      "sensor_timestamp": 533509349072094,
      "time_usec": 928328524910
    },
    {
      "frame_id": 337,
      "sensor_timestamp": 533509382525094,
      "time_usec": 928328558363
    },
    {
      "frame_id": 338,
      "sensor_timestamp": 533509415740094,
      "time_usec": 928328591578
    },
    {
      "frame_id": 339,
      "sensor_timestamp": 533509449081094,
      "time_usec": 928328624919
    },
    {
      "frame_id": 340,
      "sensor_timestamp": 533509482509094,
      "time_usec": 928328658347
    },
    {
      "frame_id": 341,
      "sensor_timestamp": 533509515861094,
      "time_usec": 928328691699
    },
    {
      "frame_id": 342,
      "sensor_timestamp": 533509549189094,
      "time_usec": 928328725027
    },
    {
      "frame_id": 343,
      "sensor_timestamp": 533509582529094,
      "time_usec": 928328758367
    },
    {
      "frame_id": 344,
      "sensor_timestamp": 533509615912094,
      "time_usec": 928328791750
    },
    {
      "frame_id": 345,
      "sensor_timestamp": 533509649268094,
      "time_usec": 928328825106
    },
    {
      "frame_id": 346,
      "sensor_timestamp": 533509682690094,
      "time_usec": 928328858528
    },
    {
      "frame_id": 347,
      "sensor_timestamp": 533509715854094,
      "time_usec": 928328891692
    },
    {
      "frame_id": 348,
      "sensor_timestamp": 533509749349094,
      "time_usec": 928328925187
    },
    {
      "frame_id": 349,
      "sensor_timestamp": 533509782546094,
      "time_usec": 928328958384
    },
    {
      "frame_id": 350,
      "sensor_timestamp": 533509815941094,
      "time_usec": 928328991779
    },
    {
      "frame_id": 351,
      "sensor_timestamp": 533509849454094,
      "time_usec": 928329025292
    },
    {
      "frame_id": 352,
      "sensor_timestamp": 533509882672094,
      "time_usec": 928329058510
    },
    {
      "frame_id": 353,
      "sensor_timestamp": 533509915991094,
      "time_usec": 928329091829
    },
    {
      "frame_id": 354,
      "sensor_timestamp": 533509949290094,
      "time_usec": 928329125128
    },
    {
      "frame_id": 355,
      "sensor_timestamp": 533509982749094,
      "time_usec": 928329158587
    },
    {
      "frame_id": 356,
      "sensor_timestamp": 533510015871094,
      "time_usec": 928329191709
    },
    {
      "frame_id": 357,
      "sensor_timestamp": 533510049588094,
      "time_usec": 928329225426
    },
    {
      "frame_id": 358,
      "sensor_timestamp": 533510082552094,
      "time_usec": 928329258390
    },
    {
      "frame_id": 359,
      "sensor_timestamp": 533510115975094,
      "time_usec": 928329291813
    },
    {
      "frame_id": 360,
      "sensor_timestamp": 533510149457094,
      "time_usec": 928329325295
    },
    {
      "frame_id": 361,
      "sensor_timestamp": 533510182570094,
      "time_usec": 928329358408
    },
    {
      "frame_id": 362,
      "sensor_timestamp": 533510216077094,
      "time_usec": 928329391915
    },
    {
      "frame_id": 363,
      "sensor_timestamp": 533510249234094,
      "time_usec": 928329425072
    },
    {
      "frame_id": 364,
      "sensor_timestamp": 533510282673094,
      "time_usec": 928329458511
    },
    {
      "frame_id": 365,
      "sensor_timestamp": 533510316040094,
      "time_usec": 928329491878
    },
    {
      "frame_id": 366,
      "sensor_timestamp": 533510349498094,
      "time_usec": 928329525336
    },
    {
      "frame_id": 367,
      "sensor_timestamp": 533510382624094,
      "time_usec": 928329558462
    },
    {
      "frame_id": 368,
      "sensor_timestamp": 533510415990094,
      "time_usec": 928329591828
    },
    {
      "frame_id": 369,
      "sensor_timestamp": 533510449169094,
      "time_usec": 928329625007
    },
    {
      "frame_id": 370,
      "sensor_timestamp": 533510482602094,
      "time_usec": 928329658440
    },
    {
      "frame_id": 371,
      "sensor_timestamp": 533510516001094,
      "time_usec": 928329691839
    },
    {
      "frame_id": 372,
      "sensor_timestamp": 533510549305094,
      "time_usec": 928329725143
    },
    {
      "frame_id": 373,
      "sensor_timestamp": 533510582620094,
      "time_usec": 928329758458
    },
    {
      "frame_id": 374,
      "sensor_timestamp": 533510615917094,
      "time_usec": 928329791755
    },
    {
      "frame_id": 375,
      "sensor_timestamp": 533510649318094,
      "time_usec": 928329825156
    },
    {
      "frame_id": 376,
      "sensor_timestamp": 533510682790094,
      "time_usec": 928329858628
    },
    {
      "frame_id": 377,
      "sensor_timestamp": 533510715994094,
      "time_usec": 928329891832
    },
    {
      "frame_id": 378,
      "sensor_timestamp": 533510749460094,
      "time_usec": 928329925298
    },
    {
      "frame_id": 379,
      "sensor_timestamp": 533510782772094,
      "time_usec": 928329958610
    },
    {
      "frame_id": 380,
      "sensor_timestamp": 533510816003094,
      "time_usec": 928329991841
    },
    {
      "frame_id": 381,
      "sensor_timestamp": 533510849207094,
      "time_usec": 928330025045
    },
    {
      "frame_id": 382,
      "sensor_timestamp": 533510882542094,
      "time_usec": 928330058380
    },
    {
      "frame_id": 383,
      "sensor_timestamp": 533510916006094,
      "time_usec": 928330091844
    },
    {
      "frame_id": 384,
      "sensor_timestamp": 533510949340094,
      "time_usec": 928330125178
    },
    {
      "frame_id": 385,
      "sensor_timestamp": 533510982582094,
      "time_usec": 928330158420
    },
    {
      "frame_id": 386,
      "sensor_timestamp": 533511016122094,
      "time_usec": 928330191960
    },
    {
      "frame_id": 387,
      "sensor_timestamp": 533511049347094,
      "time_usec": 928330225185
    },
    {
      "frame_id": 388,
      "sensor_timestamp": 533511082685094,
      "time_usec": 928330258523
    },
    {
      "frame_id": 389,
      "sensor_timestamp": 533511116095094,
      "time_usec": 928330291933
    },
    {
      "frame_id": 390,
      "sensor_timestamp": 533511149459094,
      "time_usec": 928330325297
    },
    {
      "frame_id": 391,
      "sensor_timestamp": 533511182565094,
      "time_usec": 928330358403
    },
    {
      "frame_id": 392,
      "sensor_timestamp": 533511216045094,
      "time_usec": 928330391883
    },
    {
      "frame_id": 393,
      "sensor_timestamp": 533511249501094,
      "time_usec": 928330425339
    },
    {
      "frame_id": 394,
      "sensor_timestamp": 533511282750094,
      "time_usec": 928330458588
    },
    {
      "frame_id": 395,
      "sensor_timestamp": 533511316085094,
      "time_usec": 928330491923
    },
    {
      "frame_id": 396,
      "sensor_timestamp": 533511349606094,
      "time_usec": 928330525444
    },
    {
      "frame_id": 397,
      "sensor_timestamp": 533511382866094,
      "time_usec": 928330558704
    },
    {
      "frame_id": 398,
      "sensor_timestamp": 533511416136094,
      "time_usec": 928330591974
    },
    {
      "frame_id": 399,
      "sensor_timestamp": 533511449440094,
      "time_usec": 928330625278
    },
    {
      "frame_id": 400,
      "sensor_timestamp": 533511482827094,
      "time_usec": 928330658665
    },
    {
      "frame_id": 401,
      "sensor_timestamp": 533511516114094,
      "time_usec": 928330691952
    },
    {
      "frame_id": 402,
      "sensor_timestamp": 533511549391094,
      "time_usec": 928330725229
    },
    {
      "frame_id": 403,
      "sensor_timestamp": 533511582846094,
      "time_usec": 928330758684
    },
    {
      "frame_id": 404,
      "sensor_timestamp": 533511615977094,
      "time_usec": 928330791815
    },
    {
      "frame_id": 405,
      "sensor_timestamp": 533511649268094,
      "time_usec": 928330825106
    },
    {
      "frame_id": 406,
      "sensor_timestamp": 533511682857094,
      "time_usec": 928330858695
    },
    {
      "frame_id": 407,
      "sensor_timestamp": 533511716103094,
      "time_usec": 928330891941
    },
    {
      "frame_id": 408,
      "sensor_timestamp": 533511749462094,
      "time_usec": 928330925300
    },
    {
      "frame_id": 409,
      "sensor_timestamp": 533511782858094,
      "time_usec": 928330958696
    },
    {
      "frame_id": 410,
      "sensor_timestamp": 533511816113094,
      "time_usec": 928330991951
    },
    {
      "frame_id": 411,
      "sensor_timestamp": 533511849436094,
      "time_usec": 928331025274
    },
    {
      "frame_id": 412,
      "sensor_timestamp": 533511882859094,
      "time_usec": 928331058697
    },
    {
      "frame_id": 413,
      "sensor_timestamp": 533511916027094,
      "time_usec": 928331091865
    },
    {
      "frame_id": 414,
      "sensor_timestamp": 533511949531094,
      "time_usec": 928331125369
    },
    {
      "frame_id": 415,
      "sensor_timestamp": 533511982851094,
      "time_usec": 928331158689
    },
    {
      "frame_id": 416,
      "sensor_timestamp": 533512016257094,
      "time_usec": 928331192095
    },
    {
      "frame_id": 417,
      "sensor_timestamp": 533512049443094,
      "time_usec": 928331225281
    },
    {
      "frame_id": 418,
      "sensor_timestamp": 533512082772094,
      "time_usec": 928331258610
    },
    {
      "frame_id": 419,
      "sensor_timestamp": 533512116107094,
      "time_usec": 928331291945
    },
    {
      "frame_id": 420,
      "sensor_timestamp": 533512149441094,
      "time_usec": 928331325279
    },
    {
      "frame_id": 421,
      "sensor_timestamp": 533512182935094,
      "time_usec": 928331358773
    },
    {
      "frame_id": 422,
      "sensor_timestamp": 533512216187094,
      "time_usec": 928331392025
    },
    {
      "frame_id": 423,
      "sensor_timestamp": 533512249454094,
      "time_usec": 928331425292
    },
    {
      "frame_id": 424,
      "sensor_timestamp": 533512283022094,
      "time_usec": 928331458860
    },
    {
      "frame_id": 425,
      "sensor_timestamp": 533512316160094,
      "time_usec": 928331491998
    },
    {
      "frame_id": 426,
      "sensor_timestamp": 533512349469094,
      "time_usec": 928331525307
    },
    {
      "frame_id": 427,
      "sensor_timestamp": 533512382670094,
      "time_usec": 928331558508
    },
    {
      "frame_id": 428,
      "sensor_timestamp": 533512416141094,
      "time_usec": 928331591979
    },
    {
      "frame_id": 429,
      "sensor_timestamp": 533512449544094,
      "time_usec": 928331625382
    },
    {
      "frame_id": 430,
      "sensor_timestamp": 533512482909094,
      "time_usec": 928331658747
    },
    {
      "frame_id": 431,
      "sensor_timestamp": 533512516111094,
      "time_usec": 928331691949
    },
    {
      "frame_id": 432,
      "sensor_timestamp": 533512549512094,
      "time_usec": 928331725350
    },
    {
      "frame_id": 433,
      "sensor_timestamp": 533512582918094,
      "time_usec": 928331758756
    },
    {
      "frame_id": 434,
      "sensor_timestamp": 533512616141094,
      "time_usec": 928331791979
    },
    {
      "frame_id": 435,
      "sensor_timestamp": 533512649650094,
      "time_usec": 928331825488
    },
    {
      "frame_id": 436,
      "sensor_timestamp": 533512682837094,
      "time_usec": 928331858675
    },
    {
      "frame_id": 437,
      "sensor_timestamp": 533512716088094,
      "time_usec": 928331891926
    },
    {
      "frame_id": 438,
      "sensor_timestamp": 533512749669094,
      "time_usec": 928331925507
    },
    {
      "frame_id": 439,
      "sensor_timestamp": 533512782823094,
      "time_usec": 928331958661
    },
    {
      "frame_id": 440,
      "sensor_timestamp": 533512816175094,
      "time_usec": 928331992013
    },
    {
      "frame_id": 441,
      "sensor_timestamp": 533512849438094,
      "time_usec": 928332025276
    },
    {
      "frame_id": 442,
      "sensor_timestamp": 533512882943094,
      "time_usec": 928332058781
    },
    {
      "frame_id": 443,
      "sensor_timestamp": 533512916189094,
      "time_usec": 928332092027
    },
    {
      "frame_id": 444,
      "sensor_timestamp": 533512949514094,
      "time_usec": 928332125352
    },
    {
      "frame_id": 445,
      "sensor_timestamp": 533512982934094,
      "time_usec": 928332158772
    },
    {
      "frame_id": 446,
      "sensor_timestamp": 533513016279094,
      "time_usec": 928332192117
    },
    {
      "frame_id": 447,
      "sensor_timestamp": 533513049670094,
      "time_usec": 928332225508
    },
    {
      "frame_id": 448,
      "sensor_timestamp": 533513082857094,
      "time_usec": 928332258695
    },
    {
      "frame_id": 449,
      "sensor_timestamp": 533513116231094,
      "time_usec": 928332292069
    },
    {
      "frame_id": 450,
      "sensor_timestamp": 533513149484094,
      "time_usec": 928332325322
    },
    {
      "frame_id": 451,
      "sensor_timestamp": 533513182735094,
      "time_usec": 928332358573
    },
    {
      "frame_id": 452,
      "sensor_timestamp": 533513216248094,
      "time_usec": 928332392086
    },
    {
      "frame_id": 453,
      "sensor_timestamp": 533513249534094,
      "time_usec": 928332425372
    },
    {
      "frame_id": 454,
      "sensor_timestamp": 533513282888094,
      "time_usec": 928332458726
    },
    {
      "frame_id": 455,
      "sensor_timestamp": 533513316242094,
      "time_usec": 928332492080
    },
    {
      "frame_id": 456,
      "sensor_timestamp": 533513349706094,
      "time_usec": 928332525544
    },
    {
      "frame_id": 457,
      "sensor_timestamp": 533513382867094,
      "time_usec": 928332558705
    },
    {
      "frame_id": 458,
      "sensor_timestamp": 533513416218094,
      "time_usec": 928332592056
    },
    {
      "frame_id": 459,
      "sensor_timestamp": 533513449699094,
      "time_usec": 928332625537
    },
    {
      "frame_id": 460,
      "sensor_timestamp": 533513482936094,
      "time_usec": 928332658774
    },
    {
      "frame_id": 461,
      "sensor_timestamp": 533513516316094,
      "time_usec": 928332692154
    },
    {
      "frame_id": 462,
      "sensor_timestamp": 533513549454094,
      "time_usec": 928332725292
    },
    {
      "frame_id": 463,
      "sensor_timestamp": 533513582894094,
      "time_usec": 928332758732
    },
    {
      "frame_id": 464,
      "sensor_timestamp": 533513616280094,
      "time_usec": 928332792118
    },
    {
      "frame_id": 465,
      "sensor_timestamp": 533513649600094,
      "time_usec": 928332825438
    },
    {
      "frame_id": 466,
      "sensor_timestamp": 533513683000094,
      "time_usec": 928332858838
    },
    {
      "frame_id": 467,
      "sensor_timestamp": 533513716167094,
      "time_usec": 928332892005
    },
    {
      "frame_id": 468,
      "sensor_timestamp": 533513749549094,
      "time_usec": 928332925387
    },
    {
      "frame_id": 469,
      "sensor_timestamp": 533513782927094,
      "time_usec": 928332958765
    },
    {
      "frame_id": 470,
      "sensor_timestamp": 533513816258094,
      "time_usec": 928332992096
    },
    {
      "frame_id": 471,
      "sensor_timestamp": 533513849527094,
      "time_usec": 928333025365
    },
    {
      "frame_id": 472,
      "sensor_timestamp": 533513883016094,
      "time_usec": 928333058854
    },
    {
      "frame_id": 473,
      "sensor_timestamp": 533513916356094,
      "time_usec": 928333092194
    },
    {
      "frame_id": 474,
      "sensor_timestamp": 533513949689094,
      "time_usec": 928333125527
    },
    {
      "frame_id": 475,
      "sensor_timestamp": 533513982928094,
      "time_usec": 928333158766
    },
    {
      "frame_id": 476,
      "sensor_timestamp": 533514016183094,
      "time_usec": 928333192021
    },
    {
      "frame_id": 477,
      "sensor_timestamp": 533514049794094,
      "time_usec": 928333225632
    },
    {
      "frame_id": 478,
      "sensor_timestamp": 533514082959094,
      "time_usec": 928333258797
    },
    {
      "frame_id": 479,
      "sensor_timestamp": 533514116306094,
      "time_usec": 928333292144
    },
    {
      "frame_id": 480,
      "sensor_timestamp": 533514149612094,
      "time_usec": 928333325450
    },
    {
      "frame_id": 481,
      "sensor_timestamp": 533514182822094,
      "time_usec": 928333358660
    },
    {
      "frame_id": 482,
      "sensor_timestamp": 533514216359094,
      "time_usec": 928333392197
    },
    {
      "frame_id": 483,
      "sensor_timestamp": 533514249781094,
      "time_usec": 928333425619
    },
    {
      "frame_id": 484,
      "sensor_timestamp": 533514283125094,
      "time_usec": 928333458963
    },
    {
      "frame_id": 485,
      "sensor_timestamp": 533514316299094,
      "time_usec": 928333492137
    },
    {
      "frame_id": 486,
      "sensor_timestamp": 533514349684094,
      "time_usec": 928333525522
    },
    {
      "frame_id": 487,
      "sensor_timestamp": 533514382999094,
      "time_usec": 928333558837
    },
    {
      "frame_id": 488,
      "sensor_timestamp": 533514416305094,
      "time_usec": 928333592143
    },
    {
      "frame_id": 489,
      "sensor_timestamp": 533514449648094,
      "time_usec": 928333625486
    },
    {
      "frame_id": 490,
      "sensor_timestamp": 533514482984094,
      "time_usec": 928333658822
    },
    {
      "frame_id": 491,
      "sensor_timestamp": 533514516432094,
      "time_usec": 928333692270
    },
    {
      "frame_id": 492,
      "sensor_timestamp": 533514549753094,
      "time_usec": 928333725591
    },
    {
      "frame_id": 493,
      "sensor_timestamp": 533514583007094,
      "time_usec": 928333758845
    },
    {
      "frame_id": 494,
      "sensor_timestamp": 533514616194094,
      "time_usec": 928333792032
    },
    {
      "frame_id": 495,
      "sensor_timestamp": 533514649529094,
      "time_usec": 928333825367
    },
    {
      "frame_id": 496,
      "sensor_timestamp": 533514683014094,
      "time_usec": 928333858852
    },
    {
      "frame_id": 497,
      "sensor_timestamp": 533514716479094,
      "time_usec": 928333892317
    },
    {
      "frame_id": 498,
      "sensor_timestamp": 533514749735094,
      "time_usec": 928333925573
    },
    {
      "frame_id": 499,
      "sensor_timestamp": 533514783173094,
      "time_usec": 928333959011
    },
    {
      "frame_id": 500,
      "sensor_timestamp": 533514816422094,
      "time_usec": 928333992260
    },
    {
      "frame_id": 501,
      "sensor_timestamp": 533514849685094,
      "time_usec": 928334025523
    },
    {
      "frame_id": 502,
      "sensor_timestamp": 533514883006094,
      "time_usec": 928334058844
    },
    {
      "frame_id": 503,
      "sensor_timestamp": 533514916269094,
      "time_usec": 928334092107
    },
    {
      "frame_id": 504,
      "sensor_timestamp": 533514949713094,
      "time_usec": 928334125551
    },
    {
      "frame_id": 505,
      "sensor_timestamp": 533514982943094,
      "time_usec": 928334158781
    },
    {
      "frame_id": 506,
      "sensor_timestamp": 533515016269094,
      "time_usec": 928334192107
    },
    {
      "frame_id": 507,
      "sensor_timestamp": 533515049640094,
      "time_usec": 928334225478
    },
    {
      "frame_id": 508,
      "sensor_timestamp": 533515083034094,
      "time_usec": 928334258872
    },
    {
      "frame_id": 509,
      "sensor_timestamp": 533515116435094,
      "time_usec": 928334292273
    },
    {
      "frame_id": 510,
      "sensor_timestamp": 533515149705094,
      "time_usec": 928334325543
    },
    {
      "frame_id": 511,
      "sensor_timestamp": 533515183040094,
      "time_usec": 928334358878
    },
    {
      "frame_id": 512,
      "sensor_timestamp": 533515216480094,
      "time_usec": 928334392318
    },
    {
      "frame_id": 513,
      "sensor_timestamp": 533515249825094,
      "time_usec": 928334425663
    },
    {
      "frame_id": 514,
      "sensor_timestamp": 533515283177094,
      "time_usec": 928334459015
    },
    {
      "frame_id": 515,
      "sensor_timestamp": 533515316473094,
      "time_usec": 928334492311
    },
    {
      "frame_id": 516,
      "sensor_timestamp": 533515349739094,
      "time_usec": 928334525577
    },
    {
      "frame_id": 517,
      "sensor_timestamp": 533515383051094,
      "time_usec": 928334558889
    },
    {
      "frame_id": 518,
      "sensor_timestamp": 533515416392094,
      "time_usec": 928334592230
    },
    {
      "frame_id": 519,
      "sensor_timestamp": 533515449730094,
      "time_usec": 928334625568
    },
    {
      "frame_id": 520,
      "sensor_timestamp": 533515483071094,
      "time_usec": 928334658909
    },
    {
      "frame_id": 521,
      "sensor_timestamp": 533515516544094,
      "time_usec": 928334692382
    },
    {
      "frame_id": 522,
      "sensor_timestamp": 533515549803094,
      "time_usec": 928334725641
    },
    {
      "frame_id": 523,
      "sensor_timestamp": 533515583172094,
      "time_usec": 928334759010
    },
    {
      "frame_id": 524,
      "sensor_timestamp": 533515616415094,
      "time_usec": 928334792253
    },
    {
      "frame_id": 525,
      "sensor_timestamp": 533515649757094,
      "time_usec": 928334825595
    },
    {
      "frame_id": 526,
      "sensor_timestamp": 533515683019094,
      "time_usec": 928334858857
    },
    {
      "frame_id": 527,
      "sensor_timestamp": 533515716575094,
      "time_usec": 928334892413
    },
    {
      "frame_id": 528,
      "sensor_timestamp": 533515749764094,
      "time_usec": 928334925602
    },
    {
      "frame_id": 529,
      "sensor_timestamp": 533515783266094,
      "time_usec": 928334959104
    },
    {
      "frame_id": 530,
      "sensor_timestamp": 533515816512094,
      "time_usec": 928334992350
    },
    {
      "frame_id": 531,
      "sensor_timestamp": 533515849854094,
      "time_usec": 928335025692
    },
    {
      "frame_id": 532,
      "sensor_timestamp": 533515883101094,
      "time_usec": 928335058939
    },
    {
      "frame_id": 533,
      "sensor_timestamp": 533515916482094,
      "time_usec": 928335092320
    },
    {
      "frame_id": 534,
      "sensor_timestamp": 533515949800094,
      "time_usec": 928335125638
    },
    {
      "frame_id": 535,
      "sensor_timestamp": 533515983192094,
      "time_usec": 928335159030
    },
    {
      "frame_id": 536,
      "sensor_timestamp": 533516016445094,
      "time_usec": 928335192283
    },
    {
      "frame_id": 537,
      "sensor_timestamp": 533516049671094,
      "time_usec": 928335225509
    },
    {
      "frame_id": 538,
      "sensor_timestamp": 533516083131094,
      "time_usec": 928335258969
    },
    {
      "frame_id": 539,
      "sensor_timestamp": 533516116633094,
      "time_usec": 928335292471
    },
    {
      "frame_id": 540,
      "sensor_timestamp": 533516149893094,
      "time_usec": 928335325731
    },
    {
      "frame_id": 541,
