{
  "rotations": [
    {
      "x": 0.0999603271484375,
      "y": -0.1116790771484375,
      "z": 0.0390472412109375,
      "time_usec": 533497489698
    },
    {
      "x": 0.1031494140625,
      "y": -0.127655029296875,
      "z": 0.0422515869140625,
      "time_usec": 533497493666
    },
    {
      "x": 0.0978240966796875,
      "y": -0.1457672119140625,
      "z": 0.0422515869140625,
      "time_usec": 533497497633
    },
    {
      "x": 0.08184814453125,
      "y": -0.15960693359375,
      "z": 0.04437255859375,
      "time_usec": 533497501600
    },
    {
      "x": 0.0754547119140625,
      "y": -0.1649322509765625,
      "z": 0.0496978759765625,
      "time_usec": 533497505598
    },
    {
      "x": 0.0648040771484375,
      "y": -0.1638641357421875,
      "z": 0.0582275390625,
      "time_usec": 533497509565
    },
    {
      "x": 0.0637359619140625,
      "y": -0.160675048828125,
      "z": 0.0646209716796875,
      "time_usec": 533497513533
    },
    {
      "x": 0.0552215576171875,
      "y": -0.1564178466796875,
      "z": 0.065673828125,
      "time_usec": 533497517530
    },
    {
      "x": 0.045623779296875,
      "y": -0.1500244140625,
      "z": 0.066741943359375,
      "time_usec": 533497521498
    },
    {
      "x": 0.047760009765625,
      "y": -0.1414947509765625,
      "z": 0.0603485107421875,
      "time_usec": 533497525465
    },
    {
      "x": 0.048828125,
      "y": -0.1340484619140625,
      "z": 0.0529022216796875,
      "time_usec": 533497529432
    },
    {
      "x": 0.0435028076171875,
      "y": -0.1148681640625,
      "z": 0.043304443359375,
      "time_usec": 533497533430
    },
    {
      "x": 0.047760009765625,
      "y": -0.0978240966796875,
      "z": 0.033721923828125,
      "time_usec": 533497537397
    },
    {
      "x": 0.0445556640625,
      "y": -0.0850372314453125,
      "z": 0.024139404296875,
      "time_usec": 533497541365
    },
    {
      "x": 0.0435028076171875,
      "y": -0.0658721923828125,
      "z": 0.012420654296875,
      "time_usec": 533497545362
    },
    {
      "x": 0.0317840576171875,
      "y": -0.048828125,
      "z": 7.01904296875E-4,
      "time_usec": 533497549330
    },
    {
      "x": 0.0200653076171875,
      "y": -0.0275115966796875,
      "z": -0.0035552978515625,
      "time_usec": 533497553297
    },
    {
      "x": 0.012603759765625,
      "y": -0.0072784423828125,
      "z": -0.0067596435546875,
      "time_usec": 533497557295
    },
    {
      "x": -0.001251220703125,
      "y": 0.008697509765625,
      "z": -0.008880615234375,
      "time_usec": 533497561262
    },
    {
      "x": -0.01190185546875,
      "y": 0.0278778076171875,
      "z": -0.00994873046875,
      "time_usec": 533497565229
    },
    {
      "x": -0.0172271728515625,
      "y": 0.0406646728515625,
      "z": -0.008880615234375,
      "time_usec": 533497569197
    },
    {
      "x": -0.022552490234375,
      "y": 0.05450439453125,
      "z": -0.0078277587890625,
      "time_usec": 533497573195
    },
    {
      "x": -0.02362060546875,
      "y": 0.06622314453125,
      "z": -0.00994873046875,
      "time_usec": 533497577162
    },
    {
      "x": -0.0300140380859375,
      "y": 0.0758209228515625,
      "z": -0.0067596435546875,
      "time_usec": 533497581129
    },
    {
      "x": -0.0268096923828125,
      "y": 0.079010009765625,
      "z": -0.0067596435546875,
      "time_usec": 533497585096
    },
    {
      "x": -0.0246734619140625,
      "y": 0.080078125,
      "z": -0.0046234130859375,
      "time_usec": 533497589094
    },
    {
      "x": -0.0300140380859375,
      "y": 0.0758209228515625,
      "z": 7.01904296875E-4,
      "time_usec": 533497593061
    },
    {
      "x": -0.032135009765625,
      "y": 0.0715484619140625,
      "z": 0.0038909912109375,
      "time_usec": 533497597029
    },
    {
      "x": -0.0300140380859375,
      "y": 0.0619659423828125,
      "z": 0.0081634521484375,
      "time_usec": 533497601027
    },
    {
      "x": -0.034271240234375,
      "y": 0.056640625,
      "z": 0.00921630859375,
      "time_usec": 533497604994
    },
    {
      "x": -0.0385284423828125,
      "y": 0.04705810546875,
      "z": 0.01348876953125,
      "time_usec": 533497608961
    },
    {
      "x": -0.045989990234375,
      "y": 0.0363922119140625,
      "z": 0.0156097412109375,
      "time_usec": 533497612959
    },
    {
      "x": -0.04278564453125,
      "y": 0.0268096923828125,
      "z": 0.0166778564453125,
      "time_usec": 533497616926
    },
    {
      "x": -0.045989990234375,
      "y": 0.01190185546875,
      "z": 0.012420654296875,
      "time_usec": 533497620893
    },
    {
      "x": -0.053436279296875,
      "y": 1.8310546875E-4,
      "z": 0.010284423828125,
      "time_usec": 533497624891
    },
    {
      "x": -0.0491790771484375,
      "y": -0.0083465576171875,
      "z": 0.00921630859375,
      "time_usec": 533497628859
    },
    {
      "x": -0.045989990234375,
      "y": -0.0200653076171875,
      "z": 0.010284423828125,
      "time_usec": 533497632826
    },
    {
      "x": -0.04705810546875,
      "y": -0.025390625,
      "z": 0.01348876953125,
      "time_usec": 533497636793
    },
    {
      "x": -0.0406646728515625,
      "y": -0.0307159423828125,
      "z": 0.0113525390625,
      "time_usec": 533497640791
    },
    {
      "x": -0.0374603271484375,
      "y": -0.0328369140625,
      "z": 0.0070953369140625,
      "time_usec": 533497644758
    },
    {
      "x": -0.0278778076171875,
      "y": -0.03497314453125,
      "z": 0.002838134765625,
      "time_usec": 533497648726
    },
    {
      "x": -0.02362060546875,
      "y": -0.0381622314453125,
      "z": -0.0046234130859375,
      "time_usec": 533497652723
    },
    {
      "x": -0.022552490234375,
      "y": -0.037109375,
      "z": -0.008880615234375,
      "time_usec": 533497656691
    },
    {
      "x": -0.012969970703125,
      "y": -0.037109375,
      "z": -0.013153076171875,
      "time_usec": 533497660658
    },
    {
      "x": -0.01190185546875,
      "y": -0.0381622314453125,
      "z": -0.0163421630859375,
      "time_usec": 533497664656
    },
    {
      "x": -0.009765625,
      "y": -0.036041259765625,
      "z": -0.0152740478515625,
      "time_usec": 533497668623
    },
    {
      "x": -0.008697509765625,
      "y": -0.0381622314453125,
      "z": -0.01422119140625,
      "time_usec": 533497672590
    },
    {
      "x": -0.0044403076171875,
      "y": -0.036041259765625,
      "z": -0.011016845703125,
      "time_usec": 533497676558
    },
    {
      "x": -0.001251220703125,
      "y": -0.033905029296875,
      "z": -0.00994873046875,
      "time_usec": 533497680555
    },
    {
      "x": -0.009765625,
      "y": -0.03497314453125,
      "z": -0.00994873046875,
      "time_usec": 533497684523
    },
    {
      "x": -0.0172271728515625,
      "y": -0.03497314453125,
      "z": -0.011016845703125,
      "time_usec": 533497688490
    },
    {
      "x": -0.0172271728515625,
      "y": -0.037109375,
      "z": -0.00994873046875,
      "time_usec": 533497692457
    },
    {
      "x": -0.0278778076171875,
      "y": -0.0381622314453125,
      "z": -0.0078277587890625,
      "time_usec": 533497696455
    },
    {
      "x": -0.032135009765625,
      "y": -0.036041259765625,
      "z": -0.0035552978515625,
      "time_usec": 533497700422
    },
    {
      "x": -0.0289459228515625,
      "y": -0.0317840576171875,
      "z": -3.662109375E-4,
      "time_usec": 533497704390
    },
    {
      "x": -0.0246734619140625,
      "y": -0.0285797119140625,
      "z": 7.01904296875E-4,
      "time_usec": 533497708387
    },
    {
      "x": -0.0150909423828125,
      "y": -0.025390625,
      "z": 0.002838134765625,
      "time_usec": 533497712355
    },
    {
      "x": -0.01190185546875,
      "y": -0.025390625,
      "z": 0.0070953369140625,
      "time_usec": 533497716322
    },
    {
      "x": -0.001251220703125,
      "y": -0.022186279296875,
      "z": 0.00921630859375,
      "time_usec": 533497720289
    },
    {
      "x": 0.0062103271484375,
      "y": -0.0211181640625,
      "z": 0.0113525390625,
      "time_usec": 533497724287
    },
    {
      "x": -0.0033721923828125,
      "y": -0.026458740234375,
      "z": 0.0177459716796875,
      "time_usec": 533497728254
    },
    {
      "x": -0.0023040771484375,
      "y": -0.0275115966796875,
      "z": 0.022003173828125,
      "time_usec": 533497732222
    },
    {
      "x": -0.0044403076171875,
      "y": -0.026458740234375,
      "z": 0.02520751953125,
      "time_usec": 533497736219
    },
    {
      "x": -0.008697509765625,
      "y": -0.0307159423828125,
      "z": 0.02520751953125,
      "time_usec": 533497740187
    },
    {
      "x": -0.0161590576171875,
      "y": -0.0317840576171875,
      "z": 0.0273284912109375,
      "time_usec": 533497744154
    },
    {
      "x": -0.0268096923828125,
      "y": -0.0285797119140625,
      "z": 0.024139404296875,
      "time_usec": 533497748152
    },
    {
      "x": -0.0257415771484375,
      "y": -0.0317840576171875,
      "z": 0.0188140869140625,
      "time_usec": 533497752119
    },
    {
      "x": -0.03106689453125,
      "y": -0.033905029296875,
      "z": 0.0145416259765625,
      "time_usec": 533497756086
    },
    {
      "x": -0.0374603271484375,
      "y": -0.03497314453125,
      "z": 0.0113525390625,
      "time_usec": 533497760054
    },
    {
      "x": -0.0289459228515625,
      "y": -0.036041259765625,
      "z": 0.0049591064453125,
      "time_usec": 533497764051
    },
    {
      "x": -0.0268096923828125,
      "y": -0.036041259765625,
      "z": 0.00177001953125,
      "time_usec": 533497768019
    },
    {
      "x": -0.0246734619140625,
      "y": -0.0317840576171875,
      "z": -3.662109375E-4,
      "time_usec": 533497771986
    },
    {
      "x": -0.020416259765625,
      "y": -0.0296478271484375,
      "z": -0.00250244140625,
      "time_usec": 533497775984
    },
    {
      "x": -0.012969970703125,
      "y": -0.022186279296875,
      "z": -0.001434326171875,
      "time_usec": 533497779951
    },
    {
      "x": -0.001251220703125,
      "y": -0.0168609619140625,
      "z": -3.662109375E-4,
      "time_usec": 533497783918
    },
    {
      "x": -0.0023040771484375,
      "y": -0.0072784423828125,
      "z": -0.0046234130859375,
      "time_usec": 533497787916
    },
    {
      "x": 8.85009765625E-4,
      "y": 0.001251220703125,
      "z": -0.008880615234375,
      "time_usec": 533497791883
    },
    {
      "x": 0.0072784423828125,
      "y": 0.0065765380859375,
      "z": -0.0120849609375,
      "time_usec": 533497795851
    },
    {
      "x": 0.0051422119140625,
      "y": 0.01190185546875,
      "z": -0.0163421630859375,
      "time_usec": 533497799849
    },
    {
      "x": 0.0040740966796875,
      "y": 0.0182952880859375,
      "z": -0.0184783935546875,
      "time_usec": 533497803816
    },
    {
      "x": 0.0062103271484375,
      "y": 0.0182952880859375,
      "z": -0.02166748046875,
      "time_usec": 533497807783
    },
    {
      "x": 0.010467529296875,
      "y": 0.0172271728515625,
      "z": -0.0238037109375,
      "time_usec": 533497811750
    },
    {
      "x": 0.012603759765625,
      "y": 0.012969970703125,
      "z": -0.022735595703125,
      "time_usec": 533497815748
    },
    {
      "x": 0.0072784423828125,
      "y": 0.008697509765625,
      "z": -0.020599365234375,
      "time_usec": 533497819716
    },
    {
      "x": 0.0083465576171875,
      "y": 0.010833740234375,
      "z": -0.0174102783203125,
      "time_usec": 533497823683
    },
    {
      "x": 0.0094146728515625,
      "y": 0.008697509765625,
      "z": -0.0152740478515625,
      "time_usec": 533497827681
    },
    {
      "x": 0.003021240234375,
      "y": 0.0055084228515625,
      "z": -0.011016845703125,
      "time_usec": 533497831648
    },
    {
      "x": 0.0040740966796875,
      "y": 0.0033721923828125,
      "z": -0.0120849609375,
      "time_usec": 533497835615
    },
    {
      "x": 0.0051422119140625,
      "y": -8.85009765625E-4,
      "z": -0.0152740478515625,
      "time_usec": 533497839613
    },
    {
      "x": 0.0072784423828125,
      "y": 1.8310546875E-4,
      "z": -0.0174102783203125,
      "time_usec": 533497843580
    },
    {
      "x": 0.0062103271484375,
      "y": 0.001251220703125,
      "z": -0.0195465087890625,
      "time_usec": 533497847548
    },
    {
      "x": 0.0083465576171875,
      "y": 0.0055084228515625,
      "z": -0.020599365234375,
      "time_usec": 533497851545
    },
    {
      "x": 0.0179290771484375,
      "y": 0.01190185546875,
      "z": -0.020599365234375,
      "time_usec": 533497855513
    },
    {
      "x": 0.022186279296875,
      "y": 0.012969970703125,
      "z": -0.0184783935546875,
      "time_usec": 533497859480
    },
    {
      "x": 0.024322509765625,
      "y": 0.0172271728515625,
      "z": -0.0163421630859375,
      "time_usec": 533497863447
    },
    {
      "x": 0.033905029296875,
      "y": 0.020416259765625,
      "z": -0.0152740478515625,
      "time_usec": 533497867445
    },
    {
      "x": 0.0317840576171875,
      "y": 0.024688720703125,
      "z": -0.013153076171875,
      "time_usec": 533497871412
    },
    {
      "x": 0.0296478271484375,
      "y": 0.0257415771484375,
      "z": -0.011016845703125,
      "time_usec": 533497875410
    },
    {
      "x": 0.02325439453125,
      "y": 0.0268096923828125,
      "z": -0.008880615234375,
      "time_usec": 533497879377
    },
    {
      "x": 0.0179290771484375,
      "y": 0.0268096923828125,
      "z": -0.0056915283203125,
      "time_usec": 533497883345
    },
    {
      "x": 0.0072784423828125,
      "y": 0.022552490234375,
      "z": 0.00177001953125,
      "time_usec": 533497887312
    },
    {
      "x": -0.0033721923828125,
      "y": 0.02362060546875,
      "z": 0.0049591064453125,
      "time_usec": 533497891310
    },
    {
      "x": -0.0161590576171875,
      "y": 0.024688720703125,
      "z": 0.00921630859375,
      "time_usec": 533497895277
    },
    {
      "x": -0.02362060546875,
      "y": 0.0278778076171875,
      "z": 0.0113525390625,
      "time_usec": 533497899244
    },
    {
      "x": -0.03106689453125,
      "y": 0.0278778076171875,
      "z": 0.01348876953125,
      "time_usec": 533497903212
    },
    {
      "x": -0.03106689453125,
      "y": 0.03106689453125,
      "z": 0.0145416259765625,
      "time_usec": 533497907209
    },
    {
      "x": -0.034271240234375,
      "y": 0.033203125,
      "z": 0.0156097412109375,
      "time_usec": 533497911177
    },
    {
      "x": -0.03106689453125,
      "y": 0.033203125,
      "z": 0.0145416259765625,
      "time_usec": 533497915144
    },
    {
      "x": -0.0246734619140625,
      "y": 0.0363922119140625,
      "z": 0.01348876953125,
      "time_usec": 533497919142
    },
    {
      "x": -0.022552490234375,
      "y": 0.034271240234375,
      "z": 0.010284423828125,
      "time_usec": 533497923109
    },
    {
      "x": -0.0150909423828125,
      "y": 0.0363922119140625,
      "z": 0.010284423828125,
      "time_usec": 533497927076
    },
    {
      "x": -0.010833740234375,
      "y": 0.0374603271484375,
      "z": 0.0113525390625,
      "time_usec": 533497931074
    },
    {
      "x": -0.0055084228515625,
      "y": 0.0395965576171875,
      "z": 0.0145416259765625,
      "time_usec": 533497935041
    },
    {
      "x": -0.0033721923828125,
      "y": 0.0385284423828125,
      "z": 0.0166778564453125,
      "time_usec": 533497939009
    },
    {
      "x": 8.85009765625E-4,
      "y": 0.0374603271484375,
      "z": 0.0198822021484375,
      "time_usec": 533497942976
    },
    {
      "x": 0.001953125,
      "y": 0.03533935546875,
      "z": 0.0230712890625,
      "time_usec": 533497946974
    },
    {
      "x": 0.001953125,
      "y": 0.033203125,
      "z": 0.0294647216796875,
      "time_usec": 533497950941
    },
    {
      "x": 8.85009765625E-4,
      "y": 0.033203125,
      "z": 0.0305328369140625,
      "time_usec": 533497954908
    },
    {
      "x": -0.001251220703125,
      "y": 0.033203125,
      "z": 0.031585693359375,
      "time_usec": 533497958906
    },
    {
      "x": -0.0033721923828125,
      "y": 0.032135009765625,
      "z": 0.0283966064453125,
      "time_usec": 533497962873
    },
    {
      "x": -0.00762939453125,
      "y": 0.03106689453125,
      "z": 0.0230712890625,
      "time_usec": 533497966841
    },
    {
      "x": -0.01190185546875,
      "y": 0.0268096923828125,
      "z": 0.022003173828125,
      "time_usec": 533497970808
    },
    {
      "x": -0.0140228271484375,
      "y": 0.02362060546875,
      "z": 0.02093505859375,
      "time_usec": 533497974806
    },
    {
      "x": -0.0161590576171875,
      "y": 0.020416259765625,
      "z": 0.02093505859375,
      "time_usec": 533497978773
    },
    {
      "x": -0.0172271728515625,
      "y": 0.0150909423828125,
      "z": 0.0188140869140625,
      "time_usec": 533497982740
    },
    {
      "x": -0.0161590576171875,
      "y": 0.010833740234375,
      "z": 0.0188140869140625,
      "time_usec": 533497986708
    },
    {
      "x": -0.012969970703125,
      "y": 0.01190185546875,
      "z": 0.0166778564453125,
      "time_usec": 533497990706
    },
    {
      "x": -0.009765625,
      "y": 0.01190185546875,
      "z": 0.0145416259765625,
      "time_usec": 533497994673
    },
    {
      "x": -0.009765625,
      "y": 0.012969970703125,
      "z": 0.0145416259765625,
      "time_usec": 533497998640
    },
    {
      "x": -0.0065765380859375,
      "y": 0.0161590576171875,
      "z": 0.012420654296875,
      "time_usec": 533498002638
    },
    {
      "x": -0.001251220703125,
      "y": 0.0140228271484375,
      "z": 0.00921630859375,
      "time_usec": 533498006605
    },
    {
      "x": -0.0044403076171875,
      "y": 0.0172271728515625,
      "z": 0.0038909912109375,
      "time_usec": 533498010572
    },
    {
      "x": -0.0065765380859375,
      "y": 0.020416259765625,
      "z": -3.662109375E-4,
      "time_usec": 533498014540
    },
    {
      "x": -0.010833740234375,
      "y": 0.021484375,
      "z": -0.0035552978515625,
      "time_usec": 533498018538
    },
    {
      "x": -0.0172271728515625,
      "y": 0.02362060546875,
      "z": -0.0046234130859375,
      "time_usec": 533498022505
    },
    {
      "x": -0.0246734619140625,
      "y": 0.0278778076171875,
      "z": -0.0056915283203125,
      "time_usec": 533498026472
    },
    {
      "x": -0.0300140380859375,
      "y": 0.03106689453125,
      "z": -0.0046234130859375,
      "time_usec": 533498030439
    },
    {
      "x": -0.033203125,
      "y": 0.032135009765625,
      "z": -0.0067596435546875,
      "time_usec": 533498034437
    },
    {
      "x": -0.0374603271484375,
      "y": 0.03106689453125,
      "z": -0.0067596435546875,
      "time_usec": 533498038404
    },
    {
      "x": -0.0374603271484375,
      "y": 0.033203125,
      "z": -0.0078277587890625,
      "time_usec": 533498042402
    },
    {
      "x": -0.0395965576171875,
      "y": 0.034271240234375,
      "z": -0.008880615234375,
      "time_usec": 533498046370
    },
    {
      "x": -0.03533935546875,
      "y": 0.0395965576171875,
      "z": -0.011016845703125,
      "time_usec": 533498050337
    },
    {
      "x": -0.03106689453125,
      "y": 0.04278564453125,
      "z": -0.01422119140625,
      "time_usec": 533498054304
    },
    {
      "x": -0.0257415771484375,
      "y": 0.043853759765625,
      "z": -0.0195465087890625,
      "time_usec": 533498058302
    },
    {
      "x": -0.0172271728515625,
      "y": 0.045989990234375,
      "z": -0.020599365234375,
      "time_usec": 533498062269
    },
    {
      "x": -0.00762939453125,
      "y": 0.0481109619140625,
      "z": -0.0184783935546875,
      "time_usec": 533498066237
    },
    {
      "x": -1.8310546875E-4,
      "y": 0.0523834228515625,
      "z": -0.02166748046875,
      "time_usec": 533498070204
    },
    {
      "x": 0.0094146728515625,
      "y": 0.05450439453125,
      "z": -0.020599365234375,
      "time_usec": 533498074202
    },
    {
      "x": 0.0200653076171875,
      "y": 0.0523834228515625,
      "z": -0.02166748046875,
      "time_usec": 533498078169
    },
    {
      "x": 0.0275115966796875,
      "y": 0.04705810546875,
      "z": -0.0163421630859375,
      "time_usec": 533498082136
    },
    {
      "x": 0.036041259765625,
      "y": 0.044921875,
      "z": -0.013153076171875,
      "time_usec": 533498086103
    },
    {
      "x": 0.0413665771484375,
      "y": 0.0406646728515625,
      "z": -0.008880615234375,
      "time_usec": 533498090101
    },
    {
      "x": 0.0402984619140625,
      "y": 0.03533935546875,
      "z": -0.0046234130859375,
      "time_usec": 533498094069
    },
    {
      "x": 0.038177490234375,
      "y": 0.0300140380859375,
      "z": -0.00250244140625,
      "time_usec": 533498098036
    },
    {
      "x": 0.03497314453125,
      "y": 0.0268096923828125,
      "z": -3.662109375E-4,
      "time_usec": 533498102003
    },
    {
      "x": 0.0307159423828125,
      "y": 0.0278778076171875,
      "z": 0.0038909912109375,
      "time_usec": 533498106001
    },
    {
      "x": 0.026458740234375,
      "y": 0.024688720703125,
      "z": 0.0081634521484375,
      "time_usec": 533498109968
    },
    {
      "x": 0.025390625,
      "y": 0.021484375,
      "z": 0.01348876953125,
      "time_usec": 533498113935
    },
    {
      "x": 0.025390625,
      "y": 0.020416259765625,
      "z": 0.0188140869140625,
      "time_usec": 533498117933
    },
    {
      "x": 0.0275115966796875,
      "y": 0.0150909423828125,
      "z": 0.0230712890625,
      "time_usec": 533498121901
    },
    {
      "x": 0.0285797119140625,
      "y": 0.010833740234375,
      "z": 0.0283966064453125,
      "time_usec": 533498125868
    },
    {
      "x": 0.0275115966796875,
      "y": 0.0055084228515625,
      "z": 0.033721923828125,
      "time_usec": 533498129835
    },
    {
      "x": 0.0275115966796875,
      "y": 0.0033721923828125,
      "z": 0.0401153564453125,
      "time_usec": 533498133833
    },
    {
      "x": 0.025390625,
      "y": -0.001953125,
      "z": 0.0422515869140625,
      "time_usec": 533498137800
    },
    {
      "x": 0.0179290771484375,
      "y": -0.0051422119140625,
      "z": 0.045440673828125,
      "time_usec": 533498141768
    },
    {
      "x": 0.01153564453125,
      "y": -0.0062103271484375,
      "z": 0.047576904296875,
      "time_usec": 533498145735
    },
    {
      "x": 0.0051422119140625,
      "y": -0.0062103271484375,
      "z": 0.0486297607421875,
      "time_usec": 533498149733
    },
    {
      "x": -0.0065765380859375,
      "y": -0.0062103271484375,
      "z": 0.043304443359375,
      "time_usec": 533498153700
    },
    {
      "x": -0.0161590576171875,
      "y": -0.0072784423828125,
      "z": 0.035858154296875,
      "time_usec": 533498157667
    },
    {
      "x": -0.0278778076171875,
      "y": -0.0072784423828125,
      "z": 0.0283966064453125,
      "time_usec": 533498161665
    },
    {
      "x": -0.0374603271484375,
      "y": -0.0094146728515625,
      "z": 0.022003173828125,
      "time_usec": 533498165632
    },
    {
      "x": -0.044921875,
      "y": -0.0062103271484375,
      "z": 0.0188140869140625,
      "time_usec": 533498169600
    },
    {
      "x": -0.0491790771484375,
      "y": -0.0051422119140625,
      "z": 0.0166778564453125,
      "time_usec": 533498173567
    },
    {
      "x": -0.0502471923828125,
      "y": -8.85009765625E-4,
      "z": 0.01348876953125,
      "time_usec": 533498177565
    },
    {
      "x": -0.0481109619140625,
      "y": 1.8310546875E-4,
      "z": 0.010284423828125,
      "time_usec": 533498181532
    },
    {
      "x": -0.041717529296875,
      "y": 0.0065765380859375,
      "z": 0.0049591064453125,
      "time_usec": 533498185530
    },
    {
      "x": -0.0374603271484375,
      "y": 0.0065765380859375,
      "z": -3.662109375E-4,
      "time_usec": 533498189497
    },
    {
      "x": -0.032135009765625,
      "y": 0.0055084228515625,
      "z": -0.0046234130859375,
      "time_usec": 533498193464
    },
    {
      "x": -0.0246734619140625,
      "y": 0.0065765380859375,
      "z": -0.0046234130859375,
      "time_usec": 533498197432
    },
    {
      "x": -0.0150909423828125,
      "y": 0.0065765380859375,
      "z": -0.0035552978515625,
      "time_usec": 533498201399
    },
    {
      "x": -0.0055084228515625,
      "y": 0.008697509765625,
      "z": -0.0035552978515625,
      "time_usec": 533498205397
    },
    {
      "x": 0.0072784423828125,
      "y": 0.009765625,
      "z": -0.00250244140625,
      "time_usec": 533498209364
    },
    {
      "x": 0.022186279296875,
      "y": 0.0150909423828125,
      "z": -0.001434326171875,
      "time_usec": 533498213331
    },
    {
      "x": 0.03497314453125,
      "y": 0.0172271728515625,
      "z": -0.001434326171875,
      "time_usec": 533498217329
    },
    {
      "x": 0.0424346923828125,
      "y": 0.0172271728515625,
      "z": -0.0056915283203125,
      "time_usec": 533498221296
    },
    {
      "x": 0.0530853271484375,
      "y": 0.0161590576171875,
      "z": -0.0035552978515625,
      "time_usec": 533498225264
    },
    {
      "x": 0.05841064453125,
      "y": 0.0172271728515625,
      "z": -0.0046234130859375,
      "time_usec": 533498229261
    },
    {
      "x": 0.0648040771484375,
      "y": 0.0140228271484375,
      "z": -0.00250244140625,
      "time_usec": 533498233229
    },
    {
      "x": 0.0648040771484375,
      "y": 0.010833740234375,
      "z": -0.00250244140625,
      "time_usec": 533498237196
    },
    {
      "x": 0.0626678466796875,
      "y": 0.009765625,
      "z": 7.01904296875E-4,
      "time_usec": 533498241163
    },
    {
      "x": 0.0637359619140625,
      "y": 0.009765625,
      "z": 0.0060272216796875,
      "time_usec": 533498245161
    },
    {
      "x": 0.060546875,
      "y": 0.0065765380859375,
      "z": 0.012420654296875,
      "time_usec": 533498249128
    },
    {
      "x": 0.0509490966796875,
      "y": 0.001251220703125,
      "z": 0.0166778564453125,
      "time_usec": 533498253096
    },
    {
      "x": 0.0445556640625,
      "y": 0.0033721923828125,
      "z": 0.02093505859375,
      "time_usec": 533498257093
    },
    {
      "x": 0.03497314453125,
      "y": 0.0044403076171875,
      "z": 0.0230712890625,
      "time_usec": 533498261061
    },
    {
      "x": 0.025390625,
      "y": 0.0055084228515625,
      "z": 0.0262603759765625,
      "time_usec": 533498265028
    },
    {
      "x": 0.0157928466796875,
      "y": 0.0055084228515625,
      "z": 0.0283966064453125,
      "time_usec": 533498269026
    },
    {
      "x": 0.003021240234375,
      "y": 0.0076446533203125,
      "z": 0.0273284912109375,
      "time_usec": 533498272993
    },
    {
      "x": -0.0044403076171875,
      "y": 0.008697509765625,
      "z": 0.02520751953125,
      "time_usec": 533498276960
    },
    {
      "x": -0.009765625,
      "y": 0.0065765380859375,
      "z": 0.022003173828125,
      "time_usec": 533498280928
    },
    {
      "x": -0.012969970703125,
      "y": 0.0033721923828125,
      "z": 0.0188140869140625,
      "time_usec": 533498284925
    },
    {
      "x": -0.012969970703125,
      "y": -0.003021240234375,
      "z": 0.0166778564453125,
      "time_usec": 533498288893
    },
    {
      "x": -0.0065765380859375,
      "y": -0.0094146728515625,
      "z": 0.0177459716796875,
      "time_usec": 533498292860
    },
    {
      "x": 8.85009765625E-4,
      "y": -0.014739990234375,
      "z": 0.02093505859375,
      "time_usec": 533498296858
    },
    {
      "x": 0.010467529296875,
      "y": -0.0179290771484375,
      "z": 0.0230712890625,
      "time_usec": 533498300825
    },
    {
      "x": 0.0211334228515625,
      "y": -0.0189971923828125,
      "z": 0.024139404296875,
      "time_usec": 533498304792
    },
    {
      "x": 0.0328369140625,
      "y": -0.0200653076171875,
      "z": 0.022003173828125,
      "time_usec": 533498308760
    },
    {
      "x": 0.0424346923828125,
      "y": -0.0211181640625,
      "z": 0.0230712890625,
      "time_usec": 533498312758
    },
    {
      "x": 0.047760009765625,
      "y": -0.025390625,
      "z": 0.0230712890625,
      "time_usec": 533498316725
    },
    {
      "x": 0.0498809814453125,
      "y": -0.0296478271484375,
      "z": 0.02520751953125,
      "time_usec": 533498320692
    },
    {
      "x": 0.048828125,
      "y": -0.033905029296875,
      "z": 0.0273284912109375,
      "time_usec": 533498324690
    },
    {
      "x": 0.038177490234375,
      "y": -0.037109375,
      "z": 0.0283966064453125,
      "time_usec": 533498328657
    },
    {
      "x": 0.0328369140625,
      "y": -0.0402984619140625,
      "z": 0.0294647216796875,
      "time_usec": 533498332624
    },
    {
      "x": 0.022186279296875,
      "y": -0.0413665771484375,
      "z": 0.03265380859375,
      "time_usec": 533498336592
    },
    {
      "x": 0.010467529296875,
      "y": -0.0413665771484375,
      "z": 0.035858154296875,
      "time_usec": 533498340559
    },
    {
      "x": -0.0023040771484375,
      "y": -0.0381622314453125,
      "z": 0.035858154296875,
      "time_usec": 533498344557
    },
    {
      "x": -0.010833740234375,
      "y": -0.0328369140625,
      "z": 0.0379791259765625,
      "time_usec": 533498348524
    },
    {
      "x": -0.020416259765625,
      "y": -0.02325439453125,
      "z": 0.03692626953125,
      "time_usec": 533498352522
    },
    {
      "x": -0.0268096923828125,
      "y": -0.0157928466796875,
      "z": 0.033721923828125,
      "time_usec": 533498356489
    },
    {
      "x": -0.0363922119140625,
      "y": -0.012603759765625,
      "z": 0.0294647216796875,
      "time_usec": 533498360456
    },
    {
      "x": -0.045989990234375,
      "y": -0.0094146728515625,
      "z": 0.02520751953125,
      "time_usec": 533498364424
    },
    {
      "x": -0.0523834228515625,
      "y": -0.0094146728515625,
      "z": 0.024139404296875,
      "time_usec": 533498368422
    },
    {
      "x": -0.0598297119140625,
      "y": -0.01153564453125,
      "z": 0.02093505859375,
      "time_usec": 533498372389
    },
    {
      "x": -0.067291259765625,
      "y": -0.0157928466796875,
      "z": 0.02093505859375,
      "time_usec": 533498376356
    },
    {
      "x": -0.0736846923828125,
      "y": -0.02325439453125,
      "z": 0.0198822021484375,
      "time_usec": 533498380354
    },
    {
      "x": -0.079010009765625,
      "y": -0.0317840576171875,
      "z": 0.022003173828125,
      "time_usec": 533498384321
    },
    {
      "x": -0.0821990966796875,
      "y": -0.0392303466796875,
      "z": 0.022003173828125,
      "time_usec": 533498388289
    },
    {
      "x": -0.0843353271484375,
      "y": -0.0435028076171875,
      "z": 0.02093505859375,
      "time_usec": 533498392256
    },
    {
      "x": -0.081146240234375,
      "y": -0.045623779296875,
      "z": 0.0230712890625,
      "time_usec": 533498396254
    },
    {
      "x": -0.07794189453125,
      "y": -0.0435028076171875,
      "z": 0.0198822021484375,
      "time_usec": 533498400221
    },
    {
      "x": -0.0758056640625,
      "y": -0.045623779296875,
      "z": 0.0145416259765625,
      "time_usec": 533498404188
    },
    {
      "x": -0.0736846923828125,
      "y": -0.0424346923828125,
      "z": 0.0113525390625,
      "time_usec": 533498408186
    },
    {
      "x": -0.068359375,
      "y": -0.0402984619140625,
      "z": 0.0060272216796875,
      "time_usec": 533498412153
    },
    {
      "x": -0.0641021728515625,
      "y": -0.0381622314453125,
      "z": 0.0038909912109375,
      "time_usec": 533498416121
    },
    {
      "x": -0.0587615966796875,
      "y": -0.037109375,
      "z": -0.00250244140625,
      "time_usec": 533498420088
    },
    {
      "x": -0.05450439453125,
      "y": -0.0402984619140625,
      "z": -0.0067596435546875,
      "time_usec": 533498424086
    },
    {
      "x": -0.045989990234375,
      "y": -0.0424346923828125,
      "z": -0.011016845703125,
      "time_usec": 533498428053
    },
    {
      "x": -0.041717529296875,
      "y": -0.0435028076171875,
      "z": -0.013153076171875,
      "time_usec": 533498432020
    },
    {
      "x": -0.033203125,
      "y": -0.0445556640625,
      "z": -0.013153076171875,
      "time_usec": 533498436018
    },
    {
      "x": -0.02362060546875,
      "y": -0.0435028076171875,
      "z": -0.01422119140625,
      "time_usec": 533498439985
    },
    {
      "x": -0.012969970703125,
      "y": -0.0381622314453125,
      "z": -0.013153076171875,
      "time_usec": 533498443953
    },
    {
      "x": -0.00762939453125,
      "y": -0.033905029296875,
      "z": -0.0120849609375,
      "time_usec": 533498447920
    },
    {
      "x": 0.001953125,
      "y": -0.026458740234375,
      "z": -0.01422119140625,
      "time_usec": 533498451918
    },
    {
      "x": 0.0083465576171875,
      "y": -0.0168609619140625,
      "z": -0.0184783935546875,
      "time_usec": 533498455885
    },
    {
      "x": 0.010467529296875,
      "y": -0.01153564453125,
      "z": -0.020599365234375,
      "time_usec": 533498459852
    },
    {
      "x": 0.010467529296875,
      "y": -0.0062103271484375,
      "z": -0.02166748046875,
      "time_usec": 533498463850
    },
    {
      "x": 0.0072784423828125,
      "y": -8.85009765625E-4,
      "z": -0.022735595703125,
      "time_usec": 533498467817
    },
    {
      "x": -0.0033721923828125,
      "y": 0.0023040771484375,
      "z": -0.0195465087890625,
      "time_usec": 533498471785
    },
    {
      "x": -0.0150909423828125,
      "y": 0.001251220703125,
      "z": -0.0163421630859375,
      "time_usec": 533498475782
    },
    {
      "x": -0.033203125,
      "y": 1.8310546875E-4,
      "z": -0.0078277587890625,
      "time_usec": 533498479750
    },
    {
      "x": -0.04705810546875,
      "y": 0.001251220703125,
      "z": -0.00250244140625,
      "time_usec": 533498483717
    },
    {
      "x": -0.0608978271484375,
      "y": 0.0033721923828125,
      "z": 7.01904296875E-4,
      "time_usec": 533498487684
    },
    {
      "x": -0.0736846923828125,
      "y": 0.0033721923828125,
      "z": 0.0038909912109375,
      "time_usec": 533498491682
    },
    {
      "x": -0.081146240234375,
      "y": 0.008697509765625,
      "z": 0.0049591064453125,
      "time_usec": 533498495649
    },
    {
      "x": -0.088592529296875,
      "y": 0.0065765380859375,
      "z": 0.0049591064453125,
      "time_usec": 533498499617
    },
    {
      "x": -0.0949859619140625,
      "y": 0.0055084228515625,
      "z": 0.0038909912109375,
      "time_usec": 533498503614
    },
    {
      "x": -0.0949859619140625,
      "y": 0.0065765380859375,
      "z": 0.0038909912109375,
      "time_usec": 533498507582
    },
    {
      "x": -0.10137939453125,
      "y": 0.0033721923828125,
      "z": 7.01904296875E-4,
      "time_usec": 533498511549
    },
    {
      "x": -0.10137939453125,
      "y": 0.0023040771484375,
      "z": -0.001434326171875,
      "time_usec": 533498515547
    },
    {
      "x": -0.1056365966796875,
      "y": 1.8310546875E-4,
      "z": -0.0035552978515625,
      "time_usec": 533498519514
    },
    {
      "x": -0.1077728271484375,
      "y": 0.0023040771484375,
      "z": -0.0067596435546875,
      "time_usec": 533498523481
    },
    {
      "x": -0.112030029296875,
      "y": 0.0044403076171875,
      "z": -0.011016845703125,
      "time_usec": 533498527449
    },
    {
      "x": -0.112030029296875,
      "y": 0.0076446533203125,
      "z": -0.0152740478515625,
      "time_usec": 533498531446
    },
    {
      "x": -0.1088409423828125,
      "y": 0.008697509765625,
      "z": -0.0195465087890625,
      "time_usec": 533498535414
    },
    {
      "x": -0.103515625,
      "y": 0.0140228271484375,
      "z": -0.024871826171875,
      "time_usec": 533498539381
    },
    {
      "x": -0.0992431640625,
      "y": 0.0172271728515625,
      "z": -0.0291290283203125,
      "time_usec": 533498543379
    },
    {
      "x": -0.091796875,
      "y": 0.021484375,
      "z": -0.034454345703125,
      "time_usec": 533498547346
    },
    {
      "x": -0.0864715576171875,
      "y": 0.0257415771484375,
      "z": -0.04296875,
      "time_usec": 533498551313
    },
    {
      "x": -0.081146240234375,
      "y": 0.024688720703125,
      "z": -0.04510498046875,
      "time_usec": 533498555281
    },
    {
      "x": -0.0747528076171875,
      "y": 0.021484375,
      "z": -0.0504302978515625,
      "time_usec": 533498559279
    },
    {
      "x": -0.0715484619140625,
      "y": 0.020416259765625,
      "z": -0.0514984130859375,
      "time_usec": 533498563246
    },
    {
      "x": -0.069427490234375,
      "y": 0.01934814453125,
      "z": -0.0514984130859375,
      "time_usec": 533498567213
    },
    {
      "x": -0.067291259765625,
      "y": 0.0172271728515625,
      "z": -0.0472412109375,
      "time_usec": 533498571180
    },
    {
      "x": -0.067291259765625,
      "y": 0.0172271728515625,
      "z": -0.046173095703125,
      "time_usec": 533498575178
    },
    {
      "x": -0.0715484619140625,
      "y": 0.0140228271484375,
      "z": -0.044036865234375,
      "time_usec": 533498579145
    },
    {
      "x": -0.076873779296875,
      "y": 0.010833740234375,
      "z": -0.04296875,
      "time_usec": 533498583113
    },
    {
      "x": -0.0821990966796875,
      "y": 0.0023040771484375,
      "z": -0.0408477783203125,
      "time_usec": 533498587080
    },
    {
      "x": -0.08966064453125,
      "y": -0.0072784423828125,
      "z": -0.044036865234375,
      "time_usec": 533498591078
    },
    {
      "x": -0.0971221923828125,
      "y": -0.0200653076171875,
      "z": -0.04296875,
      "time_usec": 533498595045
    },
    {
      "x": -0.1056365966796875,
      "y": -0.037109375,
      "z": -0.0419158935546875,
      "time_usec": 533498599012
    },
    {
      "x": -0.1109619140625,
      "y": -0.048828125,
      "z": -0.0387115478515625,
      "time_usec": 533498603010
    },
    {
      "x": -0.11309814453125,
      "y": -0.0658721923828125,
      "z": -0.0408477783203125,
      "time_usec": 533498606977
    },
    {
      "x": -0.1109619140625,
      "y": -0.078643798828125,
      "z": -0.04296875,
      "time_usec": 533498610945
    },
    {
      "x": -0.1088409423828125,
      "y": -0.092498779296875,
      "z": -0.044036865234375,
      "time_usec": 533498614912
    },
    {
      "x": -0.102447509765625,
      "y": -0.102081298828125,
      "z": -0.046173095703125,
      "time_usec": 533498618910
    },
    {
      "x": -0.092864990234375,
      "y": -0.115936279296875,
      "z": -0.0493621826171875,
      "time_usec": 533498622877
    },
    {
      "x": -0.0747528076171875,
      "y": -0.1201934814453125,
      "z": -0.0546875,
      "time_usec": 533498626844
    },
    {
      "x": -0.056640625,
      "y": -0.1212615966796875,
      "z": -0.0536346435546875,
      "time_usec": 533498630812
    },
    {
      "x": -0.0491790771484375,
      "y": -0.1233978271484375,
      "z": -0.0493621826171875,
      "time_usec": 533498634810
    },
    {
      "x": -0.04705810546875,
      "y": -0.1223297119140625,
      "z": -0.04510498046875,
      "time_usec": 533498638777
    },
    {
      "x": -0.0502471923828125,
      "y": -0.1212615966796875,
      "z": -0.0419158935546875,
      "time_usec": 533498642744
    },
    {
      "x": -0.05450439453125,
      "y": -0.115936279296875,
      "z": -0.046173095703125,
      "time_usec": 533498646742
    },
    {
      "x": -0.0630340576171875,
      "y": -0.10528564453125,
      "z": -0.048309326171875,
      "time_usec": 533498650709
    },
    {
      "x": -0.0736846923828125,
      "y": -0.0967559814453125,
      "z": -0.0504302978515625,
      "time_usec": 533498654676
    },
    {
      "x": -0.0875244140625,
      "y": -0.0861053466796875,
      "z": -0.0536346435546875,
      "time_usec": 533498658644
    },
    {
      "x": -0.100311279296875,
      "y": -0.0871734619140625,
      "z": -0.0600128173828125,
      "time_usec": 533498662642
    },
    {
      "x": -0.1109619140625,
      "y": -0.0914306640625,
      "z": -0.0642852783203125,
      "time_usec": 533498666609
    },
    {
      "x": -0.125885009765625,
      "y": -0.090362548828125,
      "z": -0.06854248046875,
      "time_usec": 533498670576
    },
    {
      "x": -0.1397247314453125,
      "y": -0.08929443359375,
      "z": -0.0749359130859375,
      "time_usec": 533498674574
    },
    {
      "x": -0.1535797119140625,
      "y": -0.0861053466796875,
      "z": -0.08026123046875,
      "time_usec": 533498678541
    },
    {
      "x": -0.1663665771484375,
      "y": -0.090362548828125,
      "z": -0.0834503173828125,
      "time_usec": 533498682508
    },
    {
      "x": -0.17913818359375,
      "y": -0.10101318359375,
      "z": -0.0877227783203125,
      "time_usec": 533498686476
    },
    {
      "x": -0.1898040771484375,
      "y": -0.11273193359375,
      "z": -0.088775634765625,
      "time_usec": 533498690474
    },
    {
      "x": -0.1983184814453125,
      "y": -0.12445068359375,
      "z": -0.088775634765625,
      "time_usec": 533498694441
    },
    {
      "x": -0.201507568359375,
      "y": -0.135101318359375,
      "z": -0.0855865478515625,
      "time_usec": 533498698408
    },
    {
      "x": -0.201507568359375,
      "y": -0.1446990966796875,
      "z": -0.079193115234375,
      "time_usec": 533498702375
    },
    {
      "x": -0.1993865966796875,
      "y": -0.1521453857421875,
      "z": -0.0738677978515625,
      "time_usec": 533498706373
    },
    {
      "x": -0.1929931640625,
      "y": -0.1564178466796875,
      "z": -0.0706787109375,
      "time_usec": 533498710341
    },
    {
      "x": -0.1844635009765625,
      "y": -0.1574859619140625,
      "z": -0.069610595703125,
      "time_usec": 533498714308
    },
    {
      "x": -0.180206298828125,
      "y": -0.148956298828125,
      "z": -0.06640625,
      "time_usec": 533498718306
    },
    {
      "x": -0.1748809814453125,
      "y": -0.13616943359375,
      "z": -0.0632171630859375,
      "time_usec": 533498722273
    },
    {
      "x": -0.1663665771484375,
      "y": -0.12445068359375,
      "z": -0.0642852783203125,
      "time_usec": 533498726240
    },
    {
      "x": -0.158905029296875,
      "y": -0.1095428466796875,
      "z": -0.0642852783203125,
      "time_usec": 533498730207
    },
    {
      "x": -0.1535797119140625,
      "y": -0.0871734619140625,
      "z": -0.0642852783203125,
      "time_usec": 533498734205
    },
    {
      "x": -0.1514434814453125,
      "y": -0.05841064453125,
      "z": -0.0642852783203125,
      "time_usec": 533498738173
    },
    {
      "x": -0.149322509765625,
      "y": -0.0275115966796875,
      "z": -0.0632171630859375,
      "time_usec": 533498742140
    },
    {
      "x": -0.147186279296875,
      "y": 1.8310546875E-4,
      "z": -0.0642852783203125,
      "time_usec": 533498746107
    },
    {
      "x": -0.1439971923828125,
      "y": 0.0289459228515625,
      "z": -0.0610809326171875,
      "time_usec": 533498750105
    },
    {
      "x": -0.147186279296875,
      "y": 0.053436279296875,
      "z": -0.0610809326171875,
      "time_usec": 533498754072
    },
    {
      "x": -0.145050048828125,
      "y": 0.0726165771484375,
      "z": -0.05682373046875,
      "time_usec": 533498758039
    },
    {
      "x": -0.1503753662109375,
      "y": 0.091796875,
      "z": -0.0525665283203125,
      "time_usec": 533498762007
    },
    {
      "x": -0.1535797119140625,
      "y": 0.11309814453125,
      "z": -0.044036865234375,
      "time_usec": 533498766005
    },
    {
      "x": -0.15570068359375,
      "y": 0.133331298828125,
      "z": -0.034454345703125,
      "time_usec": 533498769972
    },
    {
      "x": -0.15570068359375,
      "y": 0.1525115966796875,
      "z": -0.022735595703125,
      "time_usec": 533498773939
    },
    {
      "x": -0.158905029296875,
      "y": 0.1663665771484375,
      "z": -0.0184783935546875,
      "time_usec": 533498777937
    },
    {
      "x": -0.158905029296875,
      "y": 0.1759490966796875,
      "z": -0.011016845703125,
      "time_usec": 533498781904
    },
    {
      "x": -0.1546478271484375,
      "y": 0.18341064453125,
      "z": -0.0078277587890625,
      "time_usec": 533498785872
    },
    {
      "x": -0.1503753662109375,
      "y": 0.1855316162109375,
      "z": -0.0046234130859375,
      "time_usec": 533498789839
    },
    {
      "x": -0.1439971923828125,
      "y": 0.1855316162109375,
      "z": 7.01904296875E-4,
      "time_usec": 533498793837
    },
    {
      "x": -0.1322784423828125,
      "y": 0.1844635009765625,
      "z": 0.00921630859375,
      "time_usec": 533498797804
    },
    {
      "x": -0.1184234619140625,
      "y": 0.1812744140625,
      "z": 0.0156097412109375,
      "time_usec": 533498801771
    },
    {
      "x": -0.103515625,
      "y": 0.1748809814453125,
      "z": 0.02093505859375,
      "time_usec": 533498805738
    },
    {
      "x": -0.0864715576171875,
      "y": 0.1695556640625,
      "z": 0.0273284912109375,
      "time_usec": 533498809736
    },
    {
      "x": -0.0726165771484375,
      "y": 0.161041259765625,
      "z": 0.0347900390625,
      "time_usec": 533498813704
    },
    {
      "x": -0.056640625,
      "y": 0.156768798828125,
      "z": 0.0411834716796875,
      "time_usec": 533498817671
    },
    {
      "x": -0.0406646728515625,
      "y": 0.1514434814453125,
      "z": 0.047576904296875,
      "time_usec": 533498821669
    },
    {
      "x": -0.03106689453125,
      "y": 0.149322509765625,
      "z": 0.0496978759765625,
      "time_usec": 533498825636
    },
    {
      "x": -0.021484375,
      "y": 0.1439971923828125,
      "z": 0.0486297607421875,
      "time_usec": 533498829603
    },
    {
      "x": -0.0150909423828125,
      "y": 0.135467529296875,
      "z": 0.047576904296875,
      "time_usec": 533498833570
    },
    {
      "x": -0.01190185546875,
      "y": 0.1280059814453125,
      "z": 0.047576904296875,
      "time_usec": 533498837568
    },
    {
      "x": -0.008697509765625,
      "y": 0.1226806640625,
      "z": 0.047576904296875,
      "time_usec": 533498841536
    },
    {
      "x": -0.0033721923828125,
      "y": 0.115234375,
      "z": 0.047576904296875,
      "time_usec": 533498845533
    },
    {
      "x": -1.8310546875E-4,
      "y": 0.11309814453125,
      "z": 0.0507659912109375,
      "time_usec": 533498849501
    },
    {
      "x": 0.0040740966796875,
      "y": 0.112030029296875,
      "z": 0.0518341064453125,
      "time_usec": 533498853468
    },
    {
      "x": 0.0062103271484375,
      "y": 0.1173553466796875,
      "z": 0.0518341064453125,
      "time_usec": 533498857435
    },
    {
      "x": 0.010467529296875,
      "y": 0.1162872314453125,
      "z": 0.0496978759765625,
      "time_usec": 533498861403
    },
    {
      "x": 0.01153564453125,
      "y": 0.1077728271484375,
      "z": 0.0486297607421875,
      "time_usec": 533498865400
    },
    {
      "x": 0.0083465576171875,
      "y": 0.102447509765625,
      "z": 0.043304443359375,
      "time_usec": 533498869368
    },
    {
      "x": 0.0062103271484375,
      "y": 0.0971221923828125,
      "z": 0.043304443359375,
      "time_usec": 533498873335
    },
    {
      "x": -0.001251220703125,
      "y": 0.091796875,
      "z": 0.0411834716796875,
      "time_usec": 533498877333
    },
    {
      "x": -0.0055084228515625,
      "y": 0.0875244140625,
      "z": 0.03692626953125,
      "time_usec": 533498881300
    },
    {
      "x": -0.01190185546875,
      "y": 0.0832672119140625,
      "z": 0.033721923828125,
      "time_usec": 533498885267
    },
    {
      "x": -0.012969970703125,
      "y": 0.0736846923828125,
      "z": 0.0273284912109375,
      "time_usec": 533498889265
    },
    {
      "x": -0.0161590576171875,
      "y": 0.0619659423828125,
      "z": 0.02093505859375,
      "time_usec": 533498893232
    },
    {
      "x": -0.01934814453125,
      "y": 0.055572509765625,
      "z": 0.0145416259765625,
      "time_usec": 533498897200
    },
    {
      "x": -0.02362060546875,
      "y": 0.0481109619140625,
      "z": 0.00921630859375,
      "time_usec": 533498901167
    },
    {
      "x": -0.0246734619140625,
      "y": 0.045989990234375,
      "z": 0.0038909912109375,
      "time_usec": 533498905165
    },
    {
      "x": -0.0246734619140625,
      "y": 0.044921875,
      "z": -3.662109375E-4,
      "time_usec": 533498909132
    },
    {
      "x": -0.0257415771484375,
      "y": 0.043853759765625,
      "z": -0.0067596435546875,
      "time_usec": 533498913099
    },
    {
      "x": -0.0246734619140625,
      "y": 0.04705810546875,
      "z": -0.0163421630859375,
      "time_usec": 533498917097
    },
    {
      "x": -0.0246734619140625,
      "y": 0.0481109619140625,
      "z": -0.024871826171875,
      "time_usec": 533498921064
    },
    {
      "x": -0.02362060546875,
      "y": 0.0502471923828125,
      "z": -0.032318115234375,
      "time_usec": 533498925032
    },
    {
      "x": -0.020416259765625,
      "y": 0.05450439453125,
      "z": -0.0397796630859375,
      "time_usec": 533498928999
    },
    {
      "x": -0.022552490234375,
      "y": 0.056640625,
      "z": -0.0472412109375,
      "time_usec": 533498932997
    },
    {
      "x": -0.01934814453125,
      "y": 0.0608978271484375,
      "z": -0.0536346435546875,
      "time_usec": 533498936964
    },
    {
      "x": -0.021484375,
      "y": 0.06622314453125,
      "z": -0.0621490478515625,
      "time_usec": 533498940931
    },
    {
      "x": -0.0257415771484375,
      "y": 0.069427490234375,
      "z": -0.06854248046875,
      "time_usec": 533498944929
    },
    {
      "x": -0.033203125,
      "y": 0.076873779296875,
      "z": -0.0727996826171875,
      "time_usec": 533498948896
    },
    {
      "x": -0.0395965576171875,
      "y": 0.0843353271484375,
      "z": -0.078125,
      "time_usec": 533498952864
    },
    {
      "x": -0.0513153076171875,
      "y": 0.08966064453125,
      "z": -0.0823974609375,
      "time_usec": 533498956862
    },
    {
      "x": -0.0641021728515625,
      "y": 0.091796875,
      "z": -0.0834503173828125,
      "time_usec": 533498960829
    },
    {
      "x": -0.0726165771484375,
      "y": 0.0960540771484375,
      "z": -0.0855865478515625,
      "time_usec": 533498964796
    },
    {
      "x": -0.080078125,
      "y": 0.0939178466796875,
      "z": -0.0834503173828125,
      "time_usec": 533498968763
    },
    {
      "x": -0.090728759765625,
      "y": 0.092864990234375,
      "z": -0.0749359130859375,
      "time_usec": 533498972761
    },
    {
      "x": -0.0981903076171875,
      "y": 0.08966064453125,
      "z": -0.0653533935546875,
      "time_usec": 533498976728
    },
    {
      "x": -0.102447509765625,
      "y": 0.0875244140625,
      "z": -0.0504302978515625,
      "time_usec": 533498980696
    },
    {
      "x": -0.1056365966796875,
      "y": 0.0864715576171875,
      "z": -0.036590576171875,
      "time_usec": 533498984694
    },
    {
      "x": -0.1056365966796875,
      "y": 0.090728759765625,
      "z": -0.0238037109375,
      "time_usec": 533498988661
    },
    {
      "x": -0.102447509765625,
      "y": 0.0960540771484375,
      "z": -0.013153076171875,
      "time_usec": 533498992628
    },
    {
      "x": -0.0992431640625,
      "y": 0.103515625,
      "z": -0.0067596435546875,
      "time_usec": 533498996595
    },
    {
      "x": -0.091796875,
      "y": 0.11309814453125,
      "z": -0.0035552978515625,
      "time_usec": 533499000593
    },
    {
      "x": -0.088592529296875,
      "y": 0.1194915771484375,
      "z": 7.01904296875E-4,
      "time_usec": 533499004560
    },
    {
      "x": -0.0864715576171875,
      "y": 0.12481689453125,
      "z": 0.0038909912109375,
      "time_usec": 533499008528
    },
    {
      "x": -0.08966064453125,
      "y": 0.1301422119140625,
      "z": 0.0070953369140625,
      "time_usec": 533499012526
    },
    {
      "x": -0.090728759765625,
      "y": 0.133331298828125,
      "z": 0.0113525390625,
      "time_usec": 533499016493
    },
    {
      "x": -0.0960540771484375,
      "y": 0.1418609619140625,
      "z": 0.0113525390625,
      "time_usec": 533499020460
    },
    {
      "x": -0.100311279296875,
      "y": 0.149322509765625,
      "z": 0.012420654296875,
      "time_usec": 533499024427
    },
    {
      "x": -0.1045684814453125,
      "y": 0.1578369140625,
      "z": 0.01348876953125,
      "time_usec": 533499028425
    },
    {
      "x": -0.1077728271484375,
      "y": 0.1652984619140625,
      "z": 0.0113525390625,
      "time_usec": 533499032393
    },
    {
      "x": -0.112030029296875,
      "y": 0.17169189453125,
      "z": 0.00921630859375,
      "time_usec": 533499036360
    },
    {
      "x": -0.114166259765625,
      "y": 0.1770172119140625,
      "z": 0.0038909912109375,
      "time_usec": 533499040358
    },
    {
      "x": -0.1184234619140625,
      "y": 0.1844635009765625,
      "z": -0.00250244140625,
      "time_usec": 533499044325
    },
    {
      "x": -0.1194915771484375,
      "y": 0.194061279296875,
      "z": -0.00994873046875,
      "time_usec": 533499048292
    },
    {
      "x": -0.1205596923828125,
      "y": 0.20257568359375,
      "z": -0.0195465087890625,
      "time_usec": 533499052259
    },
    {
      "x": -0.1205596923828125,
      "y": 0.2089691162109375,
      "z": -0.0280609130859375,
      "time_usec": 533499056257
    },
    {
      "x": -0.1205596923828125,
      "y": 0.2164306640625,
      "z": -0.03338623046875,
      "time_usec": 533499060225
    },
    {
      "x": -0.1205596923828125,
      "y": 0.2217559814453125,
      "z": -0.0397796630859375,
      "time_usec": 533499064192
    },
    {
      "x": -0.1162872314453125,
      "y": 0.2206878662109375,
      "z": -0.0408477783203125,
      "time_usec": 533499068190
    },
    {
      "x": -0.11309814453125,
      "y": 0.2228240966796875,
      "z": -0.044036865234375,
      "time_usec": 533499072157
    },
    {
      "x": -0.1088409423828125,
      "y": 0.2217559814453125,
      "z": -0.0397796630859375,
      "time_usec": 533499076124
    },
    {
      "x": -0.102447509765625,
      "y": 0.2164306640625,
      "z": -0.0387115478515625,
      "time_usec": 533499080091
    },
    {
      "x": -0.0939178466796875,
      "y": 0.21429443359375,
      "z": -0.0387115478515625,
      "time_usec": 533499084089
    },
    {
      "x": -0.08966064453125,
      "y": 0.2111053466796875,
      "z": -0.0355224609375,
      "time_usec": 533499088057
    },
    {
      "x": -0.0854034423828125,
      "y": 0.2089691162109375,
      "z": -0.0312652587890625,
      "time_usec": 533499092024
    },
    {
      "x": -0.0854034423828125,
      "y": 0.203643798828125,
      "z": -0.0269927978515625,
      "time_usec": 533499096022
    },
    {
      "x": -0.0843353271484375,
      "y": 0.1961822509765625,
      "z": -0.020599365234375,
      "time_usec": 533499099989
    },
    {
      "x": -0.0864715576171875,
      "y": 0.1865997314453125,
      "z": -0.0195465087890625,
      "time_usec": 533499103956
    },
    {
      "x": -0.090728759765625,
      "y": 0.1759490966796875,
      "z": -0.013153076171875,
      "time_usec": 533499107924
    },
    {
      "x": -0.0981903076171875,
      "y": 0.1695556640625,
      "z": -0.008880615234375,
      "time_usec": 533499111921
    },
    {
      "x": -0.103515625,
      "y": 0.1620941162109375,
      "z": -0.0067596435546875,
      "time_usec": 533499115889
    },
    {
      "x": -0.1045684814453125,
      "y": 0.161041259765625,
      "z": -0.00250244140625,
      "time_usec": 533499119856
    },
    {
      "x": -0.11309814453125,
      "y": 0.1525115966796875,
      "z": -3.662109375E-4,
      "time_usec": 533499123854
    },
    {
      "x": -0.1173553466796875,
      "y": 0.147186279296875,
      "z": 0.00177001953125,
      "time_usec": 533499127821
    },
    {
      "x": -0.1205596923828125,
      "y": 0.1439971923828125,
      "z": 0.0049591064453125,
      "time_usec": 533499131788
    },
    {
      "x": -0.1194915771484375,
      "y": 0.138671875,
      "z": 0.0060272216796875,
      "time_usec": 533499135756
    },
    {
      "x": -0.1226806640625,
      "y": 0.138671875,
      "z": 0.00177001953125,
      "time_usec": 533499139753
    },
    {
      "x": -0.1205596923828125,
      "y": 0.137603759765625,
      "z": -0.0046234130859375,
      "time_usec": 533499143721
    },
    {
      "x": -0.1194915771484375,
      "y": 0.1397247314453125,
      "z": -0.0078277587890625,
      "time_usec": 533499147688
    },
    {
      "x": -0.115234375,
      "y": 0.145050048828125,
      "z": -0.0152740478515625,
      "time_usec": 533499151686
    },
    {
      "x": -0.112030029296875,
      "y": 0.156768798828125,
      "z": -0.0259246826171875,
      "time_usec": 533499155653
    },
    {
      "x": -0.103515625,
      "y": 0.1663665771484375,
      "z": -0.0376434326171875,
      "time_usec": 533499159620
    },
    {
      "x": -0.0992431640625,
      "y": 0.1780853271484375,
      "z": -0.0504302978515625,
      "time_usec": 533499163588
    },
    {
      "x": -0.08966064453125,
      "y": 0.1887359619140625,
      "z": -0.0632171630859375,
      "time_usec": 533499167585
    },
    {
      "x": -0.080078125,
      "y": 0.2004547119140625,
      "z": -0.0738677978515625,
      "time_usec": 533499171553
    },
    {
      "x": -0.067291259765625,
      "y": 0.2047119140625,
      "z": -0.0834503173828125,
      "time_usec": 533499175520
    },
    {
      "x": -0.0587615966796875,
      "y": 0.205780029296875,
      "z": -0.0855865478515625,
      "time_usec": 533499179518
    },
    {
      "x": -0.0491790771484375,
      "y": 0.205780029296875,
      "z": -0.0834503173828125,
      "time_usec": 533499183485
    },
    {
      "x": -0.041717529296875,
      "y": 0.203643798828125,
      "z": -0.079193115234375,
      "time_usec": 533499187452
    },
    {
      "x": -0.0406646728515625,
      "y": 0.203643798828125,
      "z": -0.077056884765625,
      "time_usec": 533499191420
    },
    {
      "x": -0.0374603271484375,
      "y": 0.1972503662109375,
      "z": -0.0738677978515625,
      "time_usec": 533499195417
    },
    {
      "x": -0.04278564453125,
      "y": 0.180206298828125,
      "z": -0.0706787109375,
      "time_usec": 533499199385
    },
    {
      "x": -0.04705810546875,
      "y": 0.1652984619140625,
      "z": -0.0653533935546875,
      "time_usec": 533499203352
    },
    {
      "x": -0.0523834228515625,
      "y": 0.145050048828125,
      "z": -0.0589599609375,
      "time_usec": 533499207350
    },
    {
      "x": -0.0641021728515625,
      "y": 0.1301422119140625,
      "z": -0.055755615234375,
      "time_usec": 533499211317
    },
    {
      "x": -0.076873779296875,
      "y": 0.102447509765625,
      "z": -0.0514984130859375,
      "time_usec": 533499215284
    },
    {
      "x": -0.0949859619140625,
      "y": 0.079010009765625,
      "z": -0.0397796630859375,
      "time_usec": 533499219252
    },
    {
      "x": -0.1088409423828125,
      "y": 0.068359375,
      "z": -0.032318115234375,
      "time_usec": 533499223249
    },
    {
      "x": -0.12481689453125,
      "y": 0.055572509765625,
      "z": -0.024871826171875,
      "time_usec": 533499227217
    },
    {
      "x": -0.1407928466796875,
      "y": 0.0385284423828125,
      "z": -0.020599365234375,
      "time_usec": 533499231184
    },
    {
      "x": -0.158905029296875,
      "y": 0.020416259765625,
      "z": -0.0163421630859375,
      "time_usec": 533499235182
    },
    {
