{
  "accelerations": [
    {
      "x": 0.3639068603515625,
      "y": 9.765945434570312,
      "z": 0.1005706787109375,
      "time_usec": 1042840802018
    },
    {
      "x": 0.4165802001953125,
      "y": 9.789886474609375,
      "z": 0.0814056396484375,
      "time_usec": 1042840806016
    },
    {
      "x": 0.407012939453125,
      "y": 9.811431884765625,
      "z": 0.1173248291015625,
      "time_usec": 1042840809983
    },
    {
      "x": 0.4309539794921875,
      "y": 9.730026245117188,
      "z": 0.215484619140625,
      "time_usec": 1042840813981
    },
    {
      "x": 0.4141845703125,
      "y": 9.77313232421875,
      "z": 0.246612548828125,
      "time_usec": 1042840817979
    },
    {
      "x": 0.428558349609375,
      "y": 9.744400024414062,
      "z": 0.3064727783203125,
      "time_usec": 1042840821946
    },
    {
      "x": 0.4261627197265625,
      "y": 9.756362915039062,
      "z": 0.3328094482421875,
      "time_usec": 1042840825944
    },
    {
      "x": 0.3615264892578125,
      "y": 9.6893310546875,
      "z": 0.3160400390625,
      "time_usec": 1042840829942
    },
    {
      "x": 0.375885009765625,
      "y": 9.74200439453125,
      "z": 0.373504638671875,
      "time_usec": 1042840833940
    },
    {
      "x": 0.3639068603515625,
      "y": 9.720458984375,
      "z": 0.404632568359375,
      "time_usec": 1042840837907
    },
    {
      "x": 0.39263916015625,
      "y": 9.71087646484375,
      "z": 0.416595458984375,
      "time_usec": 1042840841905
    },
    {
      "x": 0.3998260498046875,
      "y": 9.749191284179688,
      "z": 0.311248779296875,
      "time_usec": 1042840845903
    },
    {
      "x": 0.4213714599609375,
      "y": 9.789886474609375,
      "z": 0.2442169189453125,
      "time_usec": 1042840849900
    },
    {
      "x": 0.4046173095703125,
      "y": 9.77313232421875,
      "z": 0.277740478515625,
      "time_usec": 1042840853868
    },
    {
      "x": 0.418975830078125,
      "y": 9.775527954101562,
      "z": 0.17718505859375,
      "time_usec": 1042840857865
    },
    {
      "x": 0.4955902099609375,
      "y": 9.758758544921875,
      "z": 0.1819610595703125,
      "time_usec": 1042840861863
    },
    {
      "x": 0.52911376953125,
      "y": 9.746795654296875,
      "z": 0.1652069091796875,
      "time_usec": 1042840865861
    },
    {
      "x": 0.5530548095703125,
      "y": 9.720458984375,
      "z": 0.215484619140625,
      "time_usec": 1042840869828
    },
    {
      "x": 0.57220458984375,
      "y": 9.732421875,
      "z": 0.18914794921875,
      "time_usec": 1042840873826
    },
    {
      "x": 0.57220458984375,
      "y": 9.739608764648438,
      "z": 0.2226715087890625,
      "time_usec": 1042840877824
    },
    {
      "x": 0.524322509765625,
      "y": 9.801864624023438,
      "z": 0.2968902587890625,
      "time_usec": 1042840881791
    },
    {
      "x": 0.56024169921875,
      "y": 9.782699584960938,
      "z": 0.3016815185546875,
      "time_usec": 1042840885789
    },
    {
      "x": 0.581787109375,
      "y": 9.828201293945312,
      "z": 0.41180419921875,
      "time_usec": 1042840889787
    },
    {
      "x": 0.54107666015625,
      "y": 9.792282104492188,
      "z": 0.3663177490234375,
      "time_usec": 1042840893785
    },
    {
      "x": 0.54107666015625,
      "y": 9.777923583984375,
      "z": 0.416595458984375,
      "time_usec": 1042840897752
    },
    {
      "x": 0.5099639892578125,
      "y": 9.768341064453125,
      "z": 0.457305908203125,
      "time_usec": 1042840901750
    },
    {
      "x": 0.5315093994140625,
      "y": 9.78509521484375,
      "z": 0.4668731689453125,
      "time_usec": 1042840905748
    },
    {
      "x": 0.4477081298828125,
      "y": 9.780303955078125,
      "z": 0.438140869140625,
      "time_usec": 1042840909745
    },
    {
      "x": 0.4261627197265625,
      "y": 9.8258056640625,
      "z": 0.4237823486328125,
      "time_usec": 1042840913713
    },
    {
      "x": 0.433349609375,
      "y": 9.770736694335938,
      "z": 0.4812469482421875,
      "time_usec": 1042840917710
    },
    {
      "x": 0.459686279296875,
      "y": 9.7635498046875,
      "z": 0.478851318359375,
      "time_usec": 1042840921708
    },
    {
      "x": 0.4740447998046875,
      "y": 9.77313232421875,
      "z": 0.41180419921875,
      "time_usec": 1042840925706
    },
    {
      "x": 0.5386962890625,
      "y": 9.69891357421875,
      "z": 0.409423828125,
      "time_usec": 1042840929673
    },
    {
      "x": 0.5961456298828125,
      "y": 9.74200439453125,
      "z": 0.4022369384765625,
      "time_usec": 1042840933671
    },
    {
      "x": 0.6009368896484375,
      "y": 9.746795654296875,
      "z": 0.342376708984375,
      "time_usec": 1042840937669
    },
    {
      "x": 0.6009368896484375,
      "y": 9.770736694335938,
      "z": 0.256195068359375,
      "time_usec": 1042840941667
    },
    {
      "x": 0.586578369140625,
      "y": 9.746795654296875,
      "z": 0.18914794921875,
      "time_usec": 1042840945634
    },
    {
      "x": 0.5961456298828125,
      "y": 9.727645874023438,
      "z": 0.1436614990234375,
      "time_usec": 1042840949662
    },
    {
      "x": 0.5482635498046875,
      "y": 9.720458984375,
      "z": 0.1388702392578125,
      "time_usec": 1042840953630
    },
    {
      "x": 0.555450439453125,
      "y": 9.674972534179688,
      "z": 0.1484527587890625,
      "time_usec": 1042840957627
    },
    {
      "x": 0.48602294921875,
      "y": 9.6773681640625,
      "z": 0.1699981689453125,
      "time_usec": 1042840961595
    },
    {
      "x": 0.49798583984375,
      "y": 9.737213134765625,
      "z": 0.268157958984375,
      "time_usec": 1042840965593
    },
    {
      "x": 0.4740447998046875,
      "y": 9.780303955078125,
      "z": 0.2873077392578125,
      "time_usec": 1042840969590
    },
    {
      "x": 0.4884185791015625,
      "y": 9.797073364257812,
      "z": 0.36871337890625,
      "time_usec": 1042840973588
    },
    {
      "x": 0.533905029296875,
      "y": 9.78509521484375,
      "z": 0.3615264892578125,
      "time_usec": 1042840977555
    },
    {
      "x": 0.5482635498046875,
      "y": 9.8377685546875,
      "z": 0.483642578125,
      "time_usec": 1042840981553
    },
    {
      "x": 0.4788360595703125,
      "y": 9.809036254882812,
      "z": 0.4716644287109375,
      "time_usec": 1042840985551
    },
    {
      "x": 0.5267181396484375,
      "y": 9.792282104492188,
      "z": 0.4549102783203125,
      "time_usec": 1042840989518
    },
    {
      "x": 0.5051727294921875,
      "y": 9.823410034179688,
      "z": 0.42138671875,
      "time_usec": 1042840993516
    },
    {
      "x": 0.5147552490234375,
      "y": 9.780303955078125,
      "z": 0.383087158203125,
      "time_usec": 1042840997514
    },
    {
      "x": 0.493194580078125,
      "y": 9.775527954101562,
      "z": 0.3878631591796875,
      "time_usec": 1042841001512
    },
    {
      "x": 0.4884185791015625,
      "y": 9.749191284179688,
      "z": 0.36871337890625,
      "time_usec": 1042841005510
    },
    {
      "x": 0.5434722900390625,
      "y": 9.756362915039062,
      "z": 0.34716796875,
      "time_usec": 1042841009477
    },
    {
      "x": 0.5889739990234375,
      "y": 9.749191284179688,
      "z": 0.3782958984375,
      "time_usec": 1042841013475
    },
    {
      "x": 0.5626373291015625,
      "y": 9.7515869140625,
      "z": 0.3759002685546875,
      "time_usec": 1042841017442
    },
    {
      "x": 0.608123779296875,
      "y": 9.739608764648438,
      "z": 0.3543548583984375,
      "time_usec": 1042841021440
    },
    {
      "x": 0.6320648193359375,
      "y": 9.703689575195312,
      "z": 0.3615264892578125,
      "time_usec": 1042841025437
    },
    {
      "x": 0.59136962890625,
      "y": 9.682144165039062,
      "z": 0.4189910888671875,
      "time_usec": 1042841029435
    },
    {
      "x": 0.608123779296875,
      "y": 9.71087646484375,
      "z": 0.3926544189453125,
      "time_usec": 1042841033403
    },
    {
      "x": 0.5578460693359375,
      "y": 9.703689575195312,
      "z": 0.3663177490234375,
      "time_usec": 1042841037400
    },
    {
      "x": 0.565032958984375,
      "y": 9.686935424804688,
      "z": 0.33758544921875,
      "time_usec": 1042841041398
    },
    {
      "x": 0.51953125,
      "y": 9.694122314453125,
      "z": 0.3615264892578125,
      "time_usec": 1042841045396
    },
    {
      "x": 0.5219268798828125,
      "y": 9.67974853515625,
      "z": 0.3447723388671875,
      "time_usec": 1042841049363
    },
    {
      "x": 0.5482635498046875,
      "y": 9.672576904296875,
      "z": 0.3040771484375,
      "time_usec": 1042841053361
    },
    {
      "x": 0.5506591796875,
      "y": 9.674972534179688,
      "z": 0.23223876953125,
      "time_usec": 1042841057359
    },
    {
      "x": 0.586578369140625,
      "y": 9.655807495117188,
      "z": 0.25140380859375,
      "time_usec": 1042841061326
    },
    {
      "x": 0.581787109375,
      "y": 9.6773681640625,
      "z": 0.210693359375,
      "time_usec": 1042841065324
    },
    {
      "x": 0.5147552490234375,
      "y": 9.684539794921875,
      "z": 0.1915435791015625,
      "time_usec": 1042841069322
    },
    {
      "x": 0.5386962890625,
      "y": 9.732421875,
      "z": 0.162811279296875,
      "time_usec": 1042841073320
    },
    {
      "x": 0.5003814697265625,
      "y": 9.720458984375,
      "z": 0.2130889892578125,
      "time_usec": 1042841077287
    },
    {
      "x": 0.450103759765625,
      "y": 9.703689575195312,
      "z": 0.141265869140625,
      "time_usec": 1042841081285
    },
    {
      "x": 0.4022216796875,
      "y": 9.730026245117188,
      "z": 0.205902099609375,
      "time_usec": 1042841085282
    },
    {
      "x": 0.4572906494140625,
      "y": 9.694122314453125,
      "z": 0.193939208984375,
      "time_usec": 1042841089280
    },
    {
      "x": 0.4094085693359375,
      "y": 9.651031494140625,
      "z": 0.2274627685546875,
      "time_usec": 1042841093248
    },
    {
      "x": 0.4357452392578125,
      "y": 9.651031494140625,
      "z": 0.2226715087890625,
      "time_usec": 1042841097245
    },
    {
      "x": 0.481231689453125,
      "y": 9.639053344726562,
      "z": 0.256195068359375,
      "time_usec": 1042841101243
    },
    {
      "x": 0.502777099609375,
      "y": 9.672576904296875,
      "z": 0.284912109375,
      "time_usec": 1042841105241
    },
    {
      "x": 0.49798583984375,
      "y": 9.674972534179688,
      "z": 0.2705535888671875,
      "time_usec": 1042841109208
    },
    {
      "x": 0.4524993896484375,
      "y": 9.660598754882812,
      "z": 0.268157958984375,
      "time_usec": 1042841113206
    },
    {
      "x": 0.45489501953125,
      "y": 9.648635864257812,
      "z": 0.23223876953125,
      "time_usec": 1042841117204
    },
    {
      "x": 0.46685791015625,
      "y": 9.603134155273438,
      "z": 0.2418212890625,
      "time_usec": 1042841121202
    },
    {
      "x": 0.438140869140625,
      "y": 9.655807495117188,
      "z": 0.246612548828125,
      "time_usec": 1042841125169
    },
    {
      "x": 0.481231689453125,
      "y": 9.662994384765625,
      "z": 0.2705535888671875,
      "time_usec": 1042841129167
    },
    {
      "x": 0.4644622802734375,
      "y": 9.655807495117188,
      "z": 0.258575439453125,
      "time_usec": 1042841133165
    },
    {
      "x": 0.5506591796875,
      "y": 9.674972534179688,
      "z": 0.3184356689453125,
      "time_usec": 1042841137162
    },
    {
      "x": 0.5578460693359375,
      "y": 9.662994384765625,
      "z": 0.3016815185546875,
      "time_usec": 1042841141130
    },
    {
      "x": 0.5578460693359375,
      "y": 9.653411865234375,
      "z": 0.3351898193359375,
      "time_usec": 1042841145127
    },
    {
      "x": 0.586578369140625,
      "y": 9.6773681640625,
      "z": 0.3663177490234375,
      "time_usec": 1042841149125
    },
    {
      "x": 0.52911376953125,
      "y": 9.672576904296875,
      "z": 0.330413818359375,
      "time_usec": 1042841153123
    },
    {
      "x": 0.5482635498046875,
      "y": 9.730026245117188,
      "z": 0.351959228515625,
      "time_usec": 1042841157090
    },
    {
      "x": 0.5099639892578125,
      "y": 9.706085205078125,
      "z": 0.3399810791015625,
      "time_usec": 1042841161088
    },
    {
      "x": 0.5482635498046875,
      "y": 9.739608764648438,
      "z": 0.3759002685546875,
      "time_usec": 1042841165086
    },
    {
      "x": 0.5482635498046875,
      "y": 9.727645874023438,
      "z": 0.3543548583984375,
      "time_usec": 1042841169053
    },
    {
      "x": 0.581787109375,
      "y": 9.768341064453125,
      "z": 0.36871337890625,
      "time_usec": 1042841173051
    },
    {
      "x": 0.576995849609375,
      "y": 9.718063354492188,
      "z": 0.3711090087890625,
      "time_usec": 1042841177049
    },
    {
      "x": 0.581787109375,
      "y": 9.672576904296875,
      "z": 0.342376708984375,
      "time_usec": 1042841181047
    },
    {
      "x": 0.59136962890625,
      "y": 9.648635864257812,
      "z": 0.3016815185546875,
      "time_usec": 1042841185014
    },
    {
      "x": 0.6105194091796875,
      "y": 9.684539794921875,
      "z": 0.3088531494140625,
      "time_usec": 1042841189012
    },
    {
      "x": 0.6320648193359375,
      "y": 9.67974853515625,
      "z": 0.311248779296875,
      "time_usec": 1042841193010
    },
    {
      "x": 0.59136962890625,
      "y": 9.739608764648438,
      "z": 0.3232269287109375,
      "time_usec": 1042841196977
    },
    {
      "x": 0.59136962890625,
      "y": 9.737213134765625,
      "z": 0.3088531494140625,
      "time_usec": 1042841200975
    },
    {
      "x": 0.598541259765625,
      "y": 9.761154174804688,
      "z": 0.3806915283203125,
      "time_usec": 1042841204972
    },
    {
      "x": 0.5506591796875,
      "y": 9.761154174804688,
      "z": 0.385467529296875,
      "time_usec": 1042841208970
    },
    {
      "x": 0.52911376953125,
      "y": 9.722854614257812,
      "z": 0.3902587890625,
      "time_usec": 1042841212937
    },
    {
      "x": 0.5889739990234375,
      "y": 9.730026245117188,
      "z": 0.4597015380859375,
      "time_usec": 1042841216935
    },
    {
      "x": 0.59136962890625,
      "y": 9.7635498046875,
      "z": 0.447723388671875,
      "time_usec": 1042841220933
    },
    {
      "x": 0.581787109375,
      "y": 9.7515869140625,
      "z": 0.478851318359375,
      "time_usec": 1042841224900
    },
    {
      "x": 0.6129150390625,
      "y": 9.756362915039062,
      "z": 0.4525146484375,
      "time_usec": 1042841228898
    },
    {
      "x": 0.567413330078125,
      "y": 9.761154174804688,
      "z": 0.395050048828125,
      "time_usec": 1042841232896
    },
    {
      "x": 0.507568359375,
      "y": 9.758758544921875,
      "z": 0.409423828125,
      "time_usec": 1042841236894
    },
    {
      "x": 0.49798583984375,
      "y": 9.765945434570312,
      "z": 0.3447723388671875,
      "time_usec": 1042841240861
    },
    {
      "x": 0.46685791015625,
      "y": 9.787490844726562,
      "z": 0.351959228515625,
      "time_usec": 1042841244859
    },
    {
      "x": 0.481231689453125,
      "y": 9.775527954101562,
      "z": 0.3064727783203125,
      "time_usec": 1042841248857
    },
    {
      "x": 0.4884185791015625,
      "y": 9.799468994140625,
      "z": 0.3711090087890625,
      "time_usec": 1042841252824
    },
    {
      "x": 0.4836273193359375,
      "y": 9.801864624023438,
      "z": 0.32562255859375,
      "time_usec": 1042841256822
    },
    {
      "x": 0.507568359375,
      "y": 9.787490844726562,
      "z": 0.3711090087890625,
      "time_usec": 1042841260820
    },
    {
      "x": 0.502777099609375,
      "y": 9.823410034179688,
      "z": 0.3351898193359375,
      "time_usec": 1042841264817
    },
    {
      "x": 0.5003814697265625,
      "y": 9.842559814453125,
      "z": 0.3615264892578125,
      "time_usec": 1042841268785
    },
    {
      "x": 0.5434722900390625,
      "y": 9.801864624023438,
      "z": 0.34716796875,
      "time_usec": 1042841272782
    },
    {
      "x": 0.48602294921875,
      "y": 9.782699584960938,
      "z": 0.3232269287109375,
      "time_usec": 1042841276780
    },
    {
      "x": 0.4836273193359375,
      "y": 9.8258056640625,
      "z": 0.3328094482421875,
      "time_usec": 1042841280748
    },
    {
      "x": 0.507568359375,
      "y": 9.801864624023438,
      "z": 0.2968902587890625,
      "time_usec": 1042841284745
    },
    {
      "x": 0.5051727294921875,
      "y": 9.8258056640625,
      "z": 0.3280181884765625,
      "time_usec": 1042841288743
    },
    {
      "x": 0.5506591796875,
      "y": 9.818618774414062,
      "z": 0.342376708984375,
      "time_usec": 1042841292710
    },
    {
      "x": 0.586578369140625,
      "y": 9.782699584960938,
      "z": 0.3615264892578125,
      "time_usec": 1042841296708
    },
    {
      "x": 0.6248779296875,
      "y": 9.765945434570312,
      "z": 0.3663177490234375,
      "time_usec": 1042841300706
    },
    {
      "x": 0.67755126953125,
      "y": 9.765945434570312,
      "z": 0.3591461181640625,
      "time_usec": 1042841304704
    },
    {
      "x": 0.682342529296875,
      "y": 9.74200439453125,
      "z": 0.43096923828125,
      "time_usec": 1042841308671
    },
    {
      "x": 0.7278289794921875,
      "y": 9.734817504882812,
      "z": 0.4141998291015625,
      "time_usec": 1042841312669
    },
    {
      "x": 0.6703643798828125,
      "y": 9.787490844726562,
      "z": 0.416595458984375,
      "time_usec": 1042841316667
    },
    {
      "x": 0.6967010498046875,
      "y": 9.720458984375,
      "z": 0.39984130859375,
      "time_usec": 1042841320665
    },
    {
      "x": 0.6631927490234375,
      "y": 9.761154174804688,
      "z": 0.4141998291015625,
      "time_usec": 1042841324632
    },
    {
      "x": 0.6751556396484375,
      "y": 9.734817504882812,
      "z": 0.342376708984375,
      "time_usec": 1042841328630
    },
    {
      "x": 0.6703643798828125,
      "y": 9.739608764648438,
      "z": 0.3184356689453125,
      "time_usec": 1042841332627
    },
    {
      "x": 0.6416473388671875,
      "y": 9.708480834960938,
      "z": 0.2657623291015625,
      "time_usec": 1042841336595
    },
    {
      "x": 0.6272735595703125,
      "y": 9.713272094726562,
      "z": 0.268157958984375,
      "time_usec": 1042841340593
    },
    {
      "x": 0.6536102294921875,
      "y": 9.734817504882812,
      "z": 0.2490081787109375,
      "time_usec": 1042841344590
    },
    {
      "x": 0.691925048828125,
      "y": 9.718063354492188,
      "z": 0.29449462890625,
      "time_usec": 1042841348558
    },
    {
      "x": 0.6751556396484375,
      "y": 9.725250244140625,
      "z": 0.299285888671875,
      "time_usec": 1042841352555
    },
    {
      "x": 0.6703643798828125,
      "y": 9.725250244140625,
      "z": 0.289703369140625,
      "time_usec": 1042841356553
    },
    {
      "x": 0.59136962890625,
      "y": 9.732421875,
      "z": 0.299285888671875,
      "time_usec": 1042841360551
    },
    {
      "x": 0.5746002197265625,
      "y": 9.6773681640625,
      "z": 0.246612548828125,
      "time_usec": 1042841364518
    },
    {
      "x": 0.533905029296875,
      "y": 9.71087646484375,
      "z": 0.3016815185546875,
      "time_usec": 1042841368516
    },
    {
      "x": 0.5171356201171875,
      "y": 9.6893310546875,
      "z": 0.2226715087890625,
      "time_usec": 1042841372514
    },
    {
      "x": 0.5051727294921875,
      "y": 9.706085205078125,
      "z": 0.22027587890625,
      "time_usec": 1042841376512
    },
    {
      "x": 0.52911376953125,
      "y": 9.66778564453125,
      "z": 0.215484619140625,
      "time_usec": 1042841380479
    },
    {
      "x": 0.52911376953125,
      "y": 9.718063354492188,
      "z": 0.2178802490234375,
      "time_usec": 1042841384477
    },
    {
      "x": 0.586578369140625,
      "y": 9.660598754882812,
      "z": 0.2418212890625,
      "time_usec": 1042841388444
    },
    {
      "x": 0.5386962890625,
      "y": 9.648635864257812,
      "z": 0.27294921875,
      "time_usec": 1042841392442
    },
    {
      "x": 0.567413330078125,
      "y": 9.694122314453125,
      "z": 0.3088531494140625,
      "time_usec": 1042841396440
    },
    {
      "x": 0.51953125,
      "y": 9.684539794921875,
      "z": 0.27294921875,
      "time_usec": 1042841400437
    },
    {
      "x": 0.5363006591796875,
      "y": 9.69891357421875,
      "z": 0.2609710693359375,
      "time_usec": 1042841404405
    },
    {
      "x": 0.524322509765625,
      "y": 9.672576904296875,
      "z": 0.330413818359375,
      "time_usec": 1042841408403
    },
    {
      "x": 0.4884185791015625,
      "y": 9.66778564453125,
      "z": 0.3495635986328125,
      "time_usec": 1042841412400
    },
    {
      "x": 0.48602294921875,
      "y": 9.674972534179688,
      "z": 0.3399810791015625,
      "time_usec": 1042841416368
    },
    {
      "x": 0.5219268798828125,
      "y": 9.703689575195312,
      "z": 0.351959228515625,
      "time_usec": 1042841420365
    },
    {
      "x": 0.524322509765625,
      "y": 9.703689575195312,
      "z": 0.3184356689453125,
      "time_usec": 1042841424363
    },
    {
      "x": 0.512359619140625,
      "y": 9.686935424804688,
      "z": 0.351959228515625,
      "time_usec": 1042841428331
    },
    {
      "x": 0.502777099609375,
      "y": 9.701309204101562,
      "z": 0.351959228515625,
      "time_usec": 1042841432328
    },
    {
      "x": 0.52911376953125,
      "y": 9.674972534179688,
      "z": 0.3495635986328125,
      "time_usec": 1042841436326
    },
    {
      "x": 0.4955902099609375,
      "y": 9.684539794921875,
      "z": 0.3447723388671875,
      "time_usec": 1042841440324
    },
    {
      "x": 0.4836273193359375,
      "y": 9.694122314453125,
      "z": 0.32562255859375,
      "time_usec": 1042841444291
    },
    {
      "x": 0.524322509765625,
      "y": 9.665390014648438,
      "z": 0.2801361083984375,
      "time_usec": 1042841448289
    },
    {
      "x": 0.5386962890625,
      "y": 9.718063354492188,
      "z": 0.28253173828125,
      "time_usec": 1042841452287
    },
    {
      "x": 0.4836273193359375,
      "y": 9.662994384765625,
      "z": 0.26336669921875,
      "time_usec": 1042841456254
    },
    {
      "x": 0.4836273193359375,
      "y": 9.672576904296875,
      "z": 0.162811279296875,
      "time_usec": 1042841460252
    },
    {
      "x": 0.4907989501953125,
      "y": 9.655807495117188,
      "z": 0.1915435791015625,
      "time_usec": 1042841464250
    },
    {
      "x": 0.4884185791015625,
      "y": 9.658203125,
      "z": 0.1676025390625,
      "time_usec": 1042841468248
    },
    {
      "x": 0.5267181396484375,
      "y": 9.631866455078125,
      "z": 0.1795806884765625,
      "time_usec": 1042841472703
    },
    {
      "x": 0.586578369140625,
      "y": 9.600753784179688,
      "z": 0.2178802490234375,
      "time_usec": 1042841480210
    },
    {
      "x": 0.617706298828125,
      "y": 9.60552978515625,
      "z": 0.22027587890625,
      "time_usec": 1042841484178
    },
    {
      "x": 0.576995849609375,
      "y": 9.5528564453125,
      "z": 0.2394256591796875,
      "time_usec": 1042841488176
    },
    {
      "x": 0.6057281494140625,
      "y": 9.603134155273438,
      "z": 0.26336669921875,
      "time_usec": 1042841492173
    },
    {
      "x": 0.59136962890625,
      "y": 9.60552978515625,
      "z": 0.246612548828125,
      "time_usec": 1042841496171
    },
    {
      "x": 0.5793914794921875,
      "y": 9.658203125,
      "z": 0.237030029296875,
      "time_usec": 1042841500138
    },
    {
      "x": 0.5841827392578125,
      "y": 9.646240234375,
      "z": 0.18914794921875,
      "time_usec": 1042841504136
    },
    {
      "x": 0.5793914794921875,
      "y": 9.595962524414062,
      "z": 0.225067138671875,
      "time_usec": 1042841508134
    },
    {
      "x": 0.5530548095703125,
      "y": 9.607925415039062,
      "z": 0.26336669921875,
      "time_usec": 1042841512101
    },
    {
      "x": 0.59375,
      "y": 9.6270751953125,
      "z": 0.2609710693359375,
      "time_usec": 1042841516099
    },
    {
      "x": 0.576995849609375,
      "y": 9.595962524414062,
      "z": 0.22027587890625,
      "time_usec": 1042841520097
    },
    {
      "x": 0.5482635498046875,
      "y": 9.66778564453125,
      "z": 0.2130889892578125,
      "time_usec": 1042841524064
    },
    {
      "x": 0.5434722900390625,
      "y": 9.725250244140625,
      "z": 0.1699981689453125,
      "time_usec": 1042841528062
    },
    {
      "x": 0.5434722900390625,
      "y": 9.691726684570312,
      "z": 0.1915435791015625,
      "time_usec": 1042841532060
    },
    {
      "x": 0.5219268798828125,
      "y": 9.6773681640625,
      "z": 0.1699981689453125,
      "time_usec": 1042841536058
    },
    {
      "x": 0.48602294921875,
      "y": 9.722854614257812,
      "z": 0.184356689453125,
      "time_usec": 1042841540025
    },
    {
      "x": 0.502777099609375,
      "y": 9.69891357421875,
      "z": 0.1532440185546875,
      "time_usec": 1042841544023
    },
    {
      "x": 0.54107666015625,
      "y": 9.6773681640625,
      "z": 0.1388702392578125,
      "time_usec": 1042841548020
    },
    {
      "x": 0.5051727294921875,
      "y": 9.62469482421875,
      "z": 0.1867523193359375,
      "time_usec": 1042841552018
    },
    {
      "x": 0.5099639892578125,
      "y": 9.631866455078125,
      "z": 0.17718505859375,
      "time_usec": 1042841555986
    },
    {
      "x": 0.502777099609375,
      "y": 9.658203125,
      "z": 0.2418212890625,
      "time_usec": 1042841559983
    },
    {
      "x": 0.5386962890625,
      "y": 9.6773681640625,
      "z": 0.3016815185546875,
      "time_usec": 1042841563981
    },
    {
      "x": 0.512359619140625,
      "y": 9.6893310546875,
      "z": 0.289703369140625,
      "time_usec": 1042841567948
    },
    {
      "x": 0.49798583984375,
      "y": 9.720458984375,
      "z": 0.342376708984375,
      "time_usec": 1042841571946
    },
    {
      "x": 0.4644622802734375,
      "y": 9.734817504882812,
      "z": 0.2873077392578125,
      "time_usec": 1042841575944
    },
    {
      "x": 0.471649169921875,
      "y": 9.69891357421875,
      "z": 0.277740478515625,
      "time_usec": 1042841579942
    },
    {
      "x": 0.48602294921875,
      "y": 9.706085205078125,
      "z": 0.2537994384765625,
      "time_usec": 1042841583909
    },
    {
      "x": 0.4788360595703125,
      "y": 9.706085205078125,
      "z": 0.2130889892578125,
      "time_usec": 1042841587907
    },
    {
      "x": 0.4764404296875,
      "y": 9.69891357421875,
      "z": 0.15802001953125,
      "time_usec": 1042841591905
    },
    {
      "x": 0.512359619140625,
      "y": 9.662994384765625,
      "z": 0.172393798828125,
      "time_usec": 1042841595872
    },
    {
      "x": 0.51953125,
      "y": 9.665390014648438,
      "z": 0.1652069091796875,
      "time_usec": 1042841599870
    },
    {
      "x": 0.5626373291015625,
      "y": 9.658203125,
      "z": 0.1652069091796875,
      "time_usec": 1042841603868
    },
    {
      "x": 0.57220458984375,
      "y": 9.655807495117188,
      "z": 0.2226715087890625,
      "time_usec": 1042841607865
    },
    {
      "x": 0.5386962890625,
      "y": 9.674972534179688,
      "z": 0.18914794921875,
      "time_usec": 1042841611833
    },
    {
      "x": 0.6009368896484375,
      "y": 9.703689575195312,
      "z": 0.2178802490234375,
      "time_usec": 1042841615831
    },
    {
      "x": 0.5434722900390625,
      "y": 9.6893310546875,
      "z": 0.2537994384765625,
      "time_usec": 1042841619841
    },
    {
      "x": 0.5506591796875,
      "y": 9.725250244140625,
      "z": 0.2873077392578125,
      "time_usec": 1042841623808
    },
    {
      "x": 0.5698089599609375,
      "y": 9.713272094726562,
      "z": 0.277740478515625,
      "time_usec": 1042841627806
    },
    {
      "x": 0.5530548095703125,
      "y": 9.701309204101562,
      "z": 0.2753448486328125,
      "time_usec": 1042841631803
    },
    {
      "x": 0.5530548095703125,
      "y": 9.713272094726562,
      "z": 0.2705535888671875,
      "time_usec": 1042841635801
    },
    {
      "x": 0.5746002197265625,
      "y": 9.672576904296875,
      "z": 0.27294921875,
      "time_usec": 1042841639799
    },
    {
      "x": 0.48602294921875,
      "y": 9.655807495117188,
      "z": 0.1915435791015625,
      "time_usec": 1042841643766
    },
    {
      "x": 0.512359619140625,
      "y": 9.691726684570312,
      "z": 0.2226715087890625,
      "time_usec": 1042841647764
    },
    {
      "x": 0.524322509765625,
      "y": 9.672576904296875,
      "z": 0.1604156494140625,
      "time_usec": 1042841651762
    },
    {
      "x": 0.545867919921875,
      "y": 9.684539794921875,
      "z": 0.1388702392578125,
      "time_usec": 1042841655729
    },
    {
      "x": 0.5793914794921875,
      "y": 9.67974853515625,
      "z": 0.17718505859375,
      "time_usec": 1042841659727
    },
    {
      "x": 0.545867919921875,
      "y": 9.67974853515625,
      "z": 0.162811279296875,
      "time_usec": 1042841663725
    },
    {
      "x": 0.49798583984375,
      "y": 9.718063354492188,
      "z": 0.1556243896484375,
      "time_usec": 1042841667723
    },
    {
      "x": 0.5051727294921875,
      "y": 9.696517944335938,
      "z": 0.1747894287109375,
      "time_usec": 1042841671690
    },
    {
      "x": 0.5219268798828125,
      "y": 9.775527954101562,
      "z": 0.2011260986328125,
      "time_usec": 1042841675688
    },
    {
      "x": 0.5003814697265625,
      "y": 9.727645874023438,
      "z": 0.1915435791015625,
      "time_usec": 1042841679685
    },
    {
      "x": 0.5386962890625,
      "y": 9.67974853515625,
      "z": 0.193939208984375,
      "time_usec": 1042841683653
    },
    {
      "x": 0.5099639892578125,
      "y": 9.746795654296875,
      "z": 0.203521728515625,
      "time_usec": 1042841687651
    },
    {
      "x": 0.5051727294921875,
      "y": 9.67974853515625,
      "z": 0.1747894287109375,
      "time_usec": 1042841691648
    },
    {
      "x": 0.471649169921875,
      "y": 9.670181274414062,
      "z": 0.150848388671875,
      "time_usec": 1042841695646
    },
    {
      "x": 0.48602294921875,
      "y": 9.701309204101562,
      "z": 0.141265869140625,
      "time_usec": 1042841699613
    },
    {
      "x": 0.5003814697265625,
      "y": 9.737213134765625,
      "z": 0.1484527587890625,
      "time_usec": 1042841703611
    },
    {
      "x": 0.5051727294921875,
      "y": 9.746795654296875,
      "z": 0.162811279296875,
      "time_usec": 1042841707609
    },
    {
      "x": 0.46685791015625,
      "y": 9.744400024414062,
      "z": 0.1747894287109375,
      "time_usec": 1042841711607
    },
    {
      "x": 0.45489501953125,
      "y": 9.74200439453125,
      "z": 0.17718505859375,
      "time_usec": 1042841715574
    },
    {
      "x": 0.46685791015625,
      "y": 9.706085205078125,
      "z": 0.2394256591796875,
      "time_usec": 1042841719572
    },
    {
      "x": 0.440521240234375,
      "y": 9.67974853515625,
      "z": 0.2082977294921875,
      "time_usec": 1042841723570
    },
    {
      "x": 0.4309539794921875,
      "y": 9.66778564453125,
      "z": 0.205902099609375,
      "time_usec": 1042841727537
    },
    {
      "x": 0.49798583984375,
      "y": 9.674972534179688,
      "z": 0.067047119140625,
      "time_usec": 1042841731535
    },
    {
      "x": 0.493194580078125,
      "y": 9.696517944335938,
      "z": 0.0694427490234375,
      "time_usec": 1042841735533
    },
    {
      "x": 0.5363006591796875,
      "y": 9.684539794921875,
      "z": 0.1221160888671875,
      "time_usec": 1042841739530
    },
    {
      "x": 0.5003814697265625,
      "y": 9.734817504882812,
      "z": 0.088592529296875,
      "time_usec": 1042841743498
    },
    {
      "x": 0.48602294921875,
      "y": 9.672576904296875,
      "z": 0.1005706787109375,
      "time_usec": 1042841747496
    },
    {
      "x": 0.5386962890625,
      "y": 9.749191284179688,
      "z": 0.0909881591796875,
      "time_usec": 1042841751493
    },
    {
      "x": 0.5051727294921875,
      "y": 9.787490844726562,
      "z": 0.10296630859375,
      "time_usec": 1042841755491
    },
    {
      "x": 0.5171356201171875,
      "y": 9.720458984375,
      "z": 0.1292877197265625,
      "time_usec": 1042841759458
    },
    {
      "x": 0.57220458984375,
      "y": 9.737213134765625,
      "z": 0.150848388671875,
      "time_usec": 1042841763456
    },
    {
      "x": 0.481231689453125,
      "y": 9.703689575195312,
      "z": 0.1340789794921875,
      "time_usec": 1042841767454
    },
    {
      "x": 0.502777099609375,
      "y": 9.744400024414062,
      "z": 0.131683349609375,
      "time_usec": 1042841771421
    },
    {
      "x": 0.481231689453125,
      "y": 9.727645874023438,
      "z": 0.0933837890625,
      "time_usec": 1042841775419
    },
    {
      "x": 0.5386962890625,
      "y": 9.708480834960938,
      "z": 0.0933837890625,
      "time_usec": 1042841779417
    },
    {
      "x": 0.5434722900390625,
      "y": 9.753982543945312,
      "z": 0.0814056396484375,
      "time_usec": 1042841783415
    },
    {
      "x": 0.545867919921875,
      "y": 9.758758544921875,
      "z": 0.0550689697265625,
      "time_usec": 1042841787382
    },
    {
      "x": 0.5506591796875,
      "y": 9.701309204101562,
      "z": 0.0933837890625,
      "time_usec": 1042841791380
    },
    {
      "x": 0.5315093994140625,
      "y": 9.718063354492188,
      "z": 0.0646514892578125,
      "time_usec": 1042841795378
    },
    {
      "x": 0.5219268798828125,
      "y": 9.708480834960938,
      "z": 0.08380126953125,
      "time_usec": 1042841799375
    },
    {
      "x": 0.481231689453125,
      "y": 9.686935424804688,
      "z": 0.098175048828125,
      "time_usec": 1042841803343
    },
    {
      "x": 0.533905029296875,
      "y": 9.753982543945312,
      "z": 0.1053466796875,
      "time_usec": 1042841807341
    },
    {
      "x": 0.57220458984375,
      "y": 9.734817504882812,
      "z": 0.136474609375,
      "time_usec": 1042841811338
    },
    {
      "x": 0.5793914794921875,
      "y": 9.734817504882812,
      "z": 0.10296630859375,
      "time_usec": 1042841815306
    },
    {
      "x": 0.576995849609375,
      "y": 9.718063354492188,
      "z": 0.0431060791015625,
      "time_usec": 1042841819303
    },
    {
      "x": 0.5626373291015625,
      "y": 9.734817504882812,
      "z": 0.045501708984375,
      "time_usec": 1042841823301
    },
    {
      "x": 0.581787109375,
      "y": 9.722854614257812,
      "z": 0.0287322998046875,
      "time_usec": 1042841827299
    },
    {
      "x": 0.59136962890625,
      "y": 9.749191284179688,
      "z": 0.079010009765625,
      "time_usec": 1042841831266
    },
    {
      "x": 0.5530548095703125,
      "y": 9.765945434570312,
      "z": 0.0335235595703125,
      "time_usec": 1042841835264
    },
    {
      "x": 0.6129150390625,
      "y": 9.730026245117188,
      "z": 0.00958251953125,
      "time_usec": 1042841839262
    },
    {
      "x": 0.6224822998046875,
      "y": 9.7635498046875,
      "z": 0.0263519287109375,
      "time_usec": 1042841843229
    },
    {
      "x": 0.6488189697265625,
      "y": 9.694122314453125,
      "z": -0.007171630859375,
      "time_usec": 1042841847227
    },
    {
      "x": 0.66558837890625,
      "y": 9.74200439453125,
      "z": -0.0143585205078125,
      "time_usec": 1042841851225
    },
    {
      "x": 0.6320648193359375,
      "y": 9.727645874023438,
      "z": 0.0383148193359375,
      "time_usec": 1042841855223
    },
    {
      "x": 0.6488189697265625,
      "y": 9.746795654296875,
      "z": 0.0071868896484375,
      "time_usec": 1042841859190
    },
    {
      "x": 0.629669189453125,
      "y": 9.775527954101562,
      "z": 0.079010009765625,
      "time_usec": 1042841863188
    },
    {
      "x": 0.660797119140625,
      "y": 9.787490844726562,
      "z": 0.062255859375,
      "time_usec": 1042841867185
    },
    {
      "x": 0.682342529296875,
      "y": 9.746795654296875,
      "z": 0.0957794189453125,
      "time_usec": 1042841871153
    },
    {
      "x": 0.617706298828125,
      "y": 9.682144165039062,
      "z": 0.0933837890625,
      "time_usec": 1042841875517
    },
    {
      "x": 0.59136962890625,
      "y": 9.715667724609375,
      "z": 0.08380126953125,
      "time_usec": 1042841883116
    },
    {
      "x": 0.57220458984375,
      "y": 9.780303955078125,
      "z": 0.0287322998046875,
      "time_usec": 1042841887113
    },
    {
      "x": 0.576995849609375,
      "y": 9.682144165039062,
      "z": -0.00238037109375,
      "time_usec": 1042841891111
    },
    {
      "x": 0.586578369140625,
      "y": 9.734817504882812,
      "z": 0.035919189453125,
      "time_usec": 1042841895109
    },
    {
      "x": 0.576995849609375,
      "y": 9.6893310546875,
      "z": 0.0694427490234375,
      "time_usec": 1042841899076
    },
    {
      "x": 0.598541259765625,
      "y": 9.651031494140625,
      "z": 0.0933837890625,
      "time_usec": 1042841903074
    },
    {
      "x": 0.6009368896484375,
      "y": 9.651031494140625,
      "z": 0.0933837890625,
      "time_usec": 1042841907072
    },
    {
      "x": 0.59136962890625,
      "y": 9.631866455078125,
      "z": 0.110137939453125,
      "time_usec": 1042841911039
    },
    {
      "x": 0.6153106689453125,
      "y": 9.641448974609375,
      "z": 0.0598602294921875,
      "time_usec": 1042841915037
    },
    {
      "x": 0.6703643798828125,
      "y": 9.622299194335938,
      "z": 0.05267333984375,
      "time_usec": 1042841919035
    },
    {
      "x": 0.6703643798828125,
      "y": 9.631866455078125,
      "z": 0.0957794189453125,
      "time_usec": 1042841923033
    },
    {
      "x": 0.6895294189453125,
      "y": 9.6151123046875,
      "z": 0.0550689697265625,
      "time_usec": 1042841927000
    },
    {
      "x": 0.6967010498046875,
      "y": 9.6151123046875,
      "z": -0.0047760009765625,
      "time_usec": 1042841930998
    },
    {
      "x": 0.713470458984375,
      "y": 9.576797485351562,
      "z": -0.0359039306640625,
      "time_usec": 1042841934996
    },
    {
      "x": 0.691925048828125,
      "y": 9.538497924804688,
      "z": -0.0550537109375,
      "time_usec": 1042841938963
    },
    {
      "x": 0.6751556396484375,
      "y": 9.53131103515625,
      "z": -0.0670318603515625,
      "time_usec": 1042841942961
    },
    {
      "x": 0.6751556396484375,
      "y": 9.576797485351562,
      "z": -0.0670318603515625,
      "time_usec": 1042841946958
    },
    {
      "x": 0.7158660888671875,
      "y": 9.512161254882812,
      "z": -0.0263214111328125,
      "time_usec": 1042841950956
    },
    {
      "x": 0.7110748291015625,
      "y": 9.528915405273438,
      "z": -0.0095672607421875,
      "time_usec": 1042841954924
    },
    {
      "x": 0.73980712890625,
      "y": 9.545684814453125,
      "z": 0.0071868896484375,
      "time_usec": 1042841958921
    },
    {
      "x": 0.766143798828125,
      "y": 9.53131103515625,
      "z": -0.00238037109375,
      "time_usec": 1042841962919
    },
    {
      "x": 0.7014923095703125,
      "y": 9.449905395507812,
      "z": 0.045501708984375,
      "time_usec": 1042841966886
    },
    {
      "x": 0.730224609375,
      "y": 9.481033325195312,
      "z": 0.057464599609375,
      "time_usec": 1042841970884
    },
    {
      "x": 0.6703643798828125,
      "y": 9.449905395507812,
      "z": 0.0335235595703125,
      "time_usec": 1042841974882
    },
    {
      "x": 0.6990966796875,
      "y": 9.454696655273438,
      "z": 0.0383148193359375,
      "time_usec": 1042841978880
    },
    {
      "x": 0.682342529296875,
      "y": 9.409210205078125,
      "z": 0.0167694091796875,
      "time_usec": 1042841982847
    },
    {
      "x": 0.6536102294921875,
      "y": 9.416397094726562,
      "z": -0.0047760009765625,
      "time_usec": 1042841986845
    },
    {
      "x": 0.5841827392578125,
      "y": 9.409210205078125,
      "z": -0.0837860107421875,
      "time_usec": 1042841990843
    },
    {
      "x": 0.60333251953125,
      "y": 9.440338134765625,
      "z": -0.090972900390625,
      "time_usec": 1042841994810
    },
    {
      "x": 0.56024169921875,
      "y": 9.3924560546875,
      "z": -0.1316680908203125,
      "time_usec": 1042841998808
    },
    {
      "x": 0.576995849609375,
      "y": 9.370895385742188,
      "z": -0.1292724609375,
      "time_usec": 1042842002806
    },
    {
      "x": 0.5626373291015625,
      "y": 9.38287353515625,
      "z": -0.1580047607421875,
      "time_usec": 1042842006803
    },
    {
      "x": 0.5003814697265625,
      "y": 9.370895385742188,
      "z": -0.1173095703125,
      "time_usec": 1042842010771
    },
    {
      "x": 0.4357452392578125,
      "y": 9.41400146484375,
      "z": -0.134063720703125,
      "time_usec": 1042842014768
    },
    {
      "x": 0.366302490234375,
      "y": 9.418792724609375,
      "z": -0.0837860107421875,
      "time_usec": 1042842018766
    },
    {
      "x": 0.3902435302734375,
      "y": 9.418792724609375,
      "z": -0.0789947509765625,
      "time_usec": 1042842022734
    },
    {
      "x": 0.3782806396484375,
      "y": 9.423568725585938,
      "z": -0.1197052001953125,
      "time_usec": 1042842026731
    },
    {
      "x": 0.4022216796875,
      "y": 9.433151245117188,
      "z": -0.1268768310546875,
      "time_usec": 1042842030729
    },
    {
      "x": 0.4357452392578125,
      "y": 9.440338134765625,
      "z": -0.155609130859375,
      "time_usec": 1042842034727
    },
    {
      "x": 0.407012939453125,
      "y": 9.440338134765625,
      "z": -0.1675872802734375,
      "time_usec": 1042842038694
    },
    {
      "x": 0.41180419921875,
      "y": 9.442733764648438,
      "z": -0.143646240234375,
      "time_usec": 1042842042692
    },
    {
      "x": 0.354339599609375,
      "y": 9.48822021484375,
      "z": -0.1843414306640625,
      "time_usec": 1042842046690
    },
    {
      "x": 0.3567352294921875,
      "y": 9.533706665039062,
      "z": -0.2106781005859375,
      "time_usec": 1042842050657
    },
    {
      "x": 0.3471527099609375,
      "y": 9.56243896484375,
      "z": -0.323211669921875,
      "time_usec": 1042842054655
    },
    {
      "x": 0.34954833984375,
      "y": 9.586380004882812,
      "z": -0.292083740234375,
      "time_usec": 1042842058653
    },
    {
      "x": 0.332794189453125,
      "y": 9.579193115234375,
      "z": -0.3399658203125,
      "time_usec": 1042842062651
    },
    {
      "x": 0.344757080078125,
      "y": 9.60552978515625,
      "z": -0.3160247802734375,
      "time_usec": 1042842066618
    },
    {
      "x": 0.3280029296875,
      "y": 9.574417114257812,
      "z": -0.344757080078125,
      "time_usec": 1042842070616
    },
    {
      "x": 0.354339599609375,
      "y": 9.641448974609375,
      "z": -0.2848968505859375,
      "time_usec": 1042842074613
    },
    {
      "x": 0.387847900390625,
      "y": 9.62469482421875,
      "z": -0.248992919921875,
      "time_usec": 1042842078611
    },
    {
      "x": 0.3615264892578125,
      "y": 9.634262084960938,
      "z": -0.2513885498046875,
      "time_usec": 1042842082579
    },
    {
      "x": 0.4213714599609375,
      "y": 9.588775634765625,
      "z": -0.1675872802734375,
      "time_usec": 1042842086576
    },
    {
      "x": 0.3686981201171875,
      "y": 9.694122314453125,
      "z": -0.06463623046875,
      "time_usec": 1042842090544
    },
    {
      "x": 0.3902435302734375,
      "y": 9.665390014648438,
      "z": -0.0263214111328125,
      "time_usec": 1042842094541
    },
    {
      "x": 0.428558349609375,
      "y": 9.706085205078125,
      "z": 0.0335235595703125,
      "time_usec": 1042842098539
    },
    {
      "x": 0.428558349609375,
      "y": 9.682144165039062,
      "z": 0.1221160888671875,
      "time_usec": 1042842102537
    },
    {
      "x": 0.4022216796875,
      "y": 9.674972534179688,
      "z": 0.11492919921875,
      "time_usec": 1042842106535
    },
    {
      "x": 0.4165802001953125,
      "y": 9.708480834960938,
      "z": 0.1915435791015625,
      "time_usec": 1042842110502
    },
    {
      "x": 0.4165802001953125,
      "y": 9.725250244140625,
      "z": 0.2394256591796875,
      "time_usec": 1042842114500
    },
    {
      "x": 0.48602294921875,
      "y": 9.739608764648438,
      "z": 0.2537994384765625,
      "time_usec": 1042842118498
    },
    {
      "x": 0.46685791015625,
      "y": 9.753982543945312,
      "z": 0.35675048828125,
      "time_usec": 1042842122465
    },
    {
      "x": 0.5051727294921875,
      "y": 9.777923583984375,
      "z": 0.3447723388671875,
      "time_usec": 1042842126463
    },
    {
      "x": 0.5051727294921875,
      "y": 9.74200439453125,
      "z": 0.373504638671875,
      "time_usec": 1042842130461
    },
    {
      "x": 0.5386962890625,
      "y": 9.74200439453125,
      "z": 0.3591461181640625,
      "time_usec": 1042842134428
    },
    {
      "x": 0.586578369140625,
      "y": 9.768341064453125,
      "z": 0.3184356689453125,
      "time_usec": 1042842138426
    },
    {
      "x": 0.4692535400390625,
      "y": 9.639053344726562,
      "z": 0.416595458984375,
      "time_usec": 1042842142424
    },
    {
      "x": 0.586578369140625,
      "y": 9.770736694335938,
      "z": 0.39984130859375,
      "time_usec": 1042842146421
    },
    {
      "x": 0.6488189697265625,
      "y": 9.842559814453125,
      "z": 0.2873077392578125,
      "time_usec": 1042842150389
    },
    {
      "x": 0.629669189453125,
      "y": 9.818618774414062,
      "z": 0.256195068359375,
      "time_usec": 1042842154386
    },
    {
      "x": 0.6248779296875,
      "y": 9.80426025390625,
      "z": 0.2394256591796875,
      "time_usec": 1042842158384
    },
    {
      "x": 0.57220458984375,
      "y": 9.77313232421875,
      "z": 0.2657623291015625,
      "time_usec": 1042842162352
    },
    {
      "x": 0.586578369140625,
      "y": 9.77313232421875,
      "z": 0.205902099609375,
      "time_usec": 1042842166349
    },
    {
      "x": 0.5482635498046875,
      "y": 9.706085205078125,
      "z": 0.19873046875,
      "time_usec": 1042842170347
    },
    {
      "x": 0.52911376953125,
      "y": 9.77313232421875,
      "z": 0.08380126953125,
      "time_usec": 1042842174345
    },
    {
      "x": 0.545867919921875,
      "y": 9.761154174804688,
      "z": 0.05267333984375,
      "time_usec": 1042842178312
    },
    {
      "x": 0.5315093994140625,
      "y": 9.78509521484375,
      "z": 0.00958251953125,
      "time_usec": 1042842182310
    },
    {
      "x": 0.5434722900390625,
      "y": 9.770736694335938,
      "z": -0.0454864501953125,
      "time_usec": 1042842186308
    },
    {
      "x": 0.57220458984375,
      "y": 9.770736694335938,
      "z": -0.059844970703125,
      "time_usec": 1042842190275
    },
    {
      "x": 0.5626373291015625,
      "y": 9.725250244140625,
      "z": -0.0670318603515625,
      "time_usec": 1042842194273
    },
    {
      "x": 0.565032958984375,
      "y": 9.727645874023438,
      "z": -0.1316680908203125,
      "time_usec": 1042842198271
    },
    {
      "x": 0.586578369140625,
      "y": 9.74200439453125,
      "z": -0.1987152099609375,
      "time_usec": 1042842202238
    },
    {
      "x": 0.507568359375,
      "y": 9.782699584960938,
      "z": -0.227447509765625,
      "time_usec": 1042842206236
    },
    {
      "x": 0.524322509765625,
      "y": 9.77313232421875,
      "z": -0.2465972900390625,
      "time_usec": 1042842210234
    },
    {
      "x": 0.5386962890625,
      "y": 9.8258056640625,
      "z": -0.2992706298828125,
      "time_usec": 1042842214231
    },
    {
      "x": 0.51953125,
      "y": 9.758758544921875,
      "z": -0.2657470703125,
      "time_usec": 1042842218199
    },
    {
      "x": 0.5267181396484375,
      "y": 9.7515869140625,
      "z": -0.3064422607421875,
      "time_usec": 1042842222196
    },
    {
      "x": 0.4955902099609375,
      "y": 9.80426025390625,
      "z": -0.292083740234375,
      "time_usec": 1042842226194
    },
    {
      "x": 0.4907989501953125,
      "y": 9.818618774414062,
      "z": -0.296875,
      "time_usec": 1042842230162
    },
    {
      "x": 0.471649169921875,
      "y": 9.832977294921875,
      "z": -0.2537841796875,
      "time_usec": 1042842234159
    },
    {
      "x": 0.45489501953125,
      "y": 9.840164184570312,
      "z": -0.292083740234375,
      "time_usec": 1042842238157
    },
    {
      "x": 0.459686279296875,
      "y": 9.8377685546875,
      "z": -0.27532958984375,
      "time_usec": 1042842242155
    },
    {
      "x": 0.45489501953125,
      "y": 9.828201293945312,
      "z": -0.2657470703125,
      "time_usec": 1042842246122
    },
    {
      "x": 0.4955902099609375,
      "y": 9.902420043945312,
      "z": -0.270538330078125,
      "time_usec": 1042842250120
    },
    {
      "x": 0.4836273193359375,
      "y": 9.818618774414062,
      "z": -0.2944793701171875,
      "time_usec": 1042842254118
    },
    {
      "x": 0.440521240234375,
      "y": 9.85931396484375,
      "z": -0.2681427001953125,
      "time_usec": 1042842258085
    },
    {
      "x": 0.42376708984375,
      "y": 9.919174194335938,
      "z": -0.292083740234375,
      "time_usec": 1042842262083
    },
    {
      "x": 0.4620819091796875,
      "y": 9.885650634765625,
      "z": -0.2848968505859375,
      "time_usec": 1042842266081
    },
    {
      "x": 0.438140869140625,
      "y": 9.871292114257812,
      "z": -0.323211669921875,
      "time_usec": 1042842270048
    },
    {
      "x": 0.4213714599609375,
      "y": 9.868896484375,
      "z": -0.3208160400390625,
      "time_usec": 1042842274046
    },
    {
      "x": 0.433349609375,
      "y": 9.871292114257812,
      "z": -0.34954833984375,
      "time_usec": 1042842278349
    },
    {
      "x": 0.4884185791015625,
      "y": 9.885650634765625,
      "z": -0.2896881103515625,
      "time_usec": 1042842286009
    },
    {
      "x": 0.471649169921875,
      "y": 9.852142333984375,
      "z": -0.2896881103515625,
      "time_usec": 1042842290007
    },
    {
      "x": 0.4620819091796875,
      "y": 9.85931396484375,
      "z": -0.2322235107421875,
      "time_usec": 1042842294004
    },
    {
      "x": 0.4644622802734375,
      "y": 9.854537963867188,
      "z": -0.21307373046875,
      "time_usec": 1042842297972
    },
    {
      "x": 0.481231689453125,
      "y": 9.794677734375,
      "z": -0.174774169921875,
      "time_usec": 1042842301969
    },
    {
      "x": 0.48602294921875,
      "y": 9.821014404296875,
      "z": -0.1580047607421875,
      "time_usec": 1042842305967
    },
    {
      "x": 0.567413330078125,
      "y": 9.84735107421875,
      "z": -0.0550537109375,
      "time_usec": 1042842309935
    },
    {
      "x": 0.4572906494140625,
      "y": 9.792282104492188,
      "z": -0.0718231201171875,
      "time_usec": 1042842313932
    },
    {
      "x": 0.565032958984375,
      "y": 9.840164184570312,
      "z": -0.1316680908203125,
      "time_usec": 1042842317930
    },
    {
      "x": 0.598541259765625,
      "y": 9.777923583984375,
      "z": -0.050262451171875,
      "time_usec": 1042842321897
    },
    {
      "x": 0.533905029296875,
      "y": 9.739608764648438,
      "z": 0.014373779296875,
      "time_usec": 1042842325895
    },
    {
      "x": 0.533905029296875,
      "y": 9.691726684570312,
      "z": 0.0119781494140625,
      "time_usec": 1042842329893
    },
    {
      "x": 0.5841827392578125,
      "y": 9.71087646484375,
      "z": 0.0071868896484375,
      "time_usec": 1042842333891
    },
    {
      "x": 0.6105194091796875,
      "y": 9.6773681640625,
      "z": -0.112518310546875,
      "time_usec": 1042842337858
    },
    {
      "x": 0.5530548095703125,
      "y": 9.703689575195312,
      "z": -0.100555419921875,
      "time_usec": 1042842341856
    },
    {
      "x": 0.5363006591796875,
      "y": 9.665390014648438,
      "z": -0.0933685302734375,
      "time_usec": 1042842345854
    },
    {
      "x": 0.5267181396484375,
      "y": 9.682144165039062,
      "z": -0.134063720703125,
      "time_usec": 1042842349821
    },
    {
      "x": 0.524322509765625,
      "y": 9.643844604492188,
      "z": -0.1484375,
      "time_usec": 1042842353819
    },
    {
      "x": 0.533905029296875,
      "y": 9.581588745117188,
      "z": -0.2154693603515625,
      "time_usec": 1042842357817
    },
    {
      "x": 0.5219268798828125,
      "y": 9.5528564453125,
      "z": -0.234619140625,
      "time_usec": 1042842361814
    },
    {
      "x": 0.5003814697265625,
      "y": 9.504974365234375,
      "z": -0.2537841796875,
      "time_usec": 1042842365782
    },
    {
      "x": 0.4524993896484375,
      "y": 9.53131103515625,
      "z": -0.27532958984375,
      "time_usec": 1042842369779
    },
    {
      "x": 0.4453125,
      "y": 9.4786376953125,
      "z": -0.3686981201171875,
      "time_usec": 1042842373777
    },
    {
      "x": 0.433349609375,
      "y": 9.430755615234375,
      "z": -0.4022216796875,
      "time_usec": 1042842377745
    },
    {
      "x": 0.4022216796875,
      "y": 9.421188354492188,
      "z": -0.5123443603515625,
      "time_usec": 1042842381742
    },
    {
      "x": 0.3902435302734375,
      "y": 9.454696655273438,
      "z": -0.493194580078125,
      "time_usec": 1042842385740
    },
    {
      "x": 0.3950347900390625,
      "y": 9.452301025390625,
      "z": -0.5841827392578125,
      "time_usec": 1042842389707
    },
    {
      "x": 0.385467529296875,
      "y": 9.373291015625,
      "z": -0.54107666015625,
      "time_usec": 1042842393705
    },
    {
      "x": 0.387847900390625,
      "y": 9.366119384765625,
      "z": -0.5626220703125,
      "time_usec": 1042842397703
    },
    {
      "x": 0.2777252197265625,
      "y": 9.346954345703125,
      "z": -0.5482635498046875,
      "time_usec": 1042842401670
    },
    {
      "x": 0.2729339599609375,
      "y": 9.38287353515625,
      "z": -0.581787109375,
      "time_usec": 1042842405668
    },
    {
      "x": 0.234619140625,
      "y": 9.402023315429688,
      "z": -0.608123779296875,
      "time_usec": 1042842409666
    },
    {
      "x": 0.2202606201171875,
      "y": 9.378082275390625,
      "z": -0.608123779296875,
      "time_usec": 1042842413664
    },
    {
      "x": 0.239410400390625,
      "y": 9.442733764648438,
      "z": -0.6176910400390625,
      "time_usec": 1042842417662
    },
    {
      "x": 0.2035064697265625,
      "y": 9.449905395507812,
      "z": -0.6272735595703125,
      "time_usec": 1042842421629
    },
    {
      "x": 0.21307373046875,
      "y": 9.375686645507812,
      "z": -0.629669189453125,
      "time_usec": 1042842425627
    },
    {
      "x": 0.20111083984375,
      "y": 9.3302001953125,
      "z": -0.6128997802734375,
      "time_usec": 1042842429594
    },
    {
      "x": 0.1723785400390625,
      "y": 9.390060424804688,
      "z": -0.588958740234375,
      "time_usec": 1042842433592
    },
    {
      "x": 0.1675872802734375,
      "y": 9.363723754882812,
      "z": -0.555450439453125,
      "time_usec": 1042842437590
    },
    {
      "x": 0.1364593505859375,
      "y": 9.370895385742188,
      "z": -0.5267181396484375,
      "time_usec": 1042842441557
    },
    {
      "x": 0.1101226806640625,
      "y": 9.358932495117188,
      "z": -0.502777099609375,
      "time_usec": 1042842445555
    },
    {
      "x": 0.06463623046875,
      "y": 9.311050415039062,
      "z": -0.46685791015625,
      "time_usec": 1042842449552
    },
    {
      "x": 0.0359039306640625,
      "y": 9.267959594726562,
      "z": -0.428558349609375,
      "time_usec": 1042842453520
    },
    {
      "x": 0.0047760009765625,
      "y": 9.289505004882812,
      "z": -0.4477081298828125,
      "time_usec": 1042842457518
    },
    {
      "x": 0.0622406005859375,
      "y": 9.27752685546875,
      "z": -0.4165802001953125,
      "time_usec": 1042842461515
    },
    {
      "x": 0.0622406005859375,
      "y": 9.275131225585938,
      "z": -0.433349609375,
      "time_usec": 1042842465513
    },
    {
      "x": 0.079010009765625,
      "y": 9.253585815429688,
      "z": -0.4381256103515625,
      "time_usec": 1042842469480
    },
    {
      "x": 0.011962890625,
      "y": 9.26556396484375,
      "z": -0.43572998046875,
      "time_usec": 1042842473478
    },
    {
      "x": 0.0885772705078125,
      "y": 9.236831665039062,
      "z": -0.4141845703125,
      "time_usec": 1042842477476
    },
    {
      "x": 0.069427490234375,
      "y": 9.212890625,
      "z": -0.4117889404296875,
      "time_usec": 1042842481443
    },
    {
      "x": 0.0718231201171875,
      "y": 9.24639892578125,
      "z": -0.4165802001953125,
      "time_usec": 1042842485441
    },
    {
      "x": 0.1053466796875,
      "y": 9.200912475585938,
      "z": -0.3902435302734375,
      "time_usec": 1042842489439
    },
    {
      "x": 0.09576416015625,
      "y": 9.239227294921875,
      "z": -0.39263916015625,
      "time_usec": 1042842493406
    },
    {
      "x": 0.09576416015625,
      "y": 9.2559814453125,
      "z": -0.4596710205078125,
      "time_usec": 1042842497404
    },
    {
      "x": 0.047882080078125,
      "y": 9.263168334960938,
      "z": -0.471649169921875,
      "time_usec": 1042842501402
    },
    {
      "x": 0.06463623046875,
      "y": 9.313446044921875,
      "z": -0.43572998046875,
      "time_usec": 1042842505369
    },
    {
      "x": 0.0454864501953125,
      "y": 9.299072265625,
      "z": -0.440521240234375,
      "time_usec": 1042842509367
    },
    {
      "x": 0.03350830078125,
      "y": 9.33978271484375,
      "z": -0.450103759765625,
      "time_usec": 1042842513365
    },
    {
      "x": 0.0311126708984375,
      "y": 9.337387084960938,
      "z": -0.45489501953125,
      "time_usec": 1042842517332
    },
    {
      "x": 0.0502777099609375,
      "y": 9.418792724609375,
      "z": -0.450103759765625,
      "time_usec": 1042842521330
    },
    {
      "x": 0.0550537109375,
      "y": 9.411605834960938,
      "z": -0.42376708984375,
      "time_usec": 1042842525328
    },
    {
      "x": 0.1029510498046875,
      "y": 9.409210205078125,
      "z": -0.3854522705078125,
      "time_usec": 1042842529295
    },
    {
      "x": 0.13885498046875,
      "y": 9.409210205078125,
      "z": -0.3854522705078125,
      "time_usec": 1042842533293
    },
    {
      "x": 0.1244964599609375,
      "y": 9.454696655273438,
      "z": -0.42376708984375,
      "time_usec": 1042842537290
    },
    {
      "x": 0.2035064697265625,
      "y": 9.495407104492188,
      "z": -0.4261627197265625,
      "time_usec": 1042842541288
    },
    {
      "x": 0.227447509765625,
      "y": 9.51934814453125,
      "z": -0.4309539794921875,
      "time_usec": 1042842545256
    },
    {
      "x": 0.24420166015625,
      "y": 9.516952514648438,
      "z": -0.4596710205078125,
      "time_usec": 1042842549253
    },
    {
      "x": 0.28729248046875,
      "y": 9.507369995117188,
      "z": -0.4596710205078125,
      "time_usec": 1042842553251
    },
    {
      "x": 0.23223876953125,
      "y": 9.514556884765625,
      "z": -0.4764404296875,
      "time_usec": 1042842557218
    },
    {
      "x": 0.2561798095703125,
      "y": 9.545684814453125,
      "z": -0.5051727294921875,
      "time_usec": 1042842561216
    },
    {
      "x": 0.24420166015625,
      "y": 9.51934814453125,
      "z": -0.545867919921875,
      "time_usec": 1042842565214
    },
    {
      "x": 0.21307373046875,
      "y": 9.588775634765625,
      "z": -0.586578369140625,
      "time_usec": 1042842569181
    },
    {
      "x": 0.196319580078125,
      "y": 9.619903564453125,
