{
  "frames": [
    {
      "frame_id": 0,
      "sensor_timestamp": 1042841444975022,
      "time_usec": 1838470511801
    },
    {
      "frame_id": 1,
      "sensor_timestamp": 1042841478312022,
      "time_usec": 1838470545138
    },
    {
      "frame_id": 2,
      "sensor_timestamp": 1042841511649022,
      "time_usec": 1838470578475
    },
    {
      "frame_id": 3,
      "sensor_timestamp": 1042841544986022,
      "time_usec": 1838470611812
    },
    {
      "frame_id": 4,
      "sensor_timestamp": 1042841578320022,
      "time_usec": 1838470645146
    },
    {
      "frame_id": 5,
      "sensor_timestamp": 1042841611660022,
      "time_usec": 1838470678486
    },
    {
      "frame_id": 6,
      "sensor_timestamp": 1042841644993022,
      "time_usec": 1838470711819
    },
    {
      "frame_id": 7,
      "sensor_timestamp": 1042841678329022,
      "time_usec": 1838470745155
    },
    {
      "frame_id": 8,
      "sensor_timestamp": 1042841711666022,
      "time_usec": 1838470778492
    },
    {
      "frame_id": 9,
      "sensor_timestamp": 1042841745001022,
      "time_usec": 1838470811827
    },
    {
      "frame_id": 10,
      "sensor_timestamp": 1042841778339022,
      "time_usec": 1838470845165
    },
    {
      "frame_id": 11,
      "sensor_timestamp": 1042841811679022,
      "time_usec": 1838470878505
    },
    {
      "frame_id": 12,
      "sensor_timestamp": 1042841845173022,
      "time_usec": 1838470911999
    },
    {
      "frame_id": 13,
      "sensor_timestamp": 1042841878468022,
      "time_usec": 1838470945294
    },
    {
      "frame_id": 14,
      "sensor_timestamp": 1042841911685022,
      "time_usec": 1838470978511
    },
    {
      "frame_id": 15,
      "sensor_timestamp": 1042841945018022,
      "time_usec": 1838471011844
    },
    {
      "frame_id": 16,
      "sensor_timestamp": 1042841978362022,
      "time_usec": 1838471045188
    },
    {
      "frame_id": 17,
      "sensor_timestamp": 1042842011688022,
      "time_usec": 1838471078514
    },
    {
      "frame_id": 18,
      "sensor_timestamp": 1042842045030022,
      "time_usec": 1838471111856
    },
    {
      "frame_id": 19,
      "sensor_timestamp": 1042842078483022,
      "time_usec": 1838471145309
    },
    {
      "frame_id": 20,
      "sensor_timestamp": 1042842111815022,
      "time_usec": 1838471178641
    },
    {
      "frame_id": 21,
      "sensor_timestamp": 1042842145041022,
      "time_usec": 1838471211867
    },
    {
      "frame_id": 22,
      "sensor_timestamp": 1042842178543022,
      "time_usec": 1838471245369
    },
    {
      "frame_id": 23,
      "sensor_timestamp": 1042842212101022,
      "time_usec": 1838471278927
    },
    {
      "frame_id": 24,
      "sensor_timestamp": 1042842245049022,
      "time_usec": 1838471311875
    },
    {
      "frame_id": 25,
      "sensor_timestamp": 1042842278515022,
      "time_usec": 1838471345341
    },
    {
      "frame_id": 26,
      "sensor_timestamp": 1042842311892022,
      "time_usec": 1838471378718
    },
    {
      "frame_id": 27,
      "sensor_timestamp": 1042842345186022,
      "time_usec": 1838471412012
    },
    {
      "frame_id": 28,
      "sensor_timestamp": 1042842378499022,
      "time_usec": 1838471445325
    },
    {
      "frame_id": 29,
      "sensor_timestamp": 1042842411846022,
      "time_usec": 1838471478672
    },
    {
      "frame_id": 30,
      "sensor_timestamp": 1042842445211022,
      "time_usec": 1838471512037
    },
    {
      "frame_id": 31,
      "sensor_timestamp": 1042842478396022,
      "time_usec": 1838471545222
    },
    {
      "frame_id": 32,
      "sensor_timestamp": 1042842511945022,
      "time_usec": 1838471578771
    },
    {
      "frame_id": 33,
      "sensor_timestamp": 1042842545445022,
      "time_usec": 1838471612271
    },
    {
      "frame_id": 34,
      "sensor_timestamp": 1042842578407022,
      "time_usec": 1838471645233
    },
    {
      "frame_id": 35,
      "sensor_timestamp": 1042842611743022,
      "time_usec": 1838471678569
    },
    {
      "frame_id": 36,
      "sensor_timestamp": 1042842645117022,
      "time_usec": 1838471711943
    },
    {
      "frame_id": 37,
      "sensor_timestamp": 1042842678587022,
      "time_usec": 1838471745413
    },
    {
      "frame_id": 38,
      "sensor_timestamp": 1042842711894022,
      "time_usec": 1838471778720
    },
    {
      "frame_id": 39,
      "sensor_timestamp": 1042842745093022,
      "time_usec": 1838471811919
    },
    {
      "frame_id": 40,
      "sensor_timestamp": 1042842778431022,
      "time_usec": 1838471845257
    },
    {
      "frame_id": 41,
      "sensor_timestamp": 1042842811763022,
      "time_usec": 1838471878589
    },
    {
      "frame_id": 42,
      "sensor_timestamp": 1042842845267022,
      "time_usec": 1838471912093
    },
    {
      "frame_id": 43,
      "sensor_timestamp": 1042842878582022,
      "time_usec": 1838471945408
    },
    {
      "frame_id": 44,
      "sensor_timestamp": 1042842911771022,
      "time_usec": 1838471978597
    },
    {
      "frame_id": 45,
      "sensor_timestamp": 1042842945286022,
      "time_usec": 1838472012112
    },
    {
      "frame_id": 46,
      "sensor_timestamp": 1042842978561022,
      "time_usec": 1838472045387
    },
    {
      "frame_id": 47,
      "sensor_timestamp": 1042843011900022,
      "time_usec": 1838472078726
    },
    {
      "frame_id": 48,
      "sensor_timestamp": 1042843045370022,
      "time_usec": 1838472112196
    },
    {
      "frame_id": 49,
      "sensor_timestamp": 1042843078453022,
      "time_usec": 1838472145279
    },
    {
      "frame_id": 50,
      "sensor_timestamp": 1042843111917022,
      "time_usec": 1838472178743
    },
    {
      "frame_id": 51,
      "sensor_timestamp": 1042843145282022,
      "time_usec": 1838472212108
    },
    {
      "frame_id": 52,
      "sensor_timestamp": 1042843178568022,
      "time_usec": 1838472245394
    },
    {
      "frame_id": 53,
      "sensor_timestamp": 1042843211914022,
      "time_usec": 1838472278740
    },
    {
      "frame_id": 54,
      "sensor_timestamp": 1042843245241022,
      "time_usec": 1838472312067
    },
    {
      "frame_id": 55,
      "sensor_timestamp": 1042843278592022,
      "time_usec": 1838472345418
    },
    {
      "frame_id": 56,
      "sensor_timestamp": 1042843311807022,
      "time_usec": 1838472378633
    },
    {
      "frame_id": 57,
      "sensor_timestamp": 1042843345139022,
      "time_usec": 1838472411965
    },
    {
      "frame_id": 58,
      "sensor_timestamp": 1042843378587022,
      "time_usec": 1838472445413
    },
    {
      "frame_id": 59,
      "sensor_timestamp": 1042843411968022,
      "time_usec": 1838472478794
    },
    {
      "frame_id": 60,
      "sensor_timestamp": 1042843445154022,
      "time_usec": 1838472511980
    },
    {
      "frame_id": 61,
      "sensor_timestamp": 1042843478583022,
      "time_usec": 1838472545409
    },
    {
      "frame_id": 62,
      "sensor_timestamp": 1042843511826022,
      "time_usec": 1838472578652
    },
    {
      "frame_id": 63,
      "sensor_timestamp": 1042843545285022,
      "time_usec": 1838472612111
    },
    {
      "frame_id": 64,
      "sensor_timestamp": 1042843578492022,
      "time_usec": 1838472645318
    },
    {
      "frame_id": 65,
      "sensor_timestamp": 1042843612046022,
      "time_usec": 1838472678872
    },
    {
      "frame_id": 66,
      "sensor_timestamp": 1042843645322022,
      "time_usec": 1838472712148
    },
    {
      "frame_id": 67,
      "sensor_timestamp": 1042843678604022,
      "time_usec": 1838472745430
    },
    {
      "frame_id": 68,
      "sensor_timestamp": 1042843711858022,
      "time_usec": 1838472778684
    },
    {
      "frame_id": 69,
      "sensor_timestamp": 1042843745317022,
      "time_usec": 1838472812143
    },
    {
      "frame_id": 70,
      "sensor_timestamp": 1042843778620022,
      "time_usec": 1838472845446
    },
    {
      "frame_id": 71,
      "sensor_timestamp": 1042843811866022,
      "time_usec": 1838472878692
    },
    {
      "frame_id": 72,
      "sensor_timestamp": 1042843845186022,
      "time_usec": 1838472912012
    },
    {
      "frame_id": 73,
      "sensor_timestamp": 1042843878525022,
      "time_usec": 1838472945351
    },
    {
      "frame_id": 74,
      "sensor_timestamp": 1042843912058022,
      "time_usec": 1838472978884
    },
    {
      "frame_id": 75,
      "sensor_timestamp": 1042843945198022,
      "time_usec": 1838473012024
    },
    {
      "frame_id": 76,
      "sensor_timestamp": 1042843978749022,
      "time_usec": 1838473045575
    },
    {
      "frame_id": 77,
      "sensor_timestamp": 1042844012052022,
      "time_usec": 1838473078878
    },
    {
      "frame_id": 78,
      "sensor_timestamp": 1042844045367022,
      "time_usec": 1838473112193
    },
    {
      "frame_id": 79,
      "sensor_timestamp": 1042844078640022,
      "time_usec": 1838473145466
    },
    {
      "frame_id": 80,
      "sensor_timestamp": 1042844111871022,
      "time_usec": 1838473178697
    },
    {
      "frame_id": 81,
      "sensor_timestamp": 1042844145350022,
      "time_usec": 1838473212176
    },
    {
      "frame_id": 82,
      "sensor_timestamp": 1042844178547022,
      "time_usec": 1838473245373
    },
    {
      "frame_id": 83,
      "sensor_timestamp": 1042844212088022,
      "time_usec": 1838473278914
    },
    {
      "frame_id": 84,
      "sensor_timestamp": 1042844253555094,
      "time_usec": 1838473320382
    },
    {
      "frame_id": 85,
      "sensor_timestamp": 1042844286889094,
      "time_usec": 1838473353716
    },
    {
      "frame_id": 86,
      "sensor_timestamp": 1042844320220094,
      "time_usec": 1838473387047
    },
    {
      "frame_id": 87,
      "sensor_timestamp": 1042844353667094,
      "time_usec": 1838473420494
    },
    {
      "frame_id": 88,
      "sensor_timestamp": 1042844387051094,
      "time_usec": 1838473453878
    },
    {
      "frame_id": 89,
      "sensor_timestamp": 1042844420232094,
      "time_usec": 1838473487059
    },
    {
      "frame_id": 90,
      "sensor_timestamp": 1042844453679094,
      "time_usec": 1838473520506
    },
    {
      "frame_id": 91,
      "sensor_timestamp": 1042844487063094,
      "time_usec": 1838473553890
    },
    {
      "frame_id": 92,
      "sensor_timestamp": 1042844520352094,
      "time_usec": 1838473587179
    },
    {
      "frame_id": 93,
      "sensor_timestamp": 1042844553844094,
      "time_usec": 1838473620671
    },
    {
      "frame_id": 94,
      "sensor_timestamp": 1042844587061094,
      "time_usec": 1838473653888
    },
    {
      "frame_id": 95,
      "sensor_timestamp": 1042844620511094,
      "time_usec": 1838473687338
    },
    {
      "frame_id": 96,
      "sensor_timestamp": 1042844645384022,
      "time_usec": 1838473712210
    },
    {
      "frame_id": 97,
      "sensor_timestamp": 1042844678589022,
      "time_usec": 1838473745415
    },
    {
      "frame_id": 98,
      "sensor_timestamp": 1042844711923022,
      "time_usec": 1838473778749
    },
    {
      "frame_id": 99,
      "sensor_timestamp": 1042844745419022,
      "time_usec": 1838473812245
    },
    {
      "frame_id": 100,
      "sensor_timestamp": 1042844778716022,
      "time_usec": 1838473845542
    },
    {
      "frame_id": 101,
      "sensor_timestamp": 1042844812100022,
      "time_usec": 1838473878926
    },
    {
      "frame_id": 102,
      "sensor_timestamp": 1042844845436022,
      "time_usec": 1838473912262
    },
    {
      "frame_id": 103,
      "sensor_timestamp": 1042844878610022,
      "time_usec": 1838473945436
    },
    {
      "frame_id": 104,
      "sensor_timestamp": 1042844911941022,
      "time_usec": 1838473978767
    },
    {
      "frame_id": 105,
      "sensor_timestamp": 1042844953773094,
      "time_usec": 1838474020600
    },
    {
      "frame_id": 106,
      "sensor_timestamp": 1042844987085094,
      "time_usec": 1838474053912
    },
    {
      "frame_id": 107,
      "sensor_timestamp": 1042845020284094,
      "time_usec": 1838474087111
    },
    {
      "frame_id": 108,
      "sensor_timestamp": 1042845053756094,
      "time_usec": 1838474120583
    },
    {
      "frame_id": 109,
      "sensor_timestamp": 1042845086953094,
      "time_usec": 1838474153780
    },
    {
      "frame_id": 110,
      "sensor_timestamp": 1042845120460094,
      "time_usec": 1838474187287
    },
    {
      "frame_id": 111,
      "sensor_timestamp": 1042845153628094,
      "time_usec": 1838474220455
    },
    {
      "frame_id": 112,
      "sensor_timestamp": 1042845186970094,
      "time_usec": 1838474253797
    },
    {
      "frame_id": 113,
      "sensor_timestamp": 1042845220299094,
      "time_usec": 1838474287126
    },
    {
      "frame_id": 114,
      "sensor_timestamp": 1042845253769094,
      "time_usec": 1838474320596
    },
    {
      "frame_id": 115,
      "sensor_timestamp": 1042845287120094,
      "time_usec": 1838474353947
    },
    {
      "frame_id": 116,
      "sensor_timestamp": 1042845320309094,
      "time_usec": 1838474387136
    },
    {
      "frame_id": 117,
      "sensor_timestamp": 1042845353683094,
      "time_usec": 1838474420510
    },
    {
      "frame_id": 118,
      "sensor_timestamp": 1042845387132094,
      "time_usec": 1838474453959
    },
    {
      "frame_id": 119,
      "sensor_timestamp": 1042845420316094,
      "time_usec": 1838474487143
    },
    {
      "frame_id": 120,
      "sensor_timestamp": 1042845453804094,
      "time_usec": 1838474520631
    },
    {
      "frame_id": 121,
      "sensor_timestamp": 1042845487221094,
      "time_usec": 1838474554048
    },
    {
      "frame_id": 122,
      "sensor_timestamp": 1042845520499094,
      "time_usec": 1838474587326
    },
    {
      "frame_id": 123,
      "sensor_timestamp": 1042845553662094,
      "time_usec": 1838474620489
    },
    {
      "frame_id": 124,
      "sensor_timestamp": 1042845587000094,
      "time_usec": 1838474653827
    },
    {
      "frame_id": 125,
      "sensor_timestamp": 1042845620376094,
      "time_usec": 1838474687203
    },
    {
      "frame_id": 126,
      "sensor_timestamp": 1042845653673094,
      "time_usec": 1838474720500
    },
    {
      "frame_id": 127,
      "sensor_timestamp": 1042845687221094,
      "time_usec": 1838474754048
    },
    {
      "frame_id": 128,
      "sensor_timestamp": 1042845720478094,
      "time_usec": 1838474787305
    },
    {
      "frame_id": 129,
      "sensor_timestamp": 1042845753897094,
      "time_usec": 1838474820724
    },
    {
      "frame_id": 130,
      "sensor_timestamp": 1042845787232094,
      "time_usec": 1838474854059
    },
    {
      "frame_id": 131,
      "sensor_timestamp": 1042845820351094,
      "time_usec": 1838474887178
    },
    {
      "frame_id": 132,
      "sensor_timestamp": 1042845853820094,
      "time_usec": 1838474920647
    },
    {
      "frame_id": 133,
      "sensor_timestamp": 1042845887156094,
      "time_usec": 1838474953983
    },
    {
      "frame_id": 134,
      "sensor_timestamp": 1042845920360094,
      "time_usec": 1838474987187
    },
    {
      "frame_id": 135,
      "sensor_timestamp": 1042845953849094,
      "time_usec": 1838475020676
    },
    {
      "frame_id": 136,
      "sensor_timestamp": 1042845987196094,
      "time_usec": 1838475054023
    },
    {
      "frame_id": 137,
      "sensor_timestamp": 1042846020484094,
      "time_usec": 1838475087311
    },
    {
      "frame_id": 138,
      "sensor_timestamp": 1042846053820094,
      "time_usec": 1838475120647
    },
    {
      "frame_id": 139,
      "sensor_timestamp": 1042846087200094,
      "time_usec": 1838475154027
    },
    {
      "frame_id": 140,
      "sensor_timestamp": 1042846120540094,
      "time_usec": 1838475187367
    },
    {
      "frame_id": 141,
      "sensor_timestamp": 1042846153841094,
      "time_usec": 1838475220668
    },
    {
      "frame_id": 142,
      "sensor_timestamp": 1042846187193094,
      "time_usec": 1838475254020
    },
    {
      "frame_id": 143,
      "sensor_timestamp": 1042846220537094,
      "time_usec": 1838475287364
    },
    {
      "frame_id": 144,
      "sensor_timestamp": 1042846253719094,
      "time_usec": 1838475320546
    },
    {
      "frame_id": 145,
      "sensor_timestamp": 1042846287184094,
      "time_usec": 1838475354011
    },
    {
      "frame_id": 146,
      "sensor_timestamp": 1042846320561094,
      "time_usec": 1838475387388
    },
    {
      "frame_id": 147,
      "sensor_timestamp": 1042846353884094,
      "time_usec": 1838475420711
    },
    {
      "frame_id": 148,
      "sensor_timestamp": 1042846387192094,
      "time_usec": 1838475454019
    },
    {
      "frame_id": 149,
      "sensor_timestamp": 1042846420632094,
      "time_usec": 1838475487459
    },
    {
      "frame_id": 150,
      "sensor_timestamp": 1042846453886094,
      "time_usec": 1838475520713
    },
    {
      "frame_id": 151,
      "sensor_timestamp": 1042846487220094,
      "time_usec": 1838475554047
    },
    {
      "frame_id": 152,
      "sensor_timestamp": 1042846520665094,
      "time_usec": 1838475587492
    },
    {
      "frame_id": 153,
      "sensor_timestamp": 1042846553880094,
      "time_usec": 1838475620707
    },
    {
      "frame_id": 154,
      "sensor_timestamp": 1042846587236094,
      "time_usec": 1838475654063
    },
    {
      "frame_id": 155,
      "sensor_timestamp": 1042846620672094,
      "time_usec": 1838475687499
    },
    {
      "frame_id": 156,
      "sensor_timestamp": 1042846653902094,
      "time_usec": 1838475720729
    },
    {
      "frame_id": 157,
      "sensor_timestamp": 1042846687218094,
      "time_usec": 1838475754045
    },
    {
      "frame_id": 158,
      "sensor_timestamp": 1042846720528094,
      "time_usec": 1838475787355
    },
    {
      "frame_id": 159,
      "sensor_timestamp": 1042846753897094,
      "time_usec": 1838475820724
    },
    {
      "frame_id": 160,
      "sensor_timestamp": 1042846787219094,
      "time_usec": 1838475854046
    },
    {
      "frame_id": 161,
      "sensor_timestamp": 1042846820548094,
      "time_usec": 1838475887375
    },
    {
      "frame_id": 162,
      "sensor_timestamp": 1042846853921094,
      "time_usec": 1838475920748
    },
    {
      "frame_id": 163,
      "sensor_timestamp": 1042846887208094,
      "time_usec": 1838475954035
    },
    {
      "frame_id": 164,
      "sensor_timestamp": 1042846920451094,
      "time_usec": 1838475987278
    },
    {
      "frame_id": 165,
      "sensor_timestamp": 1042846953940094,
      "time_usec": 1838476020767
    },
    {
      "frame_id": 166,
      "sensor_timestamp": 1042846987311094,
      "time_usec": 1838476054138
    },
    {
      "frame_id": 167,
      "sensor_timestamp": 1042847020621094,
      "time_usec": 1838476087448
    },
    {
      "frame_id": 168,
      "sensor_timestamp": 1042847053943094,
      "time_usec": 1838476120770
    },
    {
      "frame_id": 169,
      "sensor_timestamp": 1042847087420094,
      "time_usec": 1838476154247
    },
    {
      "frame_id": 170,
      "sensor_timestamp": 1042847120612094,
      "time_usec": 1838476187439
    },
    {
      "frame_id": 171,
      "sensor_timestamp": 1042847153954094,
      "time_usec": 1838476220781
    },
    {
      "frame_id": 172,
      "sensor_timestamp": 1042847187256094,
      "time_usec": 1838476254083
    },
    {
      "frame_id": 173,
      "sensor_timestamp": 1042847220572094,
      "time_usec": 1838476287399
    },
    {
      "frame_id": 174,
      "sensor_timestamp": 1042847253954094,
      "time_usec": 1838476320781
    },
    {
      "frame_id": 175,
      "sensor_timestamp": 1042847287298094,
      "time_usec": 1838476354125
    },
    {
      "frame_id": 176,
      "sensor_timestamp": 1042847320666094,
      "time_usec": 1838476387493
    },
    {
      "frame_id": 177,
      "sensor_timestamp": 1042847353985094,
      "time_usec": 1838476420812
    },
    {
      "frame_id": 178,
      "sensor_timestamp": 1042847387213094,
      "time_usec": 1838476454040
    },
    {
      "frame_id": 179,
      "sensor_timestamp": 1042847420704094,
      "time_usec": 1838476487531
    },
    {
      "frame_id": 180,
      "sensor_timestamp": 1042847453967094,
      "time_usec": 1838476520794
    },
    {
      "frame_id": 181,
      "sensor_timestamp": 1042847487296094,
      "time_usec": 1838476554123
    },
    {
      "frame_id": 182,
      "sensor_timestamp": 1042847520653094,
      "time_usec": 1838476587480
    },
    {
      "frame_id": 183,
      "sensor_timestamp": 1042847553954094,
      "time_usec": 1838476620781
    },
    {
      "frame_id": 184,
      "sensor_timestamp": 1042847587286094,
      "time_usec": 1838476654113
    },
    {
      "frame_id": 185,
      "sensor_timestamp": 1042847620624094,
      "time_usec": 1838476687451
    },
    {
      "frame_id": 186,
      "sensor_timestamp": 1042847654003094,
      "time_usec": 1838476720830
    },
    {
      "frame_id": 187,
      "sensor_timestamp": 1042847687302094,
      "time_usec": 1838476754129
    },
    {
      "frame_id": 188,
      "sensor_timestamp": 1042847720673094,
      "time_usec": 1838476787500
    },
    {
      "frame_id": 189,
      "sensor_timestamp": 1042847754007094,
      "time_usec": 1838476820834
    },
    {
      "frame_id": 190,
      "sensor_timestamp": 1042847787319094,
      "time_usec": 1838476854146
    },
    {
      "frame_id": 191,
      "sensor_timestamp": 1042847820639094,
      "time_usec": 1838476887466
    },
    {
      "frame_id": 192,
      "sensor_timestamp": 1042847854001094,
      "time_usec": 1838476920828
    },
    {
      "frame_id": 193,
      "sensor_timestamp": 1042847887342094,
      "time_usec": 1838476954169
    },
    {
      "frame_id": 194,
      "sensor_timestamp": 1042847920674094,
      "time_usec": 1838476987501
    },
    {
      "frame_id": 195,
      "sensor_timestamp": 1042847953881094,
      "time_usec": 1838477020708
    },
    {
      "frame_id": 196,
      "sensor_timestamp": 1042847987363094,
      "time_usec": 1838477054190
    },
    {
      "frame_id": 197,
      "sensor_timestamp": 1042848020586094,
      "time_usec": 1838477087413
    },
    {
      "frame_id": 198,
      "sensor_timestamp": 1042848054010094,
      "time_usec": 1838477120837
    },
    {
      "frame_id": 199,
      "sensor_timestamp": 1042848087356094,
      "time_usec": 1838477154183
    },
    {
      "frame_id": 200,
      "sensor_timestamp": 1042848120725094,
      "time_usec": 1838477187552
    },
    {
      "frame_id": 201,
      "sensor_timestamp": 1042848154038094,
      "time_usec": 1838477220865
    },
    {
      "frame_id": 202,
      "sensor_timestamp": 1042848187325094,
      "time_usec": 1838477254152
    },
    {
      "frame_id": 203,
      "sensor_timestamp": 1042848220735094,
      "time_usec": 1838477287562
    },
    {
      "frame_id": 204,
      "sensor_timestamp": 1042848254010094,
      "time_usec": 1838477320837
    },
    {
      "frame_id": 205,
      "sensor_timestamp": 1042848287383094,
      "time_usec": 1838477354210
    },
    {
      "frame_id": 206,
      "sensor_timestamp": 1042848320785094,
      "time_usec": 1838477387612
    },
    {
      "frame_id": 207,
      "sensor_timestamp": 1042848354090094,
      "time_usec": 1838477420917
    },
    {
      "frame_id": 208,
      "sensor_timestamp": 1042848387336094,
      "time_usec": 1838477454163
    },
    {
      "frame_id": 209,
      "sensor_timestamp": 1042848420686094,
      "time_usec": 1838477487513
    },
    {
      "frame_id": 210,
      "sensor_timestamp": 1042848454060094,
      "time_usec": 1838477520887
    },
    {
      "frame_id": 211,
      "sensor_timestamp": 1042848487404094,
      "time_usec": 1838477554231
    },
    {
      "frame_id": 212,
      "sensor_timestamp": 1042848520672094,
      "time_usec": 1838477587499
    },
    {
      "frame_id": 213,
      "sensor_timestamp": 1042848554022094,
      "time_usec": 1838477620849
    },
    {
      "frame_id": 214,
      "sensor_timestamp": 1042848587379094,
      "time_usec": 1838477654206
    },
    {
      "frame_id": 215,
      "sensor_timestamp": 1042848620693094,
      "time_usec": 1838477687520
    },
    {
      "frame_id": 216,
      "sensor_timestamp": 1042848654061094,
      "time_usec": 1838477720888
    },
    {
      "frame_id": 217,
      "sensor_timestamp": 1042848687368094,
      "time_usec": 1838477754195
    },
    {
      "frame_id": 218,
      "sensor_timestamp": 1042848720611094,
      "time_usec": 1838477787438
    },
    {
      "frame_id": 219,
      "sensor_timestamp": 1042848753935094,
      "time_usec": 1838477820762
    },
    {
      "frame_id": 220,
      "sensor_timestamp": 1042848787270094,
      "time_usec": 1838477854097
    },
    {
      "frame_id": 221,
      "sensor_timestamp": 1042848820620094,
      "time_usec": 1838477887447
    },
    {
      "frame_id": 222,
      "sensor_timestamp": 1042848853945094,
      "time_usec": 1838477920772
    },
    {
      "frame_id": 223,
      "sensor_timestamp": 1042848887416094,
      "time_usec": 1838477954243
    },
    {
      "frame_id": 224,
      "sensor_timestamp": 1042848920913094,
      "time_usec": 1838477987740
    },
    {
      "frame_id": 225,
      "sensor_timestamp": 1042848953952094,
      "time_usec": 1838478020779
    },
    {
      "frame_id": 226,
      "sensor_timestamp": 1042848987392094,
      "time_usec": 1838478054219
    },
    {
      "frame_id": 227,
      "sensor_timestamp": 1042849020795094,
      "time_usec": 1838478087622
    },
    {
      "frame_id": 228,
      "sensor_timestamp": 1042849054082094,
      "time_usec": 1838478120909
    },
    {
      "frame_id": 229,
      "sensor_timestamp": 1042849087429094,
      "time_usec": 1838478154256
    },
    {
      "frame_id": 230,
      "sensor_timestamp": 1042849120789094,
      "time_usec": 1838478187616
    },
    {
      "frame_id": 231,
      "sensor_timestamp": 1042849154124094,
      "time_usec": 1838478220951
    },
    {
      "frame_id": 232,
      "sensor_timestamp": 1042849187313094,
      "time_usec": 1838478254140
    },
    {
      "frame_id": 233,
      "sensor_timestamp": 1042849220737094,
      "time_usec": 1838478287564
    },
    {
      "frame_id": 234,
      "sensor_timestamp": 1042849254152094,
      "time_usec": 1838478320979
    },
    {
      "frame_id": 235,
      "sensor_timestamp": 1042849287419094,
      "time_usec": 1838478354246
    },
    {
      "frame_id": 236,
      "sensor_timestamp": 1042849320773094,
      "time_usec": 1838478387600
    },
    {
      "frame_id": 237,
      "sensor_timestamp": 1042849354090094,
      "time_usec": 1838478420917
    },
    {
      "frame_id": 238,
      "sensor_timestamp": 1042849387333094,
      "time_usec": 1838478454160
    },
    {
      "frame_id": 239,
      "sensor_timestamp": 1042849420666094,
      "time_usec": 1838478487493
    },
    {
      "frame_id": 240,
      "sensor_timestamp": 1042849453993094,
      "time_usec": 1838478520820
    },
    {
      "frame_id": 241,
      "sensor_timestamp": 1042849487442094,
      "time_usec": 1838478554269
    },
    {
      "frame_id": 242,
      "sensor_timestamp": 1042849520907094,
      "time_usec": 1838478587734
    },
    {
      "frame_id": 243,
      "sensor_timestamp": 1042849554154094,
      "time_usec": 1838478620981
    },
    {
      "frame_id": 244,
      "sensor_timestamp": 1042849587592094,
      "time_usec": 1838478654419
    },
    {
      "frame_id": 245,
      "sensor_timestamp": 1042849620793094,
      "time_usec": 1838478687620
    },
    {
      "frame_id": 246,
      "sensor_timestamp": 1042849654145094,
      "time_usec": 1838478720972
    },
    {
      "frame_id": 247,
      "sensor_timestamp": 1042849687486094,
      "time_usec": 1838478754313
    },
    {
      "frame_id": 248,
      "sensor_timestamp": 1042849720805094,
      "time_usec": 1838478787632
    },
    {
      "frame_id": 249,
      "sensor_timestamp": 1042849754138094,
      "time_usec": 1838478820965
    },
    {
      "frame_id": 250,
      "sensor_timestamp": 1042849787413094,
      "time_usec": 1838478854240
    },
    {
      "frame_id": 251,
      "sensor_timestamp": 1042849820716094,
      "time_usec": 1838478887543
    },
    {
      "frame_id": 252,
      "sensor_timestamp": 1042849854200094,
      "time_usec": 1838478921027
    },
    {
      "frame_id": 253,
      "sensor_timestamp": 1042849887503094,
      "time_usec": 1838478954330
    },
    {
      "frame_id": 254,
      "sensor_timestamp": 1042849920877094,
      "time_usec": 1838478987704
    },
    {
      "frame_id": 255,
      "sensor_timestamp": 1042849954176094,
      "time_usec": 1838479021003
    },
    {
      "frame_id": 256,
      "sensor_timestamp": 1042849987510094,
      "time_usec": 1838479054337
    },
    {
      "frame_id": 257,
      "sensor_timestamp": 1042850020845094,
      "time_usec": 1838479087672
    },
    {
      "frame_id": 258,
      "sensor_timestamp": 1042850054228094,
      "time_usec": 1838479121055
    },
    {
      "frame_id": 259,
      "sensor_timestamp": 1042850087561094,
      "time_usec": 1838479154388
    },
    {
      "frame_id": 260,
      "sensor_timestamp": 1042850120871094,
      "time_usec": 1838479187698
    },
    {
      "frame_id": 261,
      "sensor_timestamp": 1042850154056094,
      "time_usec": 1838479220883
    },
    {
      "frame_id": 262,
      "sensor_timestamp": 1042850187542094,
      "time_usec": 1838479254369
    },
    {
      "frame_id": 263,
      "sensor_timestamp": 1042850220939094,
      "time_usec": 1838479287766
    },
    {
      "frame_id": 264,
      "sensor_timestamp": 1042850254068094,
      "time_usec": 1838479320895
    },
    {
      "frame_id": 265,
      "sensor_timestamp": 1042850287400094,
      "time_usec": 1838479354227
    },
    {
      "frame_id": 266,
      "sensor_timestamp": 1042850320925094,
      "time_usec": 1838479387752
    },
    {
      "frame_id": 267,
      "sensor_timestamp": 1042850354218094,
      "time_usec": 1838479421045
    },
    {
      "frame_id": 268,
      "sensor_timestamp": 1042850387530094,
      "time_usec": 1838479454357
    },
    {
      "frame_id": 269,
      "sensor_timestamp": 1042850420883094,
      "time_usec": 1838479487710
    },
    {
      "frame_id": 270,
      "sensor_timestamp": 1042850454212094,
      "time_usec": 1838479521039
    },
    {
      "frame_id": 271,
      "sensor_timestamp": 1042850487427094,
      "time_usec": 1838479554254
    },
    {
      "frame_id": 272,
      "sensor_timestamp": 1042850520754094,
      "time_usec": 1838479587581
    },
    {
      "frame_id": 273,
      "sensor_timestamp": 1042850554198094,
      "time_usec": 1838479621025
    },
    {
      "frame_id": 274,
      "sensor_timestamp": 1042850587566094,
      "time_usec": 1838479654393
    },
    {
      "frame_id": 275,
      "sensor_timestamp": 1042850620874094,
      "time_usec": 1838479687701
    },
    {
      "frame_id": 276,
      "sensor_timestamp": 1042850654363094,
      "time_usec": 1838479721190
    },
    {
      "frame_id": 277,
      "sensor_timestamp": 1042850687433094,
      "time_usec": 1838479754260
    },
    {
      "frame_id": 278,
      "sensor_timestamp": 1042850720770094,
      "time_usec": 1838479787597
    },
    {
      "frame_id": 279,
      "sensor_timestamp": 1042850754123094,
      "time_usec": 1838479820950
    },
    {
      "frame_id": 280,
      "sensor_timestamp": 1042850787580094,
      "time_usec": 1838479854407
    },
    {
      "frame_id": 281,
      "sensor_timestamp": 1042850820781094,
      "time_usec": 1838479887608
    },
    {
      "frame_id": 282,
      "sensor_timestamp": 1042850854116094,
      "time_usec": 1838479920943
    },
    {
      "frame_id": 283,
      "sensor_timestamp": 1042850887469094,
      "time_usec": 1838479954296
    },
    {
      "frame_id": 284,
      "sensor_timestamp": 1042850921004094,
      "time_usec": 1838479987831
    },
    {
      "frame_id": 285,
      "sensor_timestamp": 1042850954126094,
      "time_usec": 1838480020953
    },
    {
      "frame_id": 286,
      "sensor_timestamp": 1042850987597094,
      "time_usec": 1838480054424
    },
    {
      "frame_id": 287,
      "sensor_timestamp": 1042851020955094,
      "time_usec": 1838480087782
    },
    {
      "frame_id": 288,
      "sensor_timestamp": 1042851054145094,
      "time_usec": 1838480120972
    },
    {
      "frame_id": 289,
      "sensor_timestamp": 1042851087482094,
      "time_usec": 1838480154309
    },
    {
      "frame_id": 290,
      "sensor_timestamp": 1042851120818094,
      "time_usec": 1838480187645
    },
    {
      "frame_id": 291,
      "sensor_timestamp": 1042851154142094,
      "time_usec": 1838480220969
    },
    {
      "frame_id": 292,
      "sensor_timestamp": 1042851187485094,
      "time_usec": 1838480254312
    },
    {
      "frame_id": 293,
      "sensor_timestamp": 1042851220817094,
      "time_usec": 1838480287644
    },
    {
      "frame_id": 294,
      "sensor_timestamp": 1042851254322094,
      "time_usec": 1838480321149
    },
    {
      "frame_id": 295,
      "sensor_timestamp": 1042851287594094,
      "time_usec": 1838480354421
    },
    {
      "frame_id": 296,
      "sensor_timestamp": 1042851320821094,
      "time_usec": 1838480387648
    },
    {
      "frame_id": 297,
      "sensor_timestamp": 1042851354262094,
      "time_usec": 1838480421089
    },
    {
      "frame_id": 298,
      "sensor_timestamp": 1042851387503094,
      "time_usec": 1838480454330
    },
    {
      "frame_id": 299,
      "sensor_timestamp": 1042851420831094,
      "time_usec": 1838480487658
    },
    {
      "frame_id": 300,
      "sensor_timestamp": 1042851454323094,
      "time_usec": 1838480521150
    },
    {
      "frame_id": 301,
      "sensor_timestamp": 1042851487616094,
      "time_usec": 1838480554443
    },
    {
      "frame_id": 302,
      "sensor_timestamp": 1042851520998094,
      "time_usec": 1838480587825
    },
    {
      "frame_id": 303,
      "sensor_timestamp": 1042851554185094,
      "time_usec": 1838480621012
    },
    {
      "frame_id": 304,
      "sensor_timestamp": 1042851587631094,
      "time_usec": 1838480654458
    },
    {
      "frame_id": 305,
      "sensor_timestamp": 1042851621021094,
      "time_usec": 1838480687848
    },
    {
      "frame_id": 306,
      "sensor_timestamp": 1042851654328094,
      "time_usec": 1838480721155
    },
    {
      "frame_id": 307,
      "sensor_timestamp": 1042851687702094,
      "time_usec": 1838480754529
    },
    {
      "frame_id": 308,
      "sensor_timestamp": 1042851720971094,
      "time_usec": 1838480787798
    },
    {
      "frame_id": 309,
      "sensor_timestamp": 1042851754318094,
      "time_usec": 1838480821145
    },
    {
      "frame_id": 310,
      "sensor_timestamp": 1042851787623094,
      "time_usec": 1838480854450
    },
    {
      "frame_id": 311,
      "sensor_timestamp": 1042851821066094,
      "time_usec": 1838480887893
    },
    {
      "frame_id": 312,
      "sensor_timestamp": 1042851854371094,
      "time_usec": 1838480921198
    },
    {
      "frame_id": 313,
      "sensor_timestamp": 1042851887655094,
      "time_usec": 1838480954482
    },
    {
      "frame_id": 314,
      "sensor_timestamp": 1042851921089094,
      "time_usec": 1838480987916
    },
    {
      "frame_id": 315,
      "sensor_timestamp": 1042851954219094,
      "time_usec": 1838481021046
    },
    {
      "frame_id": 316,
      "sensor_timestamp": 1042851987554094,
      "time_usec": 1838481054381
    },
    {
      "frame_id": 317,
      "sensor_timestamp": 1042852020882094,
      "time_usec": 1838481087709
    },
    {
      "frame_id": 318,
      "sensor_timestamp": 1042852054230094,
      "time_usec": 1838481121057
    },
    {
      "frame_id": 319,
      "sensor_timestamp": 1042852087678094,
      "time_usec": 1838481154505
    },
    {
      "frame_id": 320,
      "sensor_timestamp": 1042852120902094,
      "time_usec": 1838481187729
    },
    {
      "frame_id": 321,
      "sensor_timestamp": 1042852154334094,
      "time_usec": 1838481221161
    },
    {
      "frame_id": 322,
      "sensor_timestamp": 1042852187654094,
      "time_usec": 1838481254481
    },
    {
      "frame_id": 323,
      "sensor_timestamp": 1042852220899094,
      "time_usec": 1838481287726
    },
    {
      "frame_id": 324,
      "sensor_timestamp": 1042852254351094,
      "time_usec": 1838481321178
    },
    {
      "frame_id": 325,
      "sensor_timestamp": 1042852287703094,
      "time_usec": 1838481354530
    },
    {
      "frame_id": 326,
      "sensor_timestamp": 1042852320907094,
      "time_usec": 1838481387734
    },
    {
      "frame_id": 327,
      "sensor_timestamp": 1042852354242094,
      "time_usec": 1838481421069
    },
    {
      "frame_id": 328,
      "sensor_timestamp": 1042852387586094,
      "time_usec": 1838481454413
    },
    {
      "frame_id": 329,
      "sensor_timestamp": 1042852420915094,
      "time_usec": 1838481487742
    },
    {
      "frame_id": 330,
      "sensor_timestamp": 1042852454263094,
      "time_usec": 1838481521090
    },
    {
      "frame_id": 331,
      "sensor_timestamp": 1042852487714094,
      "time_usec": 1838481554541
    },
    {
      "frame_id": 332,
      "sensor_timestamp": 1042852521024094,
      "time_usec": 1838481587851
    },
    {
      "frame_id": 333,
      "sensor_timestamp": 1042852554350094,
      "time_usec": 1838481621177
    },
    {
      "frame_id": 334,
      "sensor_timestamp": 1042852587763094,
      "time_usec": 1838481654590
    },
    {
      "frame_id": 335,
      "sensor_timestamp": 1042852620932094,
      "time_usec": 1838481687759
    },
    {
      "frame_id": 336,
      "sensor_timestamp": 1042852654400094,
      "time_usec": 1838481721227
    },
    {
      "frame_id": 337,
      "sensor_timestamp": 1042852687712094,
      "time_usec": 1838481754539
    },
    {
      "frame_id": 338,
      "sensor_timestamp": 1042852721043094,
      "time_usec": 1838481787870
    },
    {
      "frame_id": 339,
      "sensor_timestamp": 1042852754288094,
      "time_usec": 1838481821115
    },
    {
      "frame_id": 340,
      "sensor_timestamp": 1042852787624094,
      "time_usec": 1838481854451
    },
    {
      "frame_id": 341,
      "sensor_timestamp": 1042852821120094,
      "time_usec": 1838481887947
    },
    {
      "frame_id": 342,
      "sensor_timestamp": 1042852846057022,
      "time_usec": 1838481912883
    },
    {
      "frame_id": 343,
      "sensor_timestamp": 1042852879407022,
      "time_usec": 1838481946233
    },
    {
      "frame_id": 344,
      "sensor_timestamp": 1042852912627022,
      "time_usec": 1838481979453
    },
    {
      "frame_id": 345,
      "sensor_timestamp": 1042852945975022,
      "time_usec": 1838482012801
    },
    {
      "frame_id": 346,
      "sensor_timestamp": 1042852979298022,
      "time_usec": 1838482046124
    },
    {
      "frame_id": 347,
      "sensor_timestamp": 1042853012817022,
      "time_usec": 1838482079643
    },
    {
      "frame_id": 348,
      "sensor_timestamp": 1042853046159022,
      "time_usec": 1838482112985
    },
    {
      "frame_id": 349,
      "sensor_timestamp": 1042853079437022,
      "time_usec": 1838482146263
    },
    {
      "frame_id": 350,
      "sensor_timestamp": 1042853112900022,
      "time_usec": 1838482179726
    },
    {
      "frame_id": 351,
      "sensor_timestamp": 1042853146133022,
      "time_usec": 1838482212959
    },
    {
      "frame_id": 352,
      "sensor_timestamp": 1042853179528022,
      "time_usec": 1838482246354
    },
    {
      "frame_id": 353,
      "sensor_timestamp": 1042853213041022,
      "time_usec": 1838482279867
    },
    {
      "frame_id": 354,
      "sensor_timestamp": 1042853246164022,
      "time_usec": 1838482312990
    },
    {
      "frame_id": 355,
      "sensor_timestamp": 1042853279485022,
      "time_usec": 1838482346311
    },
    {
      "frame_id": 356,
      "sensor_timestamp": 1042853312888022,
      "time_usec": 1838482379714
    },
    {
      "frame_id": 357,
      "sensor_timestamp": 1042853346204022,
      "time_usec": 1838482413030
    },
    {
      "frame_id": 358,
      "sensor_timestamp": 1042853379469022,
      "time_usec": 1838482446295
    },
    {
      "frame_id": 359,
      "sensor_timestamp": 1042853412833022,
      "time_usec": 1838482479659
    },
    {
      "frame_id": 360,
      "sensor_timestamp": 1042853446111022,
      "time_usec": 1838482512937
    },
    {
      "frame_id": 361,
      "sensor_timestamp": 1042853479471022,
      "time_usec": 1838482546297
    },
    {
      "frame_id": 362,
      "sensor_timestamp": 1042853512840022,
      "time_usec": 1838482579666
    },
    {
      "frame_id": 363,
      "sensor_timestamp": 1042853546123022,
      "time_usec": 1838482612949
    },
    {
      "frame_id": 364,
      "sensor_timestamp": 1042853579438022,
      "time_usec": 1838482646264
    },
    {
      "frame_id": 365,
      "sensor_timestamp": 1042853612860022,
      "time_usec": 1838482679686
    },
    {
      "frame_id": 366,
      "sensor_timestamp": 1042853646198022,
      "time_usec": 1838482713024
    },
    {
      "frame_id": 367,
      "sensor_timestamp": 1042853679483022,
      "time_usec": 1838482746309
    },
    {
      "frame_id": 368,
      "sensor_timestamp": 1042853712829022,
      "time_usec": 1838482779655
    },
    {
      "frame_id": 369,
      "sensor_timestamp": 1042853746249022,
      "time_usec": 1838482813075
    },
    {
      "frame_id": 370,
      "sensor_timestamp": 1042853779369022,
      "time_usec": 1838482846195
    },
    {
      "frame_id": 371,
      "sensor_timestamp": 1042853812908022,
      "time_usec": 1838482879734
    },
    {
      "frame_id": 372,
      "sensor_timestamp": 1042853846211022,
      "time_usec": 1838482913037
    },
    {
      "frame_id": 373,
      "sensor_timestamp": 1042853879523022,
      "time_usec": 1838482946349
    },
    {
      "frame_id": 374,
      "sensor_timestamp": 1042853912947022,
      "time_usec": 1838482979773
    },
    {
      "frame_id": 375,
      "sensor_timestamp": 1042853946196022,
      "time_usec": 1838483013022
    },
    {
      "frame_id": 376,
      "sensor_timestamp": 1042853979515022,
      "time_usec": 1838483046341
    },
    {
      "frame_id": 377,
      "sensor_timestamp": 1042854013041022,
      "time_usec": 1838483079867
    },
    {
      "frame_id": 378,
      "sensor_timestamp": 1042854046187022,
      "time_usec": 1838483113013
    },
    {
      "frame_id": 379,
      "sensor_timestamp": 1042854079541022,
      "time_usec": 1838483146367
    },
    {
      "frame_id": 380,
      "sensor_timestamp": 1042854112909022,
      "time_usec": 1838483179735
    },
    {
      "frame_id": 381,
      "sensor_timestamp": 1042854146229022,
      "time_usec": 1838483213055
    },
    {
      "frame_id": 382,
      "sensor_timestamp": 1042854179548022,
      "time_usec": 1838483246374
    },
    {
      "frame_id": 383,
      "sensor_timestamp": 1042854212894022,
      "time_usec": 1838483279720
    },
    {
      "frame_id": 384,
      "sensor_timestamp": 1042854246220022,
      "time_usec": 1838483313046
    },
    {
      "frame_id": 385,
      "sensor_timestamp": 1042854279555022,
      "time_usec": 1838483346381
    },
    {
      "frame_id": 386,
      "sensor_timestamp": 1042854312891022,
      "time_usec": 1838483379717
    },
    {
      "frame_id": 387,
      "sensor_timestamp": 1042854346226022,
      "time_usec": 1838483413052
    },
    {
      "frame_id": 388,
      "sensor_timestamp": 1042854387879094,
      "time_usec": 1838483454706
    },
    {
      "frame_id": 389,
      "sensor_timestamp": 1042854421257094,
      "time_usec": 1838483488084
    },
    {
      "frame_id": 390,
      "sensor_timestamp": 1042854454578094,
      "time_usec": 1838483521405
    },
    {
      "frame_id": 391,
      "sensor_timestamp": 1042854487905094,
      "time_usec": 1838483554732
    },
    {
      "frame_id": 392,
      "sensor_timestamp": 1042854521316094,
      "time_usec": 1838483588143
    },
    {
      "frame_id": 393,
      "sensor_timestamp": 1042854554599094,
      "time_usec": 1838483621426
    },
    {
      "frame_id": 394,
      "sensor_timestamp": 1042854587833094,
      "time_usec": 1838483654660
    },
    {
      "frame_id": 395,
      "sensor_timestamp": 1042854621337094,
      "time_usec": 1838483688164
    },
    {
      "frame_id": 396,
      "sensor_timestamp": 1042854654574094,
      "time_usec": 1838483721401
    },
    {
      "frame_id": 397,
      "sensor_timestamp": 1042854687924094,
      "time_usec": 1838483754751
    },
    {
      "frame_id": 398,
      "sensor_timestamp": 1042854721330094,
      "time_usec": 1838483788157
    },
    {
      "frame_id": 399,
      "sensor_timestamp": 1042854754674094,
      "time_usec": 1838483821501
    },
    {
      "frame_id": 400,
      "sensor_timestamp": 1042854787881094,
      "time_usec": 1838483854708
    },
    {
      "frame_id": 401,
      "sensor_timestamp": 1042854821319094,
      "time_usec": 1838483888146
    },
    {
      "frame_id": 402,
      "sensor_timestamp": 1042854854607094,
      "time_usec": 1838483921434
    },
    {
      "frame_id": 403,
      "sensor_timestamp": 1042854887927094,
      "time_usec": 1838483954754
    },
    {
      "frame_id": 404,
      "sensor_timestamp": 1042854921431094,
      "time_usec": 1838483988258
    },
    {
      "frame_id": 405,
      "sensor_timestamp": 1042854954469094,
      "time_usec": 1838484021296
    },
    {
      "frame_id": 406,
      "sensor_timestamp": 1042854987929094,
      "time_usec": 1838484054756
    },
    {
      "frame_id": 407,
      "sensor_timestamp": 1042855021342094,
      "time_usec": 1838484088169
    },
    {
      "frame_id": 408,
      "sensor_timestamp": 1042855054650094,
      "time_usec": 1838484121477
    },
    {
      "frame_id": 409,
      "sensor_timestamp": 1042855087958094,
      "time_usec": 1838484154785
    },
    {
      "frame_id": 410,
      "sensor_timestamp": 1042855121350094,
      "time_usec": 1838484188177
    },
    {
      "frame_id": 411,
      "sensor_timestamp": 1042855154620094,
      "time_usec": 1838484221447
    },
    {
      "frame_id": 412,
      "sensor_timestamp": 1042855187951094,
      "time_usec": 1838484254778
    },
    {
      "frame_id": 413,
      "sensor_timestamp": 1042855221339094,
      "time_usec": 1838484288166
    },
    {
      "frame_id": 414,
      "sensor_timestamp": 1042855254678094,
      "time_usec": 1838484321505
    },
    {
      "frame_id": 415,
      "sensor_timestamp": 1042855287989094,
      "time_usec": 1838484354816
    },
    {
      "frame_id": 416,
      "sensor_timestamp": 1042855321362094,
      "time_usec": 1838484388189
    },
    {
      "frame_id": 417,
      "sensor_timestamp": 1042855354677094,
      "time_usec": 1838484421504
    },
    {
      "frame_id": 418,
      "sensor_timestamp": 1042855387968094,
      "time_usec": 1838484454795
    },
    {
      "frame_id": 419,
      "sensor_timestamp": 1042855421311094,
      "time_usec": 1838484488138
    },
    {
      "frame_id": 420,
      "sensor_timestamp": 1042855454692094,
      "time_usec": 1838484521519
    },
    {
      "frame_id": 421,
      "sensor_timestamp": 1042855487967094,
      "time_usec": 1838484554794
    },
    {
      "frame_id": 422,
      "sensor_timestamp": 1042855521372094,
      "time_usec": 1838484588199
    },
    {
      "frame_id": 423,
      "sensor_timestamp": 1042855554629094,
      "time_usec": 1838484621456
    },
    {
      "frame_id": 424,
      "sensor_timestamp": 1042855588036094,
      "time_usec": 1838484654863
    },
    {
      "frame_id": 425,
      "sensor_timestamp": 1042855621318094,
      "time_usec": 1838484688145
    },
    {
      "frame_id": 426,
      "sensor_timestamp": 1042855654529094,
      "time_usec": 1838484721356
    },
    {
      "frame_id": 427,
      "sensor_timestamp": 1042855687993094,
      "time_usec": 1838484754820
    },
    {
      "frame_id": 428,
      "sensor_timestamp": 1042855721291094,
      "time_usec": 1838484788118
    },
    {
      "frame_id": 429,
      "sensor_timestamp": 1042855754657094,
      "time_usec": 1838484821484
    },
    {
      "frame_id": 430,
      "sensor_timestamp": 1042855788080094,
      "time_usec": 1838484854907
    },
    {
      "frame_id": 431,
      "sensor_timestamp": 1042855821338094,
      "time_usec": 1838484888165
    },
    {
      "frame_id": 432,
      "sensor_timestamp": 1042855854673094,
      "time_usec": 1838484921500
    },
    {
      "frame_id": 433,
      "sensor_timestamp": 1042855888007094,
      "time_usec": 1838484954834
    },
    {
      "frame_id": 434,
      "sensor_timestamp": 1042855921363094,
      "time_usec": 1838484988190
    },
    {
      "frame_id": 435,
      "sensor_timestamp": 1042855954568094,
      "time_usec": 1838485021395
    },
    {
      "frame_id": 436,
      "sensor_timestamp": 1042855988029094,
      "time_usec": 1838485054856
    },
    {
      "frame_id": 437,
      "sensor_timestamp": 1042856021378094,
      "time_usec": 1838485088205
    },
    {
      "frame_id": 438,
      "sensor_timestamp": 1042856054742094,
      "time_usec": 1838485121569
    },
    {
      "frame_id": 439,
      "sensor_timestamp": 1042856088027094,
      "time_usec": 1838485154854
    },
    {
      "frame_id": 440,
      "sensor_timestamp": 1042856121235094,
      "time_usec": 1838485188062
    },
    {
      "frame_id": 441,
      "sensor_timestamp": 1042856154770094,
      "time_usec": 1838485221597
    },
    {
      "frame_id": 442,
      "sensor_timestamp": 1042856187947094,
      "time_usec": 1838485254774
    },
    {
      "frame_id": 443,
      "sensor_timestamp": 1042856221424094,
      "time_usec": 1838485288251
    },
    {
      "frame_id": 444,
      "sensor_timestamp": 1042856254741094,
      "time_usec": 1838485321568
    },
    {
      "frame_id": 445,
      "sensor_timestamp": 1042856288039094,
      "time_usec": 1838485354866
    },
    {
      "frame_id": 446,
      "sensor_timestamp": 1042856321363094,
      "time_usec": 1838485388190
    },
    {
      "frame_id": 447,
      "sensor_timestamp": 1042856354586094,
      "time_usec": 1838485421413
    },
    {
      "frame_id": 448,
      "sensor_timestamp": 1042856388094094,
      "time_usec": 1838485454921
    },
    {
      "frame_id": 449,
      "sensor_timestamp": 1042856421363094,
      "time_usec": 1838485488190
    },
    {
      "frame_id": 450,
      "sensor_timestamp": 1042856454751094,
      "time_usec": 1838485521578
    },
    {
      "frame_id": 451,
      "sensor_timestamp": 1042856488050094,
      "time_usec": 1838485554877
    },
    {
      "frame_id": 452,
      "sensor_timestamp": 1042856521312094,
      "time_usec": 1838485588139
    },
    {
      "frame_id": 453,
      "sensor_timestamp": 1042856554798094,
      "time_usec": 1838485621625
    },
    {
      "frame_id": 454,
      "sensor_timestamp": 1042856588104094,
      "time_usec": 1838485654931
    },
    {
      "frame_id": 455,
      "sensor_timestamp": 1042856621444094,
      "time_usec": 1838485688271
    },
    {
      "frame_id": 456,
      "sensor_timestamp": 1042856654799094,
      "time_usec": 1838485721626
    },
    {
      "frame_id": 457,
      "sensor_timestamp": 1042856688079094,
      "time_usec": 1838485754906
    },
    {
      "frame_id": 458,
      "sensor_timestamp": 1042856721438094,
      "time_usec": 1838485788265
    },
    {
      "frame_id": 459,
      "sensor_timestamp": 1042856754903094,
      "time_usec": 1838485821730
    },
    {
      "frame_id": 460,
      "sensor_timestamp": 1042856788121094,
      "time_usec": 1838485854948
    },
    {
      "frame_id": 461,
      "sensor_timestamp": 1042856821450094,
      "time_usec": 1838485888277
    },
    {
      "frame_id": 462,
      "sensor_timestamp": 1042856854938094,
      "time_usec": 1838485921765
    },
    {
      "frame_id": 463,
      "sensor_timestamp": 1042856888112094,
      "time_usec": 1838485954939
    },
    {
      "frame_id": 464,
      "sensor_timestamp": 1042856921436094,
      "time_usec": 1838485988263
    },
    {
      "frame_id": 465,
      "sensor_timestamp": 1042856954806094,
      "time_usec": 1838486021633
    },
    {
      "frame_id": 466,
      "sensor_timestamp": 1042856988128094,
      "time_usec": 1838486054955
    },
    {
      "frame_id": 467,
      "sensor_timestamp": 1042857021458094,
      "time_usec": 1838486088285
    },
    {
      "frame_id": 468,
      "sensor_timestamp": 1042857054880094,
      "time_usec": 1838486121707
    },
    {
      "frame_id": 469,
      "sensor_timestamp": 1042857088144094,
      "time_usec": 1838486154971
    },
    {
      "frame_id": 470,
      "sensor_timestamp": 1042857121411094,
      "time_usec": 1838486188238
    },
    {
      "frame_id": 471,
      "sensor_timestamp": 1042857154808094,
      "time_usec": 1838486221635
    },
    {
      "frame_id": 472,
      "sensor_timestamp": 1042857188153094,
      "time_usec": 1838486254980
    },
    {
      "frame_id": 473,
      "sensor_timestamp": 1042857221497094,
      "time_usec": 1838486288324
    },
    {
      "frame_id": 474,
      "sensor_timestamp": 1042857254814094,
      "time_usec": 1838486321641
    },
    {
      "frame_id": 475,
      "sensor_timestamp": 1042857288149094,
      "time_usec": 1838486354976
    },
    {
      "frame_id": 476,
      "sensor_timestamp": 1042857321531094,
      "time_usec": 1838486388358
    },
    {
      "frame_id": 477,
      "sensor_timestamp": 1042857354812094,
      "time_usec": 1838486421639
    },
    {
      "frame_id": 478,
      "sensor_timestamp": 1042857388151094,
      "time_usec": 1838486454978
    },
    {
      "frame_id": 479,
      "sensor_timestamp": 1042857421351094,
      "time_usec": 1838486488178
    },
    {
      "frame_id": 480,
      "sensor_timestamp": 1042857454703094,
      "time_usec": 1838486521530
    },
    {
      "frame_id": 481,
      "sensor_timestamp": 1042857488166094,
      "time_usec": 1838486554993
    },
    {
      "frame_id": 482,
      "sensor_timestamp": 1042857521474094,
      "time_usec": 1838486588301
    },
    {
      "frame_id": 483,
      "sensor_timestamp": 1042857554807094,
      "time_usec": 1838486621634
    },
    {
      "frame_id": 484,
      "sensor_timestamp": 1042857588144094,
      "time_usec": 1838486654971
    },
    {
      "frame_id": 485,
      "sensor_timestamp": 1042857621541094,
      "time_usec": 1838486688368
    },
    {
      "frame_id": 486,
      "sensor_timestamp": 1042857654816094,
      "time_usec": 1838486721643
    },
    {
      "frame_id": 487,
      "sensor_timestamp": 1042857688142094,
      "time_usec": 1838486754969
    },
    {
      "frame_id": 488,
      "sensor_timestamp": 1042857721545094,
      "time_usec": 1838486788372
    },
    {
      "frame_id": 489,
      "sensor_timestamp": 1042857754730094,
      "time_usec": 1838486821557
    },
    {
      "frame_id": 490,
      "sensor_timestamp": 1042857788188094,
      "time_usec": 1838486855015
    },
    {
      "frame_id": 491,
      "sensor_timestamp": 1042857821511094,
      "time_usec": 1838486888338
    },
    {
      "frame_id": 492,
      "sensor_timestamp": 1042857854856094,
      "time_usec": 1838486921683
    },
    {
      "frame_id": 493,
      "sensor_timestamp": 1042857888161094,
      "time_usec": 1838486954988
    },
    {
      "frame_id": 494,
      "sensor_timestamp": 1042857921499094,
      "time_usec": 1838486988326
    },
    {
      "frame_id": 495,
      "sensor_timestamp": 1042857954848094,
      "time_usec": 1838487021675
    },
    {
      "frame_id": 496,
      "sensor_timestamp": 1042857988198094,
      "time_usec": 1838487055025
    },
    {
      "frame_id": 497,
      "sensor_timestamp": 1042858021625094,
      "time_usec": 1838487088452
    },
    {
      "frame_id": 498,
      "sensor_timestamp": 1042858054849094,
      "time_usec": 1838487121676
    },
    {
      "frame_id": 499,
      "sensor_timestamp": 1042858088199094,
      "time_usec": 1838487155026
    },
    {
      "frame_id": 500,
      "sensor_timestamp": 1042858121515094,
      "time_usec": 1838487188342
    },
    {
      "frame_id": 501,
      "sensor_timestamp": 1042858154876094,
      "time_usec": 1838487221703
    },
    {
      "frame_id": 502,
      "sensor_timestamp": 1042858188279094,
      "time_usec": 1838487255106
    },
    {
      "frame_id": 503,
      "sensor_timestamp": 1042858221620094,
      "time_usec": 1838487288447
    },
    {
      "frame_id": 504,
      "sensor_timestamp": 1042858254912094,
      "time_usec": 1838487321739
    },
    {
      "frame_id": 505,
      "sensor_timestamp": 1042858288229094,
      "time_usec": 1838487355056
    },
    {
      "frame_id": 506,
      "sensor_timestamp": 1042858321629094,
      "time_usec": 1838487388456
    },
    {
      "frame_id": 507,
      "sensor_timestamp": 1042858354923094,
      "time_usec": 1838487421750
    },
    {
      "frame_id": 508,
      "sensor_timestamp": 1042858388226094,
      "time_usec": 1838487455053
    },
    {
      "frame_id": 509,
      "sensor_timestamp": 1042858421587094,
      "time_usec": 1838487488414
    },
    {
      "frame_id": 510,
      "sensor_timestamp": 1042858454869094,
      "time_usec": 1838487521696
    },
    {
      "frame_id": 511,
      "sensor_timestamp": 1042858488248094,
      "time_usec": 1838487555075
    },
    {
      "frame_id": 512,
      "sensor_timestamp": 1042858521585094,
      "time_usec": 1838487588412
    },
    {
      "frame_id": 513,
      "sensor_timestamp": 1042858555279094,
      "time_usec": 1838487622106
    },
    {
      "frame_id": 514,
      "sensor_timestamp": 1042858588244094,
      "time_usec": 1838487655071
    },
    {
      "frame_id": 515,
      "sensor_timestamp": 1042858621452094,
      "time_usec": 1838487688279
    },
    {
      "frame_id": 516,
      "sensor_timestamp": 1042858654807094,
      "time_usec": 1838487721634
    },
    {
      "frame_id": 517,
      "sensor_timestamp": 1042858688266094,
      "time_usec": 1838487755093
    },
    {
      "frame_id": 518,
      "sensor_timestamp": 1042858721603094,
      "time_usec": 1838487788430
    },
    {
      "frame_id": 519,
      "sensor_timestamp": 1042858754946094,
      "time_usec": 1838487821773
    },
    {
      "frame_id": 520,
      "sensor_timestamp": 1042858788276094,
      "time_usec": 1838487855103
    },
    {
      "frame_id": 521,
      "sensor_timestamp": 1042858821667094,
      "time_usec": 1838487888494
    },
    {
      "frame_id": 522,
      "sensor_timestamp": 1042858854959094,
      "time_usec": 1838487921786
    },
    {
      "frame_id": 523,
      "sensor_timestamp": 1042858888268094,
      "time_usec": 1838487955095
    },
    {
      "frame_id": 524,
      "sensor_timestamp": 1042858921613094,
      "time_usec": 1838487988440
    },
    {
      "frame_id": 525,
      "sensor_timestamp": 1042858954834094,
      "time_usec": 1838488021661
    },
    {
      "frame_id": 526,
      "sensor_timestamp": 1042858988283094,
      "time_usec": 1838488055110
    },
    {
      "frame_id": 527,
      "sensor_timestamp": 1042859021496094,
      "time_usec": 1838488088323
    },
    {
      "frame_id": 528,
      "sensor_timestamp": 1042859054966094,
      "time_usec": 1838488121793
    },
    {
      "frame_id": 529,
      "sensor_timestamp": 1042859088158094,
      "time_usec": 1838488154985
    },
    {
      "frame_id": 530,
      "sensor_timestamp": 1042859121494094,
      "time_usec": 1838488188321
    },
    {
      "frame_id": 531,
      "sensor_timestamp": 1042859155002094,
