{
  "rotations": [
    {
      "x": -0.0016632080078125,
      "y": 0.0177154541015625,
      "z": -0.0445098876953125,
      "time_usec": 1042840802018
    },
    {
      "x": -0.006988525390625,
      "y": 0.015594482421875,
      "z": -0.0391845703125,
      "time_usec": 1042840806016
    },
    {
      "x": -0.0240325927734375,
      "y": 0.01666259765625,
      "z": -0.0349273681640625,
      "time_usec": 1042840809983
    },
    {
      "x": -0.0389404296875,
      "y": 0.01666259765625,
      "z": -0.0338592529296875,
      "time_usec": 1042840813981
    },
    {
      "x": -0.0474700927734375,
      "y": 0.015594482421875,
      "z": -0.02960205078125,
      "time_usec": 1042840817979
    },
    {
      "x": -0.0506591796875,
      "y": 0.0145263671875,
      "z": -0.0274658203125,
      "time_usec": 1042840821946
    },
    {
      "x": -0.04852294921875,
      "y": 0.015594482421875,
      "z": -0.0274658203125,
      "time_usec": 1042840825944
    },
    {
      "x": -0.0464019775390625,
      "y": 0.0145263671875,
      "z": -0.0210723876953125,
      "time_usec": 1042840829942
    },
    {
      "x": -0.0421295166015625,
      "y": 0.01239013671875,
      "z": -0.0210723876953125,
      "time_usec": 1042840833940
    },
    {
      "x": -0.02935791015625,
      "y": 0.0070648193359375,
      "z": -0.018951416015625,
      "time_usec": 1042840837907
    },
    {
      "x": -0.0218963623046875,
      "y": -3.814697265625E-4,
      "z": -0.0146942138671875,
      "time_usec": 1042840841905
    },
    {
      "x": -0.018707275390625,
      "y": -0.005706787109375,
      "z": -0.0093536376953125,
      "time_usec": 1042840845903
    },
    {
      "x": -0.0112457275390625,
      "y": -0.009979248046875,
      "z": -0.00616455078125,
      "time_usec": 1042840849900
    },
    {
      "x": -0.0101776123046875,
      "y": -0.0153045654296875,
      "z": -0.0019073486328125,
      "time_usec": 1042840853868
    },
    {
      "x": -0.00592041015625,
      "y": -0.0206298828125,
      "z": 0.00341796875,
      "time_usec": 1042840857865
    },
    {
      "x": -0.0133819580078125,
      "y": -0.019561767578125,
      "z": 0.0098114013671875,
      "time_usec": 1042840861863
    },
    {
      "x": -0.0208282470703125,
      "y": -0.0142364501953125,
      "z": 0.0119476318359375,
      "time_usec": 1042840865861
    },
    {
      "x": -0.0208282470703125,
      "y": -0.009979248046875,
      "z": 0.0098114013671875,
      "time_usec": 1042840869828
    },
    {
      "x": -0.02935791015625,
      "y": -0.00677490234375,
      "z": 0.006622314453125,
      "time_usec": 1042840873826
    },
    {
      "x": -0.0357513427734375,
      "y": -3.814697265625E-4,
      "z": 0.00341796875,
      "time_usec": 1042840877824
    },
    {
      "x": -0.0357513427734375,
      "y": 0.00494384765625,
      "z": 0.0012969970703125,
      "time_usec": 1042840881791
    },
    {
      "x": -0.03680419921875,
      "y": 0.0092010498046875,
      "z": -8.392333984375E-4,
      "time_usec": 1042840885789
    },
    {
      "x": -0.0336151123046875,
      "y": 0.01666259765625,
      "z": -0.0019073486328125,
      "time_usec": 1042840889787
    },
    {
      "x": -0.0357513427734375,
      "y": 0.0209197998046875,
      "z": -0.005096435546875,
      "time_usec": 1042840893785
    },
    {
      "x": -0.0314788818359375,
      "y": 0.0262451171875,
      "z": -0.007232666015625,
      "time_usec": 1042840897752
    },
    {
      "x": -0.0240325927734375,
      "y": 0.027313232421875,
      "z": -0.00830078125,
      "time_usec": 1042840901750
    },
    {
      "x": -0.0218963623046875,
      "y": 0.027313232421875,
      "z": -0.0104217529296875,
      "time_usec": 1042840905748
    },
    {
      "x": -0.016571044921875,
      "y": 0.0262451171875,
      "z": -0.0104217529296875,
      "time_usec": 1042840909745
    },
    {
      "x": -0.002716064453125,
      "y": 0.025177001953125,
      "z": -0.007232666015625,
      "time_usec": 1042840913713
    },
    {
      "x": 0.0015411376953125,
      "y": 0.0230560302734375,
      "z": -0.0019073486328125,
      "time_usec": 1042840917710
    },
    {
      "x": 0.0121917724609375,
      "y": 0.01666259765625,
      "z": 0.0012969970703125,
      "time_usec": 1042840921708
    },
    {
      "x": 0.0143280029296875,
      "y": 0.0113372802734375,
      "z": 0.00341796875,
      "time_usec": 1042840925706
    },
    {
      "x": 0.0217742919921875,
      "y": 0.0102691650390625,
      "z": 0.00341796875,
      "time_usec": 1042840929673
    },
    {
      "x": 0.0313720703125,
      "y": 0.0081329345703125,
      "z": 0.0023651123046875,
      "time_usec": 1042840933671
    },
    {
      "x": 0.030303955078125,
      "y": 0.0081329345703125,
      "z": -0.0029754638671875,
      "time_usec": 1042840937669
    },
    {
      "x": 0.02923583984375,
      "y": 0.0081329345703125,
      "z": -0.007232666015625,
      "time_usec": 1042840941667
    },
    {
      "x": 0.02923583984375,
      "y": 0.0113372802734375,
      "z": -0.0104217529296875,
      "time_usec": 1042840945634
    },
    {
      "x": 0.0196533203125,
      "y": 0.01666259765625,
      "z": -0.0146942138671875,
      "time_usec": 1042840949662
    },
    {
      "x": 0.0121917724609375,
      "y": 0.0230560302734375,
      "z": -0.0114898681640625,
      "time_usec": 1042840953630
    },
    {
      "x": -0.0037841796875,
      "y": 0.02410888671875,
      "z": -0.0136260986328125,
      "time_usec": 1042840957627
    },
    {
      "x": -0.0123138427734375,
      "y": 0.025177001953125,
      "z": -0.0136260986328125,
      "time_usec": 1042840961595
    },
    {
      "x": -0.016571044921875,
      "y": 0.0219879150390625,
      "z": -0.0093536376953125,
      "time_usec": 1042840965593
    },
    {
      "x": -0.0240325927734375,
      "y": 0.0177154541015625,
      "z": -0.005096435546875,
      "time_usec": 1042840969590
    },
    {
      "x": -0.0314788818359375,
      "y": 0.0145263671875,
      "z": -0.0019073486328125,
      "time_usec": 1042840973588
    },
    {
      "x": -0.0240325927734375,
      "y": 0.0102691650390625,
      "z": 0.0023651123046875,
      "time_usec": 1042840977555
    },
    {
      "x": -0.028289794921875,
      "y": 0.001739501953125,
      "z": 0.0023651123046875,
      "time_usec": 1042840981553
    },
    {
      "x": -0.0208282470703125,
      "y": -0.0025177001953125,
      "z": 0.0023651123046875,
      "time_usec": 1042840985551
    },
    {
      "x": -0.0197601318359375,
      "y": -0.007843017578125,
      "z": 0.0023651123046875,
      "time_usec": 1042840989518
    },
    {
      "x": -0.018707275390625,
      "y": -0.009979248046875,
      "z": 0.0023651123046875,
      "time_usec": 1042840993516
    },
    {
      "x": -0.0101776123046875,
      "y": -0.0121002197265625,
      "z": 0.004486083984375,
      "time_usec": 1042840997514
    },
    {
      "x": -0.0091094970703125,
      "y": -0.0142364501953125,
      "z": 0.00555419921875,
      "time_usec": 1042841001512
    },
    {
      "x": -0.0080413818359375,
      "y": -0.0131683349609375,
      "z": 0.0108795166015625,
      "time_usec": 1042841005510
    },
    {
      "x": -5.950927734375E-4,
      "y": -0.009979248046875,
      "z": 0.014068603515625,
      "time_usec": 1042841009477
    },
    {
      "x": 0.0015411376953125,
      "y": -0.0089111328125,
      "z": 0.016204833984375,
      "time_usec": 1042841013475
    },
    {
      "x": 0.0026092529296875,
      "y": -0.0089111328125,
      "z": 0.0194091796875,
      "time_usec": 1042841017442
    },
    {
      "x": 4.730224609375E-4,
      "y": -0.0035858154296875,
      "z": 0.0194091796875,
      "time_usec": 1042841021440
    },
    {
      "x": 0.0026092529296875,
      "y": 0.001739501953125,
      "z": 0.014068603515625,
      "time_usec": 1042841025437
    },
    {
      "x": 0.006866455078125,
      "y": 0.001739501953125,
      "z": 0.0098114013671875,
      "time_usec": 1042841029435
    },
    {
      "x": 0.00579833984375,
      "y": -0.0025177001953125,
      "z": 0.004486083984375,
      "time_usec": 1042841033403
    },
    {
      "x": 0.006866455078125,
      "y": -3.814697265625E-4,
      "z": -8.392333984375E-4,
      "time_usec": 1042841037400
    },
    {
      "x": 0.016448974609375,
      "y": -0.0014495849609375,
      "z": -0.0040283203125,
      "time_usec": 1042841041398
    },
    {
      "x": 0.016448974609375,
      "y": -0.0046539306640625,
      "z": -0.005096435546875,
      "time_usec": 1042841045396
    },
    {
      "x": 0.01751708984375,
      "y": -0.00677490234375,
      "z": -0.005096435546875,
      "time_usec": 1042841049363
    },
    {
      "x": 0.0196533203125,
      "y": -0.00677490234375,
      "z": -0.00616455078125,
      "time_usec": 1042841053361
    },
    {
      "x": 0.020721435546875,
      "y": -0.005706787109375,
      "z": -0.0093536376953125,
      "time_usec": 1042841057359
    },
    {
      "x": 0.028167724609375,
      "y": -0.0014495849609375,
      "z": -0.0093536376953125,
      "time_usec": 1042841061326
    },
    {
      "x": 0.0239105224609375,
      "y": 0.001739501953125,
      "z": -0.0104217529296875,
      "time_usec": 1042841065324
    },
    {
      "x": 0.0239105224609375,
      "y": 0.0081329345703125,
      "z": -0.0114898681640625,
      "time_usec": 1042841069322
    },
    {
      "x": 0.028167724609375,
      "y": 0.015594482421875,
      "z": -0.0125579833984375,
      "time_usec": 1042841073320
    },
    {
      "x": 0.0239105224609375,
      "y": 0.0187835693359375,
      "z": -0.0146942138671875,
      "time_usec": 1042841077287
    },
    {
      "x": 0.018585205078125,
      "y": 0.025177001953125,
      "z": -0.016815185546875,
      "time_usec": 1042841081285
    },
    {
      "x": 0.015380859375,
      "y": 0.02838134765625,
      "z": -0.0146942138671875,
      "time_usec": 1042841085282
    },
    {
      "x": 0.0143280029296875,
      "y": 0.0326385498046875,
      "z": -0.0146942138671875,
      "time_usec": 1042841089280
    },
    {
      "x": 0.015380859375,
      "y": 0.034759521484375,
      "z": -0.007232666015625,
      "time_usec": 1042841093248
    },
    {
      "x": 0.0121917724609375,
      "y": 0.0379638671875,
      "z": -0.0029754638671875,
      "time_usec": 1042841097245
    },
    {
      "x": 0.009002685546875,
      "y": 0.04010009765625,
      "z": 0.004486083984375,
      "time_usec": 1042841101243
    },
    {
      "x": 0.0143280029296875,
      "y": 0.0422210693359375,
      "z": 0.0087432861328125,
      "time_usec": 1042841105241
    },
    {
      "x": 0.015380859375,
      "y": 0.0443572998046875,
      "z": 0.0119476318359375,
      "time_usec": 1042841109208
    },
    {
      "x": 0.009002685546875,
      "y": 0.0443572998046875,
      "z": 0.0098114013671875,
      "time_usec": 1042841113206
    },
    {
      "x": 0.006866455078125,
      "y": 0.0422210693359375,
      "z": 0.0098114013671875,
      "time_usec": 1042841117204
    },
    {
      "x": -5.950927734375E-4,
      "y": 0.0411529541015625,
      "z": 0.0108795166015625,
      "time_usec": 1042841121202
    },
    {
      "x": -0.004852294921875,
      "y": 0.03582763671875,
      "z": 0.014068603515625,
      "time_usec": 1042841125169
    },
    {
      "x": -0.0133819580078125,
      "y": 0.0305023193359375,
      "z": 0.0108795166015625,
      "time_usec": 1042841129167
    },
    {
      "x": -0.0197601318359375,
      "y": 0.0262451171875,
      "z": 0.0119476318359375,
      "time_usec": 1042841133165
    },
    {
      "x": -0.018707275390625,
      "y": 0.0209197998046875,
      "z": 0.0119476318359375,
      "time_usec": 1042841137162
    },
    {
      "x": -0.01763916015625,
      "y": 0.0177154541015625,
      "z": 0.0098114013671875,
      "time_usec": 1042841141130
    },
    {
      "x": -0.0218963623046875,
      "y": 0.015594482421875,
      "z": 0.0098114013671875,
      "time_usec": 1042841145127
    },
    {
      "x": -0.018707275390625,
      "y": 0.01239013671875,
      "z": 0.0087432861328125,
      "time_usec": 1042841149125
    },
    {
      "x": -0.014434814453125,
      "y": 0.0092010498046875,
      "z": 0.0076904296875,
      "time_usec": 1042841153123
    },
    {
      "x": -0.0080413818359375,
      "y": 0.006011962890625,
      "z": 0.0076904296875,
      "time_usec": 1042841157090
    },
    {
      "x": -0.0080413818359375,
      "y": 0.0028076171875,
      "z": 0.006622314453125,
      "time_usec": 1042841161088
    },
    {
      "x": -0.0112457275390625,
      "y": 0.001739501953125,
      "z": 0.006622314453125,
      "time_usec": 1042841165086
    },
    {
      "x": -0.004852294921875,
      "y": 6.7138671875E-4,
      "z": 0.0087432861328125,
      "time_usec": 1042841169053
    },
    {
      "x": -0.002716064453125,
      "y": -0.0046539306640625,
      "z": 0.0087432861328125,
      "time_usec": 1042841173051
    },
    {
      "x": -0.002716064453125,
      "y": -0.0014495849609375,
      "z": 0.0076904296875,
      "time_usec": 1042841177049
    },
    {
      "x": 0.00579833984375,
      "y": 0.001739501953125,
      "z": 0.006622314453125,
      "time_usec": 1042841181047
    },
    {
      "x": 0.009002685546875,
      "y": 0.001739501953125,
      "z": 0.00341796875,
      "time_usec": 1042841185014
    },
    {
      "x": 0.0100555419921875,
      "y": 0.0028076171875,
      "z": 0.0023651123046875,
      "time_usec": 1042841189012
    },
    {
      "x": 0.0111236572265625,
      "y": 0.006011962890625,
      "z": -8.392333984375E-4,
      "time_usec": 1042841193010
    },
    {
      "x": 0.0111236572265625,
      "y": 0.0081329345703125,
      "z": -0.005096435546875,
      "time_usec": 1042841196977
    },
    {
      "x": 0.009002685546875,
      "y": 0.0092010498046875,
      "z": -0.007232666015625,
      "time_usec": 1042841200975
    },
    {
      "x": 0.006866455078125,
      "y": 0.01239013671875,
      "z": -0.0104217529296875,
      "time_usec": 1042841204972
    },
    {
      "x": 0.00579833984375,
      "y": 0.0113372802734375,
      "z": -0.0125579833984375,
      "time_usec": 1042841208970
    },
    {
      "x": 0.009002685546875,
      "y": 0.013458251953125,
      "z": -0.0136260986328125,
      "time_usec": 1042841212937
    },
    {
      "x": 0.0132598876953125,
      "y": 0.0177154541015625,
      "z": -0.0146942138671875,
      "time_usec": 1042841216935
    },
    {
      "x": 0.0121917724609375,
      "y": 0.0198516845703125,
      "z": -0.0157470703125,
      "time_usec": 1042841220933
    },
    {
      "x": 0.016448974609375,
      "y": 0.0230560302734375,
      "z": -0.01788330078125,
      "time_usec": 1042841224900
    },
    {
      "x": 0.020721435546875,
      "y": 0.0262451171875,
      "z": -0.02001953125,
      "time_usec": 1042841228898
    },
    {
      "x": 0.0249786376953125,
      "y": 0.02410888671875,
      "z": -0.0232086181640625,
      "time_usec": 1042841232896
    },
    {
      "x": 0.020721435546875,
      "y": 0.0219879150390625,
      "z": -0.0253448486328125,
      "time_usec": 1042841236894
    },
    {
      "x": 0.020721435546875,
      "y": 0.0209197998046875,
      "z": -0.0253448486328125,
      "time_usec": 1042841240861
    },
    {
      "x": 0.018585205078125,
      "y": 0.0187835693359375,
      "z": -0.0242767333984375,
      "time_usec": 1042841244859
    },
    {
      "x": 0.015380859375,
      "y": 0.01666259765625,
      "z": -0.02001953125,
      "time_usec": 1042841248857
    },
    {
      "x": 0.015380859375,
      "y": 0.013458251953125,
      "z": -0.0146942138671875,
      "time_usec": 1042841252824
    },
    {
      "x": 0.0132598876953125,
      "y": 0.01239013671875,
      "z": -0.0125579833984375,
      "time_usec": 1042841256822
    },
    {
      "x": 0.0121917724609375,
      "y": 0.003875732421875,
      "z": -0.0093536376953125,
      "time_usec": 1042841260820
    },
    {
      "x": 0.0143280029296875,
      "y": 6.7138671875E-4,
      "z": -0.005096435546875,
      "time_usec": 1042841264817
    },
    {
      "x": 0.0143280029296875,
      "y": -0.0046539306640625,
      "z": -0.0029754638671875,
      "time_usec": 1042841268785
    },
    {
      "x": 0.0143280029296875,
      "y": -0.009979248046875,
      "z": 0.0012969970703125,
      "time_usec": 1042841272782
    },
    {
      "x": 0.0143280029296875,
      "y": -0.0142364501953125,
      "z": 0.00555419921875,
      "time_usec": 1042841276780
    },
    {
      "x": 0.0121917724609375,
      "y": -0.0206298828125,
      "z": 0.0087432861328125,
      "time_usec": 1042841280748
    },
    {
      "x": 0.0079345703125,
      "y": -0.0248870849609375,
      "z": 0.0130157470703125,
      "time_usec": 1042841284745
    },
    {
      "x": 0.00579833984375,
      "y": -0.0280914306640625,
      "z": 0.014068603515625,
      "time_usec": 1042841288743
    },
    {
      "x": 0.0026092529296875,
      "y": -0.03021240234375,
      "z": 0.01727294921875,
      "time_usec": 1042841292710
    },
    {
      "x": 4.730224609375E-4,
      "y": -0.029144287109375,
      "z": 0.0225982666015625,
      "time_usec": 1042841296708
    },
    {
      "x": 0.004730224609375,
      "y": -0.0259552001953125,
      "z": 0.0247344970703125,
      "time_usec": 1042841300706
    },
    {
      "x": 0.006866455078125,
      "y": -0.0227508544921875,
      "z": 0.0247344970703125,
      "time_usec": 1042841304704
    },
    {
      "x": 0.0111236572265625,
      "y": -0.01849365234375,
      "z": 0.0247344970703125,
      "time_usec": 1042841308671
    },
    {
      "x": 0.01751708984375,
      "y": -0.0153045654296875,
      "z": 0.0215301513671875,
      "time_usec": 1042841312669
    },
    {
      "x": 0.0249786376953125,
      "y": -0.005706787109375,
      "z": 0.018341064453125,
      "time_usec": 1042841316667
    },
    {
      "x": 0.030303955078125,
      "y": -0.0025177001953125,
      "z": 0.0119476318359375,
      "time_usec": 1042841320665
    },
    {
      "x": 0.0366973876953125,
      "y": 0.0028076171875,
      "z": 0.006622314453125,
      "time_usec": 1042841324632
    },
    {
      "x": 0.04095458984375,
      "y": 0.006011962890625,
      "z": 0.0023651123046875,
      "time_usec": 1042841328630
    },
    {
      "x": 0.0430908203125,
      "y": 0.0081329345703125,
      "z": -8.392333984375E-4,
      "time_usec": 1042841332627
    },
    {
      "x": 0.04095458984375,
      "y": 0.0070648193359375,
      "z": -0.0040283203125,
      "time_usec": 1042841336595
    },
    {
      "x": 0.038818359375,
      "y": 0.01239013671875,
      "z": -0.005096435546875,
      "time_usec": 1042841340593
    },
    {
      "x": 0.042022705078125,
      "y": 0.0145263671875,
      "z": -0.00616455078125,
      "time_usec": 1042841344590
    },
    {
      "x": 0.039886474609375,
      "y": 0.0177154541015625,
      "z": -0.00830078125,
      "time_usec": 1042841348558
    },
    {
      "x": 0.042022705078125,
      "y": 0.0209197998046875,
      "z": -0.0093536376953125,
      "time_usec": 1042841352555
    },
    {
      "x": 0.042022705078125,
      "y": 0.0230560302734375,
      "z": -0.0125579833984375,
      "time_usec": 1042841356553
    },
    {
      "x": 0.04095458984375,
      "y": 0.0198516845703125,
      "z": -0.0146942138671875,
      "time_usec": 1042841360551
    },
    {
      "x": 0.039886474609375,
      "y": 0.0177154541015625,
      "z": -0.018951416015625,
      "time_usec": 1042841364518
    },
    {
      "x": 0.0356292724609375,
      "y": 0.0177154541015625,
      "z": -0.018951416015625,
      "time_usec": 1042841368516
    },
    {
      "x": 0.0356292724609375,
      "y": 0.013458251953125,
      "z": -0.016815185546875,
      "time_usec": 1042841372514
    },
    {
      "x": 0.0366973876953125,
      "y": 0.01239013671875,
      "z": -0.0157470703125,
      "time_usec": 1042841376512
    },
    {
      "x": 0.030303955078125,
      "y": 0.0113372802734375,
      "z": -0.0125579833984375,
      "time_usec": 1042841380479
    },
    {
      "x": 0.027099609375,
      "y": 0.0092010498046875,
      "z": -0.0093536376953125,
      "time_usec": 1042841384477
    },
    {
      "x": 0.0260467529296875,
      "y": 0.0113372802734375,
      "z": -0.00830078125,
      "time_usec": 1042841388444
    },
    {
      "x": 0.0228424072265625,
      "y": 0.0145263671875,
      "z": -0.00830078125,
      "time_usec": 1042841392442
    },
    {
      "x": 0.018585205078125,
      "y": 0.015594482421875,
      "z": -0.00830078125,
      "time_usec": 1042841396440
    },
    {
      "x": 0.018585205078125,
      "y": 0.0145263671875,
      "z": -0.0093536376953125,
      "time_usec": 1042841400437
    },
    {
      "x": 0.0196533203125,
      "y": 0.013458251953125,
      "z": -0.0125579833984375,
      "time_usec": 1042841404405
    },
    {
      "x": 0.0196533203125,
      "y": 0.0113372802734375,
      "z": -0.0125579833984375,
      "time_usec": 1042841408403
    },
    {
      "x": 0.0196533203125,
      "y": 0.0081329345703125,
      "z": -0.0136260986328125,
      "time_usec": 1042841412400
    },
    {
      "x": 0.018585205078125,
      "y": 0.003875732421875,
      "z": -0.0157470703125,
      "time_usec": 1042841416368
    },
    {
      "x": 0.020721435546875,
      "y": 0.001739501953125,
      "z": -0.0157470703125,
      "time_usec": 1042841420365
    },
    {
      "x": 0.0217742919921875,
      "y": 0.0028076171875,
      "z": -0.0146942138671875,
      "time_usec": 1042841424363
    },
    {
      "x": 0.0228424072265625,
      "y": -0.0014495849609375,
      "z": -0.0136260986328125,
      "time_usec": 1042841428331
    },
    {
      "x": 0.027099609375,
      "y": -0.0014495849609375,
      "z": -0.0136260986328125,
      "time_usec": 1042841432328
    },
    {
      "x": 0.028167724609375,
      "y": -0.00677490234375,
      "z": -0.0125579833984375,
      "time_usec": 1042841436326
    },
    {
      "x": 0.0313720703125,
      "y": -0.009979248046875,
      "z": -0.007232666015625,
      "time_usec": 1042841440324
    },
    {
      "x": 0.030303955078125,
      "y": -0.0121002197265625,
      "z": -0.00830078125,
      "time_usec": 1042841444291
    },
    {
      "x": 0.030303955078125,
      "y": -0.0163726806640625,
      "z": -0.00830078125,
      "time_usec": 1042841448289
    },
    {
      "x": 0.02923583984375,
      "y": -0.0227508544921875,
      "z": -0.007232666015625,
      "time_usec": 1042841452287
    },
    {
      "x": 0.0260467529296875,
      "y": -0.03021240234375,
      "z": -0.0093536376953125,
      "time_usec": 1042841456254
    },
    {
      "x": 0.0228424072265625,
      "y": -0.0323486328125,
      "z": -0.0093536376953125,
      "time_usec": 1042841460252
    },
    {
      "x": 0.020721435546875,
      "y": -0.0366058349609375,
      "z": -0.007232666015625,
      "time_usec": 1042841464250
    },
    {
      "x": 0.01751708984375,
      "y": -0.0387420654296875,
      "z": -0.00616455078125,
      "time_usec": 1042841468248
    },
    {
      "x": 0.0121917724609375,
      "y": -0.039794921875,
      "z": -0.0019073486328125,
      "time_usec": 1042841472703
    },
    {
      "x": 0.009002685546875,
      "y": -0.0355377197265625,
      "z": 0.0012969970703125,
      "time_usec": 1042841480210
    },
    {
      "x": 0.0079345703125,
      "y": -0.033416748046875,
      "z": -8.392333984375E-4,
      "time_usec": 1042841484178
    },
    {
      "x": 0.0100555419921875,
      "y": -0.0280914306640625,
      "z": 2.288818359375E-4,
      "time_usec": 1042841488176
    },
    {
      "x": 0.0100555419921875,
      "y": -0.0227508544921875,
      "z": -0.0019073486328125,
      "time_usec": 1042841492173
    },
    {
      "x": 0.009002685546875,
      "y": -0.017425537109375,
      "z": -0.0040283203125,
      "time_usec": 1042841496171
    },
    {
      "x": 0.009002685546875,
      "y": -0.0121002197265625,
      "z": -0.00830078125,
      "time_usec": 1042841500138
    },
    {
      "x": 0.006866455078125,
      "y": -0.0089111328125,
      "z": -0.0114898681640625,
      "time_usec": 1042841504136
    },
    {
      "x": 0.0079345703125,
      "y": -0.00677490234375,
      "z": -0.0125579833984375,
      "time_usec": 1042841508134
    },
    {
      "x": 0.0100555419921875,
      "y": -0.0035858154296875,
      "z": -0.0114898681640625,
      "time_usec": 1042841512101
    },
    {
      "x": 0.009002685546875,
      "y": -0.0014495849609375,
      "z": -0.0114898681640625,
      "time_usec": 1042841516099
    },
    {
      "x": 0.0079345703125,
      "y": 0.001739501953125,
      "z": -0.0114898681640625,
      "time_usec": 1042841520097
    },
    {
      "x": 0.00579833984375,
      "y": 0.001739501953125,
      "z": -0.0125579833984375,
      "time_usec": 1042841524064
    },
    {
      "x": 0.004730224609375,
      "y": 0.001739501953125,
      "z": -0.0136260986328125,
      "time_usec": 1042841528062
    },
    {
      "x": -5.950927734375E-4,
      "y": 0.001739501953125,
      "z": -0.0136260986328125,
      "time_usec": 1042841532060
    },
    {
      "x": -0.006988525390625,
      "y": 6.7138671875E-4,
      "z": -0.0157470703125,
      "time_usec": 1042841536058
    },
    {
      "x": -0.0112457275390625,
      "y": 6.7138671875E-4,
      "z": -0.0146942138671875,
      "time_usec": 1042841540025
    },
    {
      "x": -0.0155029296875,
      "y": 6.7138671875E-4,
      "z": -0.0146942138671875,
      "time_usec": 1042841544023
    },
    {
      "x": -0.016571044921875,
      "y": -0.0014495849609375,
      "z": -0.0125579833984375,
      "time_usec": 1042841548020
    },
    {
      "x": -0.016571044921875,
      "y": -0.0014495849609375,
      "z": -0.0093536376953125,
      "time_usec": 1042841552018
    },
    {
      "x": -0.0123138427734375,
      "y": 0.001739501953125,
      "z": -0.0093536376953125,
      "time_usec": 1042841555986
    },
    {
      "x": -0.0123138427734375,
      "y": 0.001739501953125,
      "z": -0.00830078125,
      "time_usec": 1042841559983
    },
    {
      "x": -0.0101776123046875,
      "y": 0.00494384765625,
      "z": -0.007232666015625,
      "time_usec": 1042841563981
    },
    {
      "x": -0.006988525390625,
      "y": 0.003875732421875,
      "z": -0.00616455078125,
      "time_usec": 1042841567948
    },
    {
      "x": -0.00592041015625,
      "y": 0.003875732421875,
      "z": -0.005096435546875,
      "time_usec": 1042841571946
    },
    {
      "x": -0.0016632080078125,
      "y": -3.814697265625E-4,
      "z": -0.0019073486328125,
      "time_usec": 1042841575944
    },
    {
      "x": 4.730224609375E-4,
      "y": -0.0025177001953125,
      "z": 2.288818359375E-4,
      "time_usec": 1042841579942
    },
    {
      "x": 0.0015411376953125,
      "y": -0.0089111328125,
      "z": 2.288818359375E-4,
      "time_usec": 1042841583909
    },
    {
      "x": 0.0015411376953125,
      "y": -0.0131683349609375,
      "z": 0.00341796875,
      "time_usec": 1042841587907
    },
    {
      "x": -0.0037841796875,
      "y": -0.019561767578125,
      "z": 0.00555419921875,
      "time_usec": 1042841591905
    },
    {
      "x": -0.0037841796875,
      "y": -0.0206298828125,
      "z": 0.004486083984375,
      "time_usec": 1042841595872
    },
    {
      "x": -0.00592041015625,
      "y": -0.0206298828125,
      "z": 0.0076904296875,
      "time_usec": 1042841599870
    },
    {
      "x": -0.0091094970703125,
      "y": -0.01849365234375,
      "z": 0.004486083984375,
      "time_usec": 1042841603868
    },
    {
      "x": -0.0101776123046875,
      "y": -0.0121002197265625,
      "z": 0.00555419921875,
      "time_usec": 1042841607865
    },
    {
      "x": -0.0112457275390625,
      "y": -0.0089111328125,
      "z": 0.0023651123046875,
      "time_usec": 1042841611833
    },
    {
      "x": -0.0123138427734375,
      "y": -0.0046539306640625,
      "z": -0.0029754638671875,
      "time_usec": 1042841615831
    },
    {
      "x": -0.014434814453125,
      "y": -3.814697265625E-4,
      "z": -0.0040283203125,
      "time_usec": 1042841619841
    },
    {
      "x": -0.016571044921875,
      "y": 0.001739501953125,
      "z": -0.00830078125,
      "time_usec": 1042841623808
    },
    {
      "x": -0.016571044921875,
      "y": 0.001739501953125,
      "z": -0.0104217529296875,
      "time_usec": 1042841627806
    },
    {
      "x": -0.01763916015625,
      "y": 6.7138671875E-4,
      "z": -0.0146942138671875,
      "time_usec": 1042841631803
    },
    {
      "x": -0.018707275390625,
      "y": -0.0046539306640625,
      "z": -0.016815185546875,
      "time_usec": 1042841635801
    },
    {
      "x": -0.014434814453125,
      "y": -0.0089111328125,
      "z": -0.016815185546875,
      "time_usec": 1042841639799
    },
    {
      "x": -0.014434814453125,
      "y": -0.0131683349609375,
      "z": -0.02001953125,
      "time_usec": 1042841643766
    },
    {
      "x": -0.0112457275390625,
      "y": -0.01849365234375,
      "z": -0.01788330078125,
      "time_usec": 1042841647764
    },
    {
      "x": -0.0112457275390625,
      "y": -0.019561767578125,
      "z": -0.016815185546875,
      "time_usec": 1042841651762
    },
    {
      "x": -0.014434814453125,
      "y": -0.01849365234375,
      "z": -0.0157470703125,
      "time_usec": 1042841655729
    },
    {
      "x": -0.014434814453125,
      "y": -0.017425537109375,
      "z": -0.0157470703125,
      "time_usec": 1042841659727
    },
    {
      "x": -0.01763916015625,
      "y": -0.0163726806640625,
      "z": -0.0157470703125,
      "time_usec": 1042841663725
    },
    {
      "x": -0.0218963623046875,
      "y": -0.0131683349609375,
      "z": -0.0136260986328125,
      "time_usec": 1042841667723
    },
    {
      "x": -0.02508544921875,
      "y": -0.01104736328125,
      "z": -0.0136260986328125,
      "time_usec": 1042841671690
    },
    {
      "x": -0.0272216796875,
      "y": -0.0035858154296875,
      "z": -0.0136260986328125,
      "time_usec": 1042841675688
    },
    {
      "x": -0.0272216796875,
      "y": -3.814697265625E-4,
      "z": -0.0114898681640625,
      "time_usec": 1042841679685
    },
    {
      "x": -0.0229644775390625,
      "y": 0.006011962890625,
      "z": -0.0114898681640625,
      "time_usec": 1042841683653
    },
    {
      "x": -0.018707275390625,
      "y": 0.0092010498046875,
      "z": -0.0104217529296875,
      "time_usec": 1042841687651
    },
    {
      "x": -0.0155029296875,
      "y": 0.0198516845703125,
      "z": -0.00830078125,
      "time_usec": 1042841691648
    },
    {
      "x": -0.0123138427734375,
      "y": 0.02410888671875,
      "z": -0.007232666015625,
      "time_usec": 1042841695646
    },
    {
      "x": -0.0101776123046875,
      "y": 0.0305023193359375,
      "z": -0.0029754638671875,
      "time_usec": 1042841699613
    },
    {
      "x": -0.0123138427734375,
      "y": 0.0326385498046875,
      "z": -0.0019073486328125,
      "time_usec": 1042841703611
    },
    {
      "x": -0.0133819580078125,
      "y": 0.0379638671875,
      "z": 0.0012969970703125,
      "time_usec": 1042841707609
    },
    {
      "x": -0.0123138427734375,
      "y": 0.039031982421875,
      "z": 0.00341796875,
      "time_usec": 1042841711607
    },
    {
      "x": -0.0155029296875,
      "y": 0.04010009765625,
      "z": 0.004486083984375,
      "time_usec": 1042841715574
    },
    {
      "x": -0.018707275390625,
      "y": 0.04010009765625,
      "z": 0.004486083984375,
      "time_usec": 1042841719572
    },
    {
      "x": -0.018707275390625,
      "y": 0.036895751953125,
      "z": 0.00341796875,
      "time_usec": 1042841723570
    },
    {
      "x": -0.016571044921875,
      "y": 0.0337066650390625,
      "z": 0.004486083984375,
      "time_usec": 1042841727537
    },
    {
      "x": -0.0133819580078125,
      "y": 0.0262451171875,
      "z": 0.006622314453125,
      "time_usec": 1042841731535
    },
    {
      "x": -0.0133819580078125,
      "y": 0.0177154541015625,
      "z": 0.006622314453125,
      "time_usec": 1042841735533
    },
    {
      "x": -0.0101776123046875,
      "y": 0.0177154541015625,
      "z": 0.00555419921875,
      "time_usec": 1042841739530
    },
    {
      "x": -0.0112457275390625,
      "y": 0.013458251953125,
      "z": 0.006622314453125,
      "time_usec": 1042841743498
    },
    {
      "x": -0.0133819580078125,
      "y": 0.0070648193359375,
      "z": 0.0076904296875,
      "time_usec": 1042841747496
    },
    {
      "x": -0.016571044921875,
      "y": 0.0028076171875,
      "z": 0.00555419921875,
      "time_usec": 1042841751493
    },
    {
      "x": -0.01763916015625,
      "y": -0.0025177001953125,
      "z": 0.0076904296875,
      "time_usec": 1042841755491
    },
    {
      "x": -0.0208282470703125,
      "y": -3.814697265625E-4,
      "z": 0.0076904296875,
      "time_usec": 1042841759458
    },
    {
      "x": -0.0208282470703125,
      "y": -0.0014495849609375,
      "z": 0.0076904296875,
      "time_usec": 1042841763456
    },
    {
      "x": -0.0197601318359375,
      "y": -0.0046539306640625,
      "z": 0.004486083984375,
      "time_usec": 1042841767454
    },
    {
      "x": -0.0197601318359375,
      "y": -0.0089111328125,
      "z": 0.00555419921875,
      "time_usec": 1042841771421
    },
    {
      "x": -0.0218963623046875,
      "y": -0.0089111328125,
      "z": 0.006622314453125,
      "time_usec": 1042841775419
    },
    {
      "x": -0.018707275390625,
      "y": -0.007843017578125,
      "z": 0.0076904296875,
      "time_usec": 1042841779417
    },
    {
      "x": -0.01763916015625,
      "y": -0.00677490234375,
      "z": 0.0087432861328125,
      "time_usec": 1042841783415
    },
    {
      "x": -0.016571044921875,
      "y": -3.814697265625E-4,
      "z": 0.0076904296875,
      "time_usec": 1042841787382
    },
    {
      "x": -0.016571044921875,
      "y": 0.0081329345703125,
      "z": 0.0076904296875,
      "time_usec": 1042841791380
    },
    {
      "x": -0.0155029296875,
      "y": 0.01239013671875,
      "z": 0.004486083984375,
      "time_usec": 1042841795378
    },
    {
      "x": -0.016571044921875,
      "y": 0.01666259765625,
      "z": 0.00555419921875,
      "time_usec": 1042841799375
    },
    {
      "x": -0.0155029296875,
      "y": 0.02410888671875,
      "z": 0.00555419921875,
      "time_usec": 1042841803343
    },
    {
      "x": -0.0155029296875,
      "y": 0.0305023193359375,
      "z": 0.00555419921875,
      "time_usec": 1042841807341
    },
    {
      "x": -0.0133819580078125,
      "y": 0.0379638671875,
      "z": 0.00555419921875,
      "time_usec": 1042841811338
    },
    {
      "x": -0.0112457275390625,
      "y": 0.046478271484375,
      "z": 0.0076904296875,
      "time_usec": 1042841815306
    },
    {
      "x": -0.0112457275390625,
      "y": 0.0528717041015625,
      "z": 0.0087432861328125,
      "time_usec": 1042841819303
    },
    {
      "x": -0.006988525390625,
      "y": 0.05926513671875,
      "z": 0.0087432861328125,
      "time_usec": 1042841823301
    },
    {
      "x": -0.004852294921875,
      "y": 0.0635223388671875,
      "z": 0.0098114013671875,
      "time_usec": 1042841827299
    },
    {
      "x": -0.002716064453125,
      "y": 0.0635223388671875,
      "z": 0.016204833984375,
      "time_usec": 1042841831266
    },
    {
      "x": -0.0016632080078125,
      "y": 0.0656585693359375,
      "z": 0.018341064453125,
      "time_usec": 1042841835264
    },
    {
      "x": -5.950927734375E-4,
      "y": 0.0677947998046875,
      "z": 0.0194091796875,
      "time_usec": 1042841839262
    },
    {
      "x": 4.730224609375E-4,
      "y": 0.06884765625,
      "z": 0.0215301513671875,
      "time_usec": 1042841843229
    },
    {
      "x": -0.0016632080078125,
      "y": 0.07098388671875,
      "z": 0.0194091796875,
      "time_usec": 1042841847227
    },
    {
      "x": -0.0016632080078125,
      "y": 0.0731201171875,
      "z": 0.018341064453125,
      "time_usec": 1042841851225
    },
    {
      "x": -0.0016632080078125,
      "y": 0.0731201171875,
      "z": 0.018341064453125,
      "time_usec": 1042841855223
    },
    {
      "x": -0.004852294921875,
      "y": 0.074188232421875,
      "z": 0.01727294921875,
      "time_usec": 1042841859190
    },
    {
      "x": -0.0091094970703125,
      "y": 0.074188232421875,
      "z": 0.014068603515625,
      "time_usec": 1042841863188
    },
    {
      "x": -0.0101776123046875,
      "y": 0.0731201171875,
      "z": 0.01513671875,
      "time_usec": 1042841867185
    },
    {
      "x": -0.0133819580078125,
      "y": 0.0752410888671875,
      "z": 0.014068603515625,
      "time_usec": 1042841871153
    },
    {
      "x": -0.0133819580078125,
      "y": 0.074188232421875,
      "z": 0.01513671875,
      "time_usec": 1042841875517
    },
    {
      "x": -0.0123138427734375,
      "y": 0.0752410888671875,
      "z": 0.016204833984375,
      "time_usec": 1042841883116
    },
    {
      "x": -0.0101776123046875,
      "y": 0.0752410888671875,
      "z": 0.0204620361328125,
      "time_usec": 1042841887113
    },
    {
      "x": -0.0101776123046875,
      "y": 0.074188232421875,
      "z": 0.0215301513671875,
      "time_usec": 1042841891111
    },
    {
      "x": -0.0101776123046875,
      "y": 0.0752410888671875,
      "z": 0.025787353515625,
      "time_usec": 1042841895109
    },
    {
      "x": -0.0101776123046875,
      "y": 0.074188232421875,
      "z": 0.02899169921875,
      "time_usec": 1042841899076
    },
    {
      "x": -0.0101776123046875,
      "y": 0.0731201171875,
      "z": 0.02899169921875,
      "time_usec": 1042841903074
    },
    {
      "x": -0.0091094970703125,
      "y": 0.074188232421875,
      "z": 0.030059814453125,
      "time_usec": 1042841907072
    },
    {
      "x": -0.004852294921875,
      "y": 0.0763092041015625,
      "z": 0.0321807861328125,
      "time_usec": 1042841911039
    },
    {
      "x": -5.950927734375E-4,
      "y": 0.0752410888671875,
      "z": 0.0343170166015625,
      "time_usec": 1042841915037
    },
    {
      "x": -5.950927734375E-4,
      "y": 0.0731201171875,
      "z": 0.0343170166015625,
      "time_usec": 1042841919035
    },
    {
      "x": 0.004730224609375,
      "y": 0.07098388671875,
      "z": 0.0343170166015625,
      "time_usec": 1042841923033
    },
    {
      "x": 0.006866455078125,
      "y": 0.069915771484375,
      "z": 0.0311126708984375,
      "time_usec": 1042841927000
    },
    {
      "x": 0.006866455078125,
      "y": 0.07098388671875,
      "z": 0.02899169921875,
      "time_usec": 1042841930998
    },
    {
      "x": 0.004730224609375,
      "y": 0.0667266845703125,
      "z": 0.025787353515625,
      "time_usec": 1042841934996
    },
    {
      "x": 0.004730224609375,
      "y": 0.0656585693359375,
      "z": 0.0225982666015625,
      "time_usec": 1042841938963
    },
    {
      "x": -5.950927734375E-4,
      "y": 0.0614013671875,
      "z": 0.0194091796875,
      "time_usec": 1042841942961
    },
    {
      "x": -0.004852294921875,
      "y": 0.05926513671875,
      "z": 0.0194091796875,
      "time_usec": 1042841946958
    },
    {
      "x": -0.014434814453125,
      "y": 0.058197021484375,
      "z": 0.0194091796875,
      "time_usec": 1042841950956
    },
    {
      "x": -0.0197601318359375,
      "y": 0.05926513671875,
      "z": 0.0194091796875,
      "time_usec": 1042841954924
    },
    {
      "x": -0.0240325927734375,
      "y": 0.060333251953125,
      "z": 0.01727294921875,
      "time_usec": 1042841958921
    },
    {
      "x": -0.02935791015625,
      "y": 0.062469482421875,
      "z": 0.0119476318359375,
      "time_usec": 1042841962919
    },
    {
      "x": -0.0325469970703125,
      "y": 0.0667266845703125,
      "z": 0.006622314453125,
      "time_usec": 1042841966886
    },
    {
      "x": -0.0325469970703125,
      "y": 0.0731201171875,
      "z": 0.004486083984375,
      "time_usec": 1042841970884
    },
    {
      "x": -0.030426025390625,
      "y": 0.0784454345703125,
      "z": 0.0012969970703125,
      "time_usec": 1042841974882
    },
    {
      "x": -0.02935791015625,
      "y": 0.0848388671875,
      "z": -8.392333984375E-4,
      "time_usec": 1042841978880
    },
    {
      "x": -0.0272216796875,
      "y": 0.0901641845703125,
      "z": -0.0029754638671875,
      "time_usec": 1042841982847
    },
    {
      "x": -0.02935791015625,
      "y": 0.0965576171875,
      "z": -0.0040283203125,
      "time_usec": 1042841986845
    },
    {
      "x": -0.02935791015625,
      "y": 0.1029510498046875,
      "z": -0.007232666015625,
      "time_usec": 1042841990843
    },
    {
      "x": -0.030426025390625,
      "y": 0.107208251953125,
      "z": -0.00830078125,
      "time_usec": 1042841994810
    },
    {
      "x": -0.0346832275390625,
      "y": 0.11572265625,
      "z": -0.00830078125,
      "time_usec": 1042841998808
    },
    {
      "x": -0.037872314453125,
      "y": 0.1253204345703125,
      "z": -0.007232666015625,
      "time_usec": 1042842002806
    },
    {
      "x": -0.0421295166015625,
      "y": 0.1338348388671875,
      "z": -0.0040283203125,
      "time_usec": 1042842006803
    },
    {
      "x": -0.04852294921875,
      "y": 0.140228271484375,
      "z": -0.005096435546875,
      "time_usec": 1042842010771
    },
    {
      "x": -0.0538482666015625,
      "y": 0.1455535888671875,
      "z": -0.005096435546875,
      "time_usec": 1042842014768
    },
    {
      "x": -0.06024169921875,
      "y": 0.14874267578125,
      "z": -0.005096435546875,
      "time_usec": 1042842018766
    },
    {
      "x": -0.063446044921875,
      "y": 0.151947021484375,
      "z": -0.0019073486328125,
      "time_usec": 1042842022734
    },
    {
      "x": -0.0666351318359375,
      "y": 0.1562042236328125,
      "z": 0.00555419921875,
      "time_usec": 1042842026731
    },
    {
      "x": -0.0666351318359375,
      "y": 0.16046142578125,
      "z": 0.0087432861328125,
      "time_usec": 1042842030729
    },
    {
      "x": -0.0687713623046875,
      "y": 0.16259765625,
      "z": 0.0119476318359375,
      "time_usec": 1042842034727
    },
    {
      "x": -0.0687713623046875,
      "y": 0.1668548583984375,
      "z": 0.0130157470703125,
      "time_usec": 1042842038694
    },
    {
      "x": -0.070892333984375,
      "y": 0.1689910888671875,
      "z": 0.0108795166015625,
      "time_usec": 1042842042692
    },
    {
      "x": -0.0740966796875,
      "y": 0.17218017578125,
      "z": 0.0108795166015625,
      "time_usec": 1042842046690
    },
    {
      "x": -0.0794219970703125,
      "y": 0.1700592041015625,
      "z": 0.0098114013671875,
      "time_usec": 1042842050657
    },
    {
      "x": -0.0890045166015625,
      "y": 0.1679229736328125,
      "z": 0.0098114013671875,
      "time_usec": 1042842054655
    },
    {
      "x": -0.096466064453125,
      "y": 0.1668548583984375,
      "z": 0.0098114013671875,
      "time_usec": 1042842058653
    },
    {
      "x": -0.1092529296875,
      "y": 0.163665771484375,
      "z": 0.0130157470703125,
      "time_usec": 1042842062651
    },
    {
      "x": -0.1220245361328125,
      "y": 0.163665771484375,
      "z": 0.014068603515625,
      "time_usec": 1042842066618
    },
    {
      "x": -0.1337432861328125,
      "y": 0.16473388671875,
      "z": 0.01513671875,
      "time_usec": 1042842070616
    },
    {
      "x": -0.1444091796875,
      "y": 0.16259765625,
      "z": 0.016204833984375,
      "time_usec": 1042842074613
    },
    {
      "x": -0.1571807861328125,
      "y": 0.16473388671875,
      "z": 0.016204833984375,
      "time_usec": 1042842078611
    },
    {
      "x": -0.1678314208984375,
      "y": 0.1679229736328125,
      "z": 0.016204833984375,
      "time_usec": 1042842082579
    },
    {
      "x": -0.17529296875,
      "y": 0.1711273193359375,
      "z": 0.01727294921875,
      "time_usec": 1042842086576
    },
    {
      "x": -0.1838226318359375,
      "y": 0.1711273193359375,
      "z": 0.016204833984375,
      "time_usec": 1042842090544
    },
    {
      "x": -0.1912689208984375,
      "y": 0.17431640625,
      "z": 0.01513671875,
      "time_usec": 1042842094541
    },
    {
      "x": -0.1912689208984375,
      "y": 0.175384521484375,
      "z": 0.016204833984375,
      "time_usec": 1042842098539
    },
    {
      "x": -0.19659423828125,
      "y": 0.17218017578125,
      "z": 0.016204833984375,
      "time_usec": 1042842102537
    },
    {
      "x": -0.19873046875,
      "y": 0.1711273193359375,
      "z": 0.018341064453125,
      "time_usec": 1042842106535
    },
    {
      "x": -0.19873046875,
      "y": 0.1689910888671875,
      "z": 0.0215301513671875,
      "time_usec": 1042842110502
    },
    {
      "x": -0.1955413818359375,
      "y": 0.1668548583984375,
      "z": 0.0236663818359375,
      "time_usec": 1042842114500
    },
    {
      "x": -0.1923370361328125,
      "y": 0.1657867431640625,
      "z": 0.02685546875,
      "time_usec": 1042842118498
    },
    {
      "x": -0.185943603515625,
      "y": 0.16473388671875,
      "z": 0.025787353515625,
      "time_usec": 1042842122465
    },
    {
      "x": -0.178497314453125,
      "y": 0.163665771484375,
      "z": 0.025787353515625,
      "time_usec": 1042842126463
    },
    {
      "x": -0.1721038818359375,
      "y": 0.1572723388671875,
      "z": 0.025787353515625,
      "time_usec": 1042842130461
    },
    {
      "x": -0.162506103515625,
      "y": 0.1551361083984375,
      "z": 0.0236663818359375,
      "time_usec": 1042842134428
    },
    {
      "x": -0.1571807861328125,
      "y": 0.1551361083984375,
      "z": 0.0225982666015625,
      "time_usec": 1042842138426
    },
    {
      "x": -0.15185546875,
      "y": 0.1583404541015625,
      "z": 0.0204620361328125,
      "time_usec": 1042842142424
    },
    {
      "x": -0.14227294921875,
      "y": 0.1711273193359375,
      "z": 0.02685546875,
      "time_usec": 1042842146421
    },
    {
      "x": -0.1326904296875,
      "y": 0.161529541015625,
      "z": 0.0247344970703125,
      "time_usec": 1042842150389
    },
    {
      "x": -0.1273651123046875,
      "y": 0.15301513671875,
      "z": 0.018341064453125,
      "time_usec": 1042842154386
    },
    {
      "x": -0.1220245361328125,
      "y": 0.15301513671875,
      "z": 0.01513671875,
      "time_usec": 1042842158384
    },
    {
      "x": -0.1113739013671875,
      "y": 0.1594085693359375,
      "z": 0.0119476318359375,
      "time_usec": 1042842162352
    },
    {
      "x": -0.0996551513671875,
      "y": 0.16259765625,
      "z": 0.0108795166015625,
      "time_usec": 1042842166349
    },
    {
      "x": -0.0932769775390625,
      "y": 0.161529541015625,
      "z": 0.0119476318359375,
      "time_usec": 1042842170347
    },
    {
      "x": -0.0858154296875,
      "y": 0.1562042236328125,
      "z": 0.01513671875,
      "time_usec": 1042842174345
    },
    {
      "x": -0.0804901123046875,
      "y": 0.1551361083984375,
      "z": 0.0204620361328125,
      "time_usec": 1042842178312
    },
    {
      "x": -0.0772857666015625,
      "y": 0.154083251953125,
      "z": 0.0236663818359375,
      "time_usec": 1042842182310
    },
    {
      "x": -0.0783538818359375,
      "y": 0.14874267578125,
      "z": 0.02685546875,
      "time_usec": 1042842186308
    },
    {
      "x": -0.0794219970703125,
      "y": 0.1466217041015625,
      "z": 0.027923583984375,
      "time_usec": 1042842190275
    },
    {
      "x": -0.0815582275390625,
      "y": 0.1466217041015625,
      "z": 0.025787353515625,
      "time_usec": 1042842194273
    },
    {
      "x": -0.086883544921875,
      "y": 0.1455535888671875,
      "z": 0.0225982666015625,
      "time_usec": 1042842198271
    },
    {
      "x": -0.086883544921875,
      "y": 0.140228271484375,
      "z": 0.0215301513671875,
      "time_usec": 1042842202238
    },
    {
      "x": -0.0911407470703125,
      "y": 0.138092041015625,
      "z": 0.01727294921875,
      "time_usec": 1042842206236
    },
    {
      "x": -0.094329833984375,
      "y": 0.1349029541015625,
      "z": 0.0130157470703125,
      "time_usec": 1042842210234
    },
    {
      "x": -0.0996551513671875,
      "y": 0.1338348388671875,
      "z": 0.0108795166015625,
      "time_usec": 1042842214231
    },
    {
      "x": -0.10498046875,
      "y": 0.12957763671875,
      "z": 0.0087432861328125,
      "time_usec": 1042842218199
    },
    {
      "x": -0.1113739013671875,
      "y": 0.130645751953125,
      "z": 0.004486083984375,
      "time_usec": 1042842222196
    },
    {
      "x": -0.11669921875,
      "y": 0.130645751953125,
      "z": 0.0023651123046875,
      "time_usec": 1042842226194
    },
    {
      "x": -0.1220245361328125,
      "y": 0.12957763671875,
      "z": 2.288818359375E-4,
      "time_usec": 1042842230162
    },
    {
      "x": -0.1252288818359375,
      "y": 0.1316986083984375,
      "z": -0.0019073486328125,
      "time_usec": 1042842234159
    },
    {
      "x": -0.1252288818359375,
      "y": 0.130645751953125,
      "z": -0.005096435546875,
      "time_usec": 1042842238157
    },
    {
      "x": -0.1252288818359375,
      "y": 0.130645751953125,
      "z": -0.00616455078125,
      "time_usec": 1042842242155
    },
    {
      "x": -0.1252288818359375,
      "y": 0.1316986083984375,
      "z": -0.0093536376953125,
      "time_usec": 1042842246122
    },
    {
      "x": -0.1262969970703125,
      "y": 0.1327667236328125,
      "z": -0.0125579833984375,
      "time_usec": 1042842250120
    },
    {
      "x": -0.1252288818359375,
      "y": 0.128509521484375,
      "z": -0.0157470703125,
      "time_usec": 1042842254118
    },
    {
      "x": -0.1262969970703125,
      "y": 0.126373291015625,
      "z": -0.02001953125,
      "time_usec": 1042842258085
    },
    {
      "x": -0.129486083984375,
      "y": 0.1210479736328125,
      "z": -0.0242767333984375,
      "time_usec": 1042842262083
    },
    {
      "x": -0.13055419921875,
      "y": 0.11572265625,
      "z": -0.0253448486328125,
      "time_usec": 1042842266081
    },
    {
      "x": -0.1380157470703125,
      "y": 0.105072021484375,
      "z": -0.028533935546875,
      "time_usec": 1042842270048
    },
    {
      "x": -0.14227294921875,
      "y": 0.093353271484375,
      "z": -0.028533935546875,
      "time_usec": 1042842274046
    },
    {
      "x": -0.1486663818359375,
      "y": 0.083770751953125,
      "z": -0.02960205078125,
      "time_usec": 1042842278349
    },
    {
      "x": -0.164642333984375,
      "y": 0.0656585693359375,
      "z": -0.02960205078125,
      "time_usec": 1042842286009
    },
    {
      "x": -0.1710357666015625,
      "y": 0.0560760498046875,
      "z": -0.02960205078125,
      "time_usec": 1042842290007
    },
    {
      "x": -0.174224853515625,
      "y": 0.04754638671875,
      "z": -0.0327911376953125,
      "time_usec": 1042842294004
    },
    {
      "x": -0.1816864013671875,
      "y": 0.0411529541015625,
      "z": -0.0327911376953125,
      "time_usec": 1042842297972
    },
    {
      "x": -0.18487548828125,
      "y": 0.034759521484375,
      "z": -0.03173828125,
      "time_usec": 1042842301969
    },
    {
      "x": -0.185943603515625,
      "y": 0.0294342041015625,
      "z": -0.03173828125,
      "time_usec": 1042842305967
    },
    {
      "x": -0.185943603515625,
      "y": 0.025177001953125,
      "z": -0.0327911376953125,
      "time_usec": 1042842309935
    },
    {
      "x": -0.1838226318359375,
      "y": 0.0209197998046875,
      "z": -0.0349273681640625,
      "time_usec": 1042842313932
    },
    {
      "x": -0.17742919921875,
      "y": 0.015594482421875,
      "z": -0.0349273681640625,
      "time_usec": 1042842317930
    },
    {
      "x": -0.174224853515625,
      "y": 0.01239013671875,
      "z": -0.0349273681640625,
      "time_usec": 1042842321897
    },
    {
      "x": -0.1688995361328125,
      "y": 0.003875732421875,
      "z": -0.0370635986328125,
      "time_usec": 1042842325895
    },
    {
      "x": -0.1614532470703125,
      "y": 6.7138671875E-4,
      "z": -0.0391845703125,
      "time_usec": 1042842329893
    },
    {
      "x": -0.152923583984375,
      "y": -0.0025177001953125,
      "z": -0.0434417724609375,
      "time_usec": 1042842333891
    },
    {
      "x": -0.1454620361328125,
      "y": -0.00677490234375,
      "z": -0.0455780029296875,
      "time_usec": 1042842337858
    },
    {
      "x": -0.14013671875,
      "y": -0.01104736328125,
      "z": -0.0477142333984375,
      "time_usec": 1042842341856
    },
    {
      "x": -0.131622314453125,
      "y": -0.0153045654296875,
      "z": -0.0487823486328125,
      "time_usec": 1042842345854
    },
    {
      "x": -0.1209716796875,
      "y": -0.0206298828125,
      "z": -0.049835205078125,
      "time_usec": 1042842349821
    },
    {
      "x": -0.1156463623046875,
      "y": -0.021697998046875,
      "z": -0.05303955078125,
      "time_usec": 1042842353819
    },
    {
      "x": -0.106048583984375,
      "y": -0.0280914306640625,
      "z": -0.0551605224609375,
      "time_usec": 1042842357817
    },
    {
      "x": -0.096466064453125,
      "y": -0.0344696044921875,
      "z": -0.0583648681640625,
      "time_usec": 1042842361814
    },
    {
      "x": -0.0932769775390625,
      "y": -0.042999267578125,
      "z": -0.0583648681640625,
      "time_usec": 1042842365782
    },
    {
      "x": -0.0879364013671875,
      "y": -0.0483245849609375,
      "z": -0.0594329833984375,
      "time_usec": 1042842369779
    },
    {
      "x": -0.084747314453125,
      "y": -0.0557861328125,
      "z": -0.0572967529296875,
      "time_usec": 1042842373777
    },
    {
      "x": -0.084747314453125,
      "y": -0.0611114501953125,
      "z": -0.05303955078125,
      "time_usec": 1042842377745
    },
    {
      "x": -0.086883544921875,
      "y": -0.0717620849609375,
      "z": -0.05303955078125,
      "time_usec": 1042842381742
    },
    {
      "x": -0.086883544921875,
      "y": -0.0717620849609375,
      "z": -0.0487823486328125,
      "time_usec": 1042842385740
    },
    {
      "x": -0.0890045166015625,
      "y": -0.066436767578125,
      "z": -0.0455780029296875,
      "time_usec": 1042842389707
    },
    {
      "x": -0.0890045166015625,
      "y": -0.066436767578125,
      "z": -0.04132080078125,
      "time_usec": 1042842393705
    },
    {
      "x": -0.0900726318359375,
      "y": -0.064300537109375,
      "z": -0.0391845703125,
      "time_usec": 1042842397703
    },
    {
      "x": -0.0922088623046875,
      "y": -0.063232421875,
      "z": -0.0359954833984375,
      "time_usec": 1042842401670
    },
    {
      "x": -0.0922088623046875,
      "y": -0.0579071044921875,
      "z": -0.02960205078125,
      "time_usec": 1042842405668
    },
    {
      "x": -0.0932769775390625,
      "y": -0.054718017578125,
      "z": -0.0232086181640625,
      "time_usec": 1042842409666
    },
    {
      "x": -0.0975341796875,
      "y": -0.052581787109375,
      "z": -0.016815185546875,
      "time_usec": 1042842413664
    },
    {
      "x": -0.1017913818359375,
      "y": -0.052581787109375,
      "z": -0.0114898681640625,
      "time_usec": 1042842417662
    },
    {
      "x": -0.1028594970703125,
      "y": -0.0472564697265625,
      "z": -0.007232666015625,
      "time_usec": 1042842421629
    },
    {
      "x": -0.1092529296875,
      "y": -0.042999267578125,
      "z": -0.0040283203125,
      "time_usec": 1042842425627
    },
    {
      "x": -0.1124420166015625,
      "y": -0.0366058349609375,
      "z": 0.0012969970703125,
      "time_usec": 1042842429594
    },
    {
      "x": -0.11669921875,
      "y": -0.029144287109375,
      "z": 0.0023651123046875,
      "time_usec": 1042842433592
    },
    {
      "x": -0.119903564453125,
      "y": -0.0248870849609375,
      "z": 0.00555419921875,
      "time_usec": 1042842437590
    },
    {
      "x": -0.119903564453125,
      "y": -0.01849365234375,
      "z": 0.0119476318359375,
      "time_usec": 1042842441557
    },
    {
      "x": -0.11669921875,
      "y": -0.01104736328125,
      "z": 0.014068603515625,
      "time_usec": 1042842445555
    },
    {
      "x": -0.1145782470703125,
      "y": -0.007843017578125,
      "z": 0.0204620361328125,
      "time_usec": 1042842449552
    },
    {
      "x": -0.1124420166015625,
      "y": -0.0046539306640625,
      "z": 0.0247344970703125,
      "time_usec": 1042842453520
    },
    {
      "x": -0.1092529296875,
      "y": 6.7138671875E-4,
      "z": 0.0321807861328125,
      "time_usec": 1042842457518
    },
    {
      "x": -0.1092529296875,
      "y": 6.7138671875E-4,
      "z": 0.03857421875,
      "time_usec": 1042842461515
    },
    {
      "x": -0.10498046875,
      "y": -3.814697265625E-4,
      "z": 0.0460357666015625,
      "time_usec": 1042842465513
    },
    {
      "x": -0.10711669921875,
      "y": 0.001739501953125,
      "z": 0.05029296875,
      "time_usec": 1042842469480
    },
    {
      "x": -0.106048583984375,
      "y": 0.0028076171875,
      "z": 0.0556182861328125,
      "time_usec": 1042842473478
    },
    {
      "x": -0.108184814453125,
      "y": 0.00494384765625,
      "z": 0.060943603515625,
      "time_usec": 1042842477476
    },
    {
      "x": -0.106048583984375,
      "y": 0.003875732421875,
      "z": 0.0652008056640625,
      "time_usec": 1042842481443
    },
    {
      "x": -0.1028594970703125,
      "y": 0.003875732421875,
      "z": 0.0684051513671875,
      "time_usec": 1042842485441
    },
    {
      "x": -0.1039276123046875,
      "y": 0.0081329345703125,
      "z": 0.072662353515625,
      "time_usec": 1042842489439
    },
    {
      "x": -0.1017913818359375,
      "y": 0.00494384765625,
      "z": 0.074798583984375,
      "time_usec": 1042842493406
    },
    {
      "x": -0.1007232666015625,
      "y": 0.003875732421875,
      "z": 0.0779876708984375,
      "time_usec": 1042842497404
    },
    {
      "x": -0.1028594970703125,
      "y": 0.001739501953125,
      "z": 0.0769195556640625,
      "time_usec": 1042842501402
    },
    {
      "x": -0.1017913818359375,
      "y": 6.7138671875E-4,
      "z": 0.0801239013671875,
      "time_usec": 1042842505369
    },
    {
      "x": -0.1039276123046875,
      "y": 0.001739501953125,
      "z": 0.08331298828125,
      "time_usec": 1042842509367
    },
    {
      "x": -0.1017913818359375,
      "y": -0.0035858154296875,
      "z": 0.086517333984375,
      "time_usec": 1042842513365
    },
    {
      "x": -0.106048583984375,
      "y": -0.01104736328125,
      "z": 0.0907745361328125,
      "time_usec": 1042842517332
    },
    {
      "x": -0.110321044921875,
      "y": -0.017425537109375,
      "z": 0.09503173828125,
      "time_usec": 1042842521330
    },
    {
      "x": -0.110321044921875,
      "y": -0.0227508544921875,
      "z": 0.1014251708984375,
      "time_usec": 1042842525328
    },
    {
      "x": -0.1135101318359375,
      "y": -0.0259552001953125,
      "z": 0.1046295166015625,
      "time_usec": 1042842529295
    },
    {
      "x": -0.1145782470703125,
      "y": -0.0355377197265625,
      "z": 0.105682373046875,
      "time_usec": 1042842533293
    },
    {
      "x": -0.1124420166015625,
      "y": -0.04193115234375,
      "z": 0.10888671875,
      "time_usec": 1042842537290
    },
    {
      "x": -0.110321044921875,
      "y": -0.045135498046875,
      "z": 0.109954833984375,
      "time_usec": 1042842541288
    },
    {
      "x": -0.108184814453125,
      "y": -0.0461883544921875,
      "z": 0.109954833984375,
      "time_usec": 1042842545256
    },
    {
      "x": -0.10498046875,
      "y": -0.0483245849609375,
      "z": 0.109954833984375,
      "time_usec": 1042842549253
    },
    {
      "x": -0.1007232666015625,
      "y": -0.0483245849609375,
      "z": 0.1046295166015625,
