{
  "accelerations": [
    {
      "x": 0.7062835693359375,
      "y": 9.737213134765625,
      "z": 0.7685546875,
      "time_usec": 344334914308
    },
    {
      "x": 0.682342529296875,
      "y": 9.777923583984375,
      "z": 0.75897216796875,
      "time_usec": 344334918306
    },
    {
      "x": 0.617706298828125,
      "y": 9.840164184570312,
      "z": 0.648834228515625,
      "time_usec": 344334922304
    },
    {
      "x": 0.545867919921875,
      "y": 9.871292114257812,
      "z": 0.56982421875,
      "time_usec": 344334926302
    },
    {
      "x": 0.5099639892578125,
      "y": 9.830596923828125,
      "z": 0.5195465087890625,
      "time_usec": 344334930299
    },
    {
      "x": 0.545867919921875,
      "y": 9.8377685546875,
      "z": 0.4716644287109375,
      "time_usec": 344334934297
    },
    {
      "x": 0.49798583984375,
      "y": 9.761154174804688,
      "z": 0.4884185791015625,
      "time_usec": 344334938295
    },
    {
      "x": 0.4620819091796875,
      "y": 9.770736694335938,
      "z": 0.426177978515625,
      "time_usec": 344334942293
    },
    {
      "x": 0.397430419921875,
      "y": 9.71087646484375,
      "z": 0.447723388671875,
      "time_usec": 344334946291
    },
    {
      "x": 0.30645751953125,
      "y": 9.753982543945312,
      "z": 0.4237823486328125,
      "time_usec": 344334950288
    },
    {
      "x": 0.38067626953125,
      "y": 9.722854614257812,
      "z": 0.42138671875,
      "time_usec": 344334954286
    },
    {
      "x": 0.3782806396484375,
      "y": 9.730026245117188,
      "z": 0.3878631591796875,
      "time_usec": 344334958253
    },
    {
      "x": 0.3950347900390625,
      "y": 9.768341064453125,
      "z": 0.3759002685546875,
      "time_usec": 344334962251
    },
    {
      "x": 0.4165802001953125,
      "y": 9.765945434570312,
      "z": 0.4022369384765625,
      "time_usec": 344334966249
    },
    {
      "x": 0.385467529296875,
      "y": 9.80426025390625,
      "z": 0.385467529296875,
      "time_usec": 344334970247
    },
    {
      "x": 0.38067626953125,
      "y": 9.780303955078125,
      "z": 0.4285736083984375,
      "time_usec": 344334974245
    },
    {
      "x": 0.3686981201171875,
      "y": 9.770736694335938,
      "z": 0.4549102783203125,
      "time_usec": 344334978242
    },
    {
      "x": 0.3734893798828125,
      "y": 9.775527954101562,
      "z": 0.42138671875,
      "time_usec": 344334982240
    },
    {
      "x": 0.3519439697265625,
      "y": 9.739608764648438,
      "z": 0.426177978515625,
      "time_usec": 344334986238
    },
    {
      "x": 0.3399658203125,
      "y": 9.749191284179688,
      "z": 0.4453277587890625,
      "time_usec": 344334990236
    },
    {
      "x": 0.385467529296875,
      "y": 9.720458984375,
      "z": 0.435760498046875,
      "time_usec": 344334994234
    },
    {
      "x": 0.359130859375,
      "y": 9.713272094726562,
      "z": 0.385467529296875,
      "time_usec": 344334998231
    },
    {
      "x": 0.3686981201171875,
      "y": 9.691726684570312,
      "z": 0.3663177490234375,
      "time_usec": 344335002229
    },
    {
      "x": 0.37109375,
      "y": 9.715667724609375,
      "z": 0.3495635986328125,
      "time_usec": 344335006227
    },
    {
      "x": 0.3902435302734375,
      "y": 9.696517944335938,
      "z": 0.2968902587890625,
      "time_usec": 344335010225
    },
    {
      "x": 0.4213714599609375,
      "y": 9.715667724609375,
      "z": 0.2298583984375,
      "time_usec": 344335014223
    },
    {
      "x": 0.41180419921875,
      "y": 9.703689575195312,
      "z": 0.17718505859375,
      "time_usec": 344335018220
    },
    {
      "x": 0.375885009765625,
      "y": 9.63665771484375,
      "z": 0.119720458984375,
      "time_usec": 344335022218
    },
    {
      "x": 0.3734893798828125,
      "y": 9.67974853515625,
      "z": 0.0909881591796875,
      "time_usec": 344335026216
    },
    {
      "x": 0.359130859375,
      "y": 9.662994384765625,
      "z": 0.0598602294921875,
      "time_usec": 344335030214
    },
    {
      "x": 0.359130859375,
      "y": 9.71087646484375,
      "z": 0.062255859375,
      "time_usec": 344335034212
    },
    {
      "x": 0.3351898193359375,
      "y": 9.674972534179688,
      "z": 0.0550689697265625,
      "time_usec": 344335038209
    },
    {
      "x": 0.313629150390625,
      "y": 9.641448974609375,
      "z": 0.0742340087890625,
      "time_usec": 344335042207
    },
    {
      "x": 0.3830718994140625,
      "y": 9.696517944335938,
      "z": 0.1340789794921875,
      "time_usec": 344335046205
    },
    {
      "x": 0.38067626953125,
      "y": 9.69891357421875,
      "z": 0.1747894287109375,
      "time_usec": 344335050203
    },
    {
      "x": 0.4141845703125,
      "y": 9.691726684570312,
      "z": 0.15802001953125,
      "time_usec": 344335054201
    },
    {
      "x": 0.359130859375,
      "y": 9.744400024414062,
      "z": 0.210693359375,
      "time_usec": 344335058168
    },
    {
      "x": 0.385467529296875,
      "y": 9.722854614257812,
      "z": 0.22027587890625,
      "time_usec": 344335062166
    },
    {
      "x": 0.3615264892578125,
      "y": 9.744400024414062,
      "z": 0.237030029296875,
      "time_usec": 344335066164
    },
    {
      "x": 0.4046173095703125,
      "y": 9.794677734375,
      "z": 0.2920989990234375,
      "time_usec": 344335070161
    },
    {
      "x": 0.4213714599609375,
      "y": 9.794677734375,
      "z": 0.3543548583984375,
      "time_usec": 344335074159
    },
    {
      "x": 0.4141845703125,
      "y": 9.81622314453125,
      "z": 0.3663177490234375,
      "time_usec": 344335078157
    },
    {
      "x": 0.4141845703125,
      "y": 9.8258056640625,
      "z": 0.4405364990234375,
      "time_usec": 344335082155
    },
    {
      "x": 0.418975830078125,
      "y": 9.821014404296875,
      "z": 0.447723388671875,
      "time_usec": 344335086153
    },
    {
      "x": 0.41180419921875,
      "y": 9.8258056640625,
      "z": 0.4716644287109375,
      "time_usec": 344335090150
    },
    {
      "x": 0.4165802001953125,
      "y": 9.789886474609375,
      "z": 0.5267333984375,
      "time_usec": 344335094148
    },
    {
      "x": 0.4261627197265625,
      "y": 9.806640625,
      "z": 0.5291290283203125,
      "time_usec": 344335098146
    },
    {
      "x": 0.3950347900390625,
      "y": 9.832977294921875,
      "z": 0.562652587890625,
      "time_usec": 344335102144
    },
    {
      "x": 0.407012939453125,
      "y": 9.818618774414062,
      "z": 0.56982421875,
      "time_usec": 344335106142
    },
    {
      "x": 0.3686981201171875,
      "y": 9.818618774414062,
      "z": 0.5937652587890625,
      "time_usec": 344335110139
    },
    {
      "x": 0.3519439697265625,
      "y": 9.883255004882812,
      "z": 0.64404296875,
      "time_usec": 344335114137
    },
    {
      "x": 0.3112335205078125,
      "y": 9.866500854492188,
      "z": 0.6656036376953125,
      "time_usec": 344335118135
    },
    {
      "x": 0.313629150390625,
      "y": 9.909591674804688,
      "z": 0.69671630859375,
      "time_usec": 344335122133
    },
    {
      "x": 0.3208160400390625,
      "y": 9.89044189453125,
      "z": 0.65362548828125,
      "time_usec": 344335126131
    },
    {
      "x": 0.3256072998046875,
      "y": 9.923965454101562,
      "z": 0.69671630859375,
      "time_usec": 344335130128
    },
    {
      "x": 0.248992919921875,
      "y": 9.933547973632812,
      "z": 0.711090087890625,
      "time_usec": 344335134126
    },
    {
      "x": 0.2537841796875,
      "y": 9.89044189453125,
      "z": 0.72784423828125,
      "time_usec": 344335138124
    },
    {
      "x": 0.30645751953125,
      "y": 9.852142333984375,
      "z": 0.6871490478515625,
      "time_usec": 344335142122
    },
    {
      "x": 0.3160247802734375,
      "y": 9.907211303710938,
      "z": 0.6512298583984375,
      "time_usec": 344335146120
    },
    {
      "x": 0.3303985595703125,
      "y": 9.854537963867188,
      "z": 0.648834228515625,
      "time_usec": 344335150117
    },
    {
      "x": 0.2992706298828125,
      "y": 9.835372924804688,
      "z": 0.6464385986328125,
      "time_usec": 344335154085
    },
    {
      "x": 0.2825164794921875,
      "y": 9.852142333984375,
      "z": 0.5818023681640625,
      "time_usec": 344335158083
    },
    {
      "x": 0.2298431396484375,
      "y": 9.871292114257812,
      "z": 0.627288818359375,
      "time_usec": 344335162080
    },
    {
      "x": 0.258575439453125,
      "y": 9.818618774414062,
      "z": 0.5937652587890625,
      "time_usec": 344335166078
    },
    {
      "x": 0.2298431396484375,
      "y": 9.806640625,
      "z": 0.5865936279296875,
      "time_usec": 344335170076
    },
    {
      "x": 0.2825164794921875,
      "y": 9.794677734375,
      "z": 0.5985565185546875,
      "time_usec": 344335174074
    },
    {
      "x": 0.280120849609375,
      "y": 9.806640625,
      "z": 0.5889892578125,
      "time_usec": 344335178072
    },
    {
      "x": 0.3303985595703125,
      "y": 9.765945434570312,
      "z": 0.5985565185546875,
      "time_usec": 344335182069
    },
    {
      "x": 0.3567352294921875,
      "y": 9.777923583984375,
      "z": 0.5889892578125,
      "time_usec": 344335186067
    },
    {
      "x": 0.3998260498046875,
      "y": 9.761154174804688,
      "z": 0.5602569580078125,
      "time_usec": 344335190065
    },
    {
      "x": 0.3639068603515625,
      "y": 9.765945434570312,
      "z": 0.5243377685546875,
      "time_usec": 344335194063
    },
    {
      "x": 0.3830718994140625,
      "y": 9.761154174804688,
      "z": 0.5123748779296875,
      "time_usec": 344335198061
    },
    {
      "x": 0.3902435302734375,
      "y": 9.761154174804688,
      "z": 0.5267333984375,
      "time_usec": 344335202058
    },
    {
      "x": 0.344757080078125,
      "y": 9.730026245117188,
      "z": 0.509979248046875,
      "time_usec": 344335206056
    },
    {
      "x": 0.387847900390625,
      "y": 9.775527954101562,
      "z": 0.4980010986328125,
      "time_usec": 344335210054
    },
    {
      "x": 0.385467529296875,
      "y": 9.737213134765625,
      "z": 0.5195465087890625,
      "time_usec": 344335214052
    },
    {
      "x": 0.4141845703125,
      "y": 9.718063354492188,
      "z": 0.5123748779296875,
      "time_usec": 344335218050
    },
    {
      "x": 0.4094085693359375,
      "y": 9.725250244140625,
      "z": 0.4980010986328125,
      "time_usec": 344335222047
    },
    {
      "x": 0.4692535400390625,
      "y": 9.69891357421875,
      "z": 0.5123748779296875,
      "time_usec": 344335226045
    },
    {
      "x": 0.4572906494140625,
      "y": 9.655807495117188,
      "z": 0.5123748779296875,
      "time_usec": 344335230043
    },
    {
      "x": 0.4572906494140625,
      "y": 9.6893310546875,
      "z": 0.4501190185546875,
      "time_usec": 344335234010
    },
    {
      "x": 0.4213714599609375,
      "y": 9.696517944335938,
      "z": 0.4764556884765625,
      "time_usec": 344335238008
    },
    {
      "x": 0.3998260498046875,
      "y": 9.665390014648438,
      "z": 0.4453277587890625,
      "time_usec": 344335242006
    },
    {
      "x": 0.433349609375,
      "y": 9.622299194335938,
      "z": 0.4597015380859375,
      "time_usec": 344335246004
    },
    {
      "x": 0.4429168701171875,
      "y": 9.607925415039062,
      "z": 0.4405364990234375,
      "time_usec": 344335250001
    },
    {
      "x": 0.4477081298828125,
      "y": 9.569625854492188,
      "z": 0.385467529296875,
      "time_usec": 344335253999
    },
    {
      "x": 0.4213714599609375,
      "y": 9.62469482421875,
      "z": 0.3878631591796875,
      "time_usec": 344335257997
    },
    {
      "x": 0.4620819091796875,
      "y": 9.653411865234375,
      "z": 0.373504638671875,
      "time_usec": 344335261995
    },
    {
      "x": 0.438140869140625,
      "y": 9.631866455078125,
      "z": 0.3591461181640625,
      "time_usec": 344335265993
    },
    {
      "x": 0.4022216796875,
      "y": 9.6773681640625,
      "z": 0.3806915283203125,
      "time_usec": 344335269990
    },
    {
      "x": 0.385467529296875,
      "y": 9.682144165039062,
      "z": 0.383087158203125,
      "time_usec": 344335273988
    },
    {
      "x": 0.31842041015625,
      "y": 9.653411865234375,
      "z": 0.404632568359375,
      "time_usec": 344335277986
    },
    {
      "x": 0.2944793701171875,
      "y": 9.674972534179688,
      "z": 0.416595458984375,
      "time_usec": 344335281984
    },
    {
      "x": 0.292083740234375,
      "y": 9.617507934570312,
      "z": 0.4812469482421875,
      "time_usec": 344335285982
    },
    {
      "x": 0.3734893798828125,
      "y": 9.579193115234375,
      "z": 0.5147552490234375,
      "time_usec": 344335289980
    },
    {
      "x": 0.4022216796875,
      "y": 9.550460815429688,
      "z": 0.543487548828125,
      "time_usec": 344335293977
    },
    {
      "x": 0.375885009765625,
      "y": 9.603134155273438,
      "z": 0.5985565185546875,
      "time_usec": 344335297975
    },
    {
      "x": 0.4022216796875,
      "y": 9.607925415039062,
      "z": 0.5602569580078125,
      "time_usec": 344335301942
    },
    {
      "x": 0.4309539794921875,
      "y": 9.600753784179688,
      "z": 0.5602569580078125,
      "time_usec": 344335305940
    },
    {
      "x": 0.354339599609375,
      "y": 9.600753784179688,
      "z": 0.5195465087890625,
      "time_usec": 344335309938
    },
    {
      "x": 0.28729248046875,
      "y": 9.603134155273438,
      "z": 0.51715087890625,
      "time_usec": 344335313997
    },
    {
      "x": 0.270538330078125,
      "y": 9.610321044921875,
      "z": 0.4644775390625,
      "time_usec": 344335317934
    },
    {
      "x": 0.323211669921875,
      "y": 9.600753784179688,
      "z": 0.3926544189453125,
      "time_usec": 344335321931
    },
    {
      "x": 0.34954833984375,
      "y": 9.560043334960938,
      "z": 0.3806915283203125,
      "time_usec": 344335325929
    },
    {
      "x": 0.359130859375,
      "y": 9.576797485351562,
      "z": 0.3711090087890625,
      "time_usec": 344335329927
    },
    {
      "x": 0.3782806396484375,
      "y": 9.550460815429688,
      "z": 0.41180419921875,
      "time_usec": 344335333925
    },
    {
      "x": 0.3902435302734375,
      "y": 9.595962524414062,
      "z": 0.3328094482421875,
      "time_usec": 344335337923
    },
    {
      "x": 0.387847900390625,
      "y": 9.583984375,
      "z": 0.3543548583984375,
      "time_usec": 344335341920
    },
    {
      "x": 0.4165802001953125,
      "y": 9.612716674804688,
      "z": 0.3495635986328125,
      "time_usec": 344335345918
    },
    {
      "x": 0.42376708984375,
      "y": 9.6270751953125,
      "z": 0.3160400390625,
      "time_usec": 344335349916
    },
    {
      "x": 0.39263916015625,
      "y": 9.653411865234375,
      "z": 0.320831298828125,
      "time_usec": 344335353883
    },
    {
      "x": 0.4141845703125,
      "y": 9.629470825195312,
      "z": 0.3663177490234375,
      "time_usec": 344335357881
    },
    {
      "x": 0.407012939453125,
      "y": 9.67974853515625,
      "z": 0.35675048828125,
      "time_usec": 344335361879
    },
    {
      "x": 0.3998260498046875,
      "y": 9.648635864257812,
      "z": 0.4644775390625,
      "time_usec": 344335365877
    },
    {
      "x": 0.359130859375,
      "y": 9.701309204101562,
      "z": 0.478851318359375,
      "time_usec": 344335369875
    },
    {
      "x": 0.3519439697265625,
      "y": 9.651031494140625,
      "z": 0.5458831787109375,
      "time_usec": 344335373903
    },
    {
      "x": 0.34954833984375,
      "y": 9.684539794921875,
      "z": 0.5889892578125,
      "time_usec": 344335377870
    },
    {
      "x": 0.366302490234375,
      "y": 9.655807495117188,
      "z": 0.636871337890625,
      "time_usec": 344335381868
    },
    {
      "x": 0.3686981201171875,
      "y": 9.708480834960938,
      "z": 0.6081390380859375,
      "time_usec": 344335385866
    },
    {
      "x": 0.354339599609375,
      "y": 9.737213134765625,
      "z": 0.617706298828125,
      "time_usec": 344335389864
    },
    {
      "x": 0.28729248046875,
      "y": 9.761154174804688,
      "z": 0.6201019287109375,
      "time_usec": 344335393892
    },
    {
      "x": 0.3088531494140625,
      "y": 9.758758544921875,
      "z": 0.6153106689453125,
      "time_usec": 344335397859
    },
    {
      "x": 0.2896881103515625,
      "y": 9.734817504882812,
      "z": 0.636871337890625,
      "time_usec": 344335401857
    },
    {
      "x": 0.2729339599609375,
      "y": 9.811431884765625,
      "z": 0.6679840087890625,
      "time_usec": 344335405855
    },
    {
      "x": 0.2561798095703125,
      "y": 9.787490844726562,
      "z": 0.6416473388671875,
      "time_usec": 344335409853
    },
    {
      "x": 0.2537841796875,
      "y": 9.758758544921875,
      "z": 0.6823577880859375,
      "time_usec": 344335413820
    },
    {
      "x": 0.292083740234375,
      "y": 9.777923583984375,
      "z": 0.6871490478515625,
      "time_usec": 344335417848
    },
    {
      "x": 0.323211669921875,
      "y": 9.718063354492188,
      "z": 0.6775665283203125,
      "time_usec": 344335421846
    },
    {
      "x": 0.3639068603515625,
      "y": 9.739608764648438,
      "z": 0.64404296875,
      "time_usec": 344335425813
    },
    {
      "x": 0.3998260498046875,
      "y": 9.758758544921875,
      "z": 0.5865936279296875,
      "time_usec": 344335429811
    },
    {
      "x": 0.4094085693359375,
      "y": 9.758758544921875,
      "z": 0.5506744384765625,
      "time_usec": 344335433809
    },
    {
      "x": 0.407012939453125,
      "y": 9.744400024414062,
      "z": 0.5291290283203125,
      "time_usec": 344335437807
    },
    {
      "x": 0.4357452392578125,
      "y": 9.734817504882812,
      "z": 0.4812469482421875,
      "time_usec": 344335441804
    },
    {
      "x": 0.3950347900390625,
      "y": 9.765945434570312,
      "z": 0.438140869140625,
      "time_usec": 344335445802
    },
    {
      "x": 0.4213714599609375,
      "y": 9.727645874023438,
      "z": 0.39984130859375,
      "time_usec": 344335449800
    },
    {
      "x": 0.41180419921875,
      "y": 9.682144165039062,
      "z": 0.373504638671875,
      "time_usec": 344335453798
    },
    {
      "x": 0.407012939453125,
      "y": 9.686935424804688,
      "z": 0.351959228515625,
      "time_usec": 344335457796
    },
    {
      "x": 0.385467529296875,
      "y": 9.725250244140625,
      "z": 0.330413818359375,
      "time_usec": 344335461793
    },
    {
      "x": 0.3902435302734375,
      "y": 9.739608764648438,
      "z": 0.342376708984375,
      "time_usec": 344335465791
    },
    {
      "x": 0.41180419921875,
      "y": 9.734817504882812,
      "z": 0.3399810791015625,
      "time_usec": 344335469789
    },
    {
      "x": 0.332794189453125,
      "y": 9.7515869140625,
      "z": 0.3160400390625,
      "time_usec": 344335473787
    },
    {
      "x": 0.344757080078125,
      "y": 9.7515869140625,
      "z": 0.395050048828125,
      "time_usec": 344335477754
    },
    {
      "x": 0.3471527099609375,
      "y": 9.77313232421875,
      "z": 0.426177978515625,
      "time_usec": 344335481752
    },
    {
      "x": 0.354339599609375,
      "y": 9.794677734375,
      "z": 0.5123748779296875,
      "time_usec": 344335485750
    },
    {
      "x": 0.3256072998046875,
      "y": 9.775527954101562,
      "z": 0.557861328125,
      "time_usec": 344335489748
    },
    {
      "x": 0.3256072998046875,
      "y": 9.849746704101562,
      "z": 0.5602569580078125,
      "time_usec": 344335493745
    },
    {
      "x": 0.3160247802734375,
      "y": 9.8377685546875,
      "z": 0.5889892578125,
      "time_usec": 344335497743
    },
    {
      "x": 0.3686981201171875,
      "y": 9.849746704101562,
      "z": 0.57940673828125,
      "time_usec": 344335501741
    },
    {
      "x": 0.385467529296875,
      "y": 9.842559814453125,
      "z": 0.5770111083984375,
      "time_usec": 344335505739
    },
    {
      "x": 0.4692535400390625,
      "y": 9.849746704101562,
      "z": 0.596160888671875,
      "time_usec": 344335509737
    },
    {
      "x": 0.4907989501953125,
      "y": 9.861709594726562,
      "z": 0.5674285888671875,
      "time_usec": 344335513734
    },
    {
      "x": 0.4453125,
      "y": 9.813827514648438,
      "z": 0.562652587890625,
      "time_usec": 344335517732
    },
    {
      "x": 0.4477081298828125,
      "y": 9.835372924804688,
      "z": 0.54827880859375,
      "time_usec": 344335521730
    },
    {
      "x": 0.493194580078125,
      "y": 9.81622314453125,
      "z": 0.543487548828125,
      "time_usec": 344335525728
    },
    {
      "x": 0.5051727294921875,
      "y": 9.809036254882812,
      "z": 0.57940673828125,
      "time_usec": 344335529726
    },
    {
      "x": 0.5147552490234375,
      "y": 9.775527954101562,
      "z": 0.5075836181640625,
      "time_usec": 344335533693
    },
    {
      "x": 0.502777099609375,
      "y": 9.744400024414062,
      "z": 0.4812469482421875,
      "time_usec": 344335537691
    },
    {
      "x": 0.4740447998046875,
      "y": 9.780303955078125,
      "z": 0.4285736083984375,
      "time_usec": 344335541688
    },
    {
      "x": 0.5003814697265625,
      "y": 9.749191284179688,
      "z": 0.416595458984375,
      "time_usec": 344335545686
    },
    {
      "x": 0.493194580078125,
      "y": 9.797073364257812,
      "z": 0.395050048828125,
      "time_usec": 344335549684
    },
    {
      "x": 0.4572906494140625,
      "y": 9.7515869140625,
      "z": 0.395050048828125,
      "time_usec": 344335553682
    },
    {
      "x": 0.481231689453125,
      "y": 9.7515869140625,
      "z": 0.395050048828125,
      "time_usec": 344335557680
    },
    {
      "x": 0.418975830078125,
      "y": 9.730026245117188,
      "z": 0.383087158203125,
      "time_usec": 344335561678
    },
    {
      "x": 0.3782806396484375,
      "y": 9.744400024414062,
      "z": 0.4501190185546875,
      "time_usec": 344335565675
    },
    {
      "x": 0.3902435302734375,
      "y": 9.780303955078125,
      "z": 0.4764556884765625,
      "time_usec": 344335569673
    },
    {
      "x": 0.34954833984375,
      "y": 9.780303955078125,
      "z": 0.5386962890625,
      "time_usec": 344335573671
    },
    {
      "x": 0.3734893798828125,
      "y": 9.8258056640625,
      "z": 0.5339202880859375,
      "time_usec": 344335577669
    },
    {
      "x": 0.3830718994140625,
      "y": 9.871292114257812,
      "z": 0.584197998046875,
      "time_usec": 344335581667
    },
    {
      "x": 0.354339599609375,
      "y": 9.87847900390625,
      "z": 0.5674285888671875,
      "time_usec": 344335585664
    },
    {
      "x": 0.39263916015625,
      "y": 9.873687744140625,
      "z": 0.636871337890625,
      "time_usec": 344335589632
    },
    {
      "x": 0.344757080078125,
      "y": 9.9000244140625,
      "z": 0.6416473388671875,
      "time_usec": 344335593629
    },
    {
      "x": 0.42376708984375,
      "y": 9.883255004882812,
      "z": 0.648834228515625,
      "time_usec": 344335597627
    },
    {
      "x": 0.4046173095703125,
      "y": 9.909591674804688,
      "z": 0.6416473388671875,
      "time_usec": 344335601625
    },
    {
      "x": 0.3902435302734375,
      "y": 9.933547973632812,
      "z": 0.6727752685546875,
      "time_usec": 344335605623
    },
    {
      "x": 0.3303985595703125,
      "y": 9.919174194335938,
      "z": 0.6632080078125,
      "time_usec": 344335609621
    },
    {
      "x": 0.3256072998046875,
      "y": 9.907211303710938,
      "z": 0.65362548828125,
      "time_usec": 344335613618
    },
    {
      "x": 0.3040618896484375,
      "y": 9.943115234375,
      "z": 0.6823577880859375,
      "time_usec": 344335617616
    },
    {
      "x": 0.2992706298828125,
      "y": 9.957489013671875,
      "z": 0.658416748046875,
      "time_usec": 344335621614
    },
    {
      "x": 0.2729339599609375,
      "y": 9.92156982421875,
      "z": 0.6871490478515625,
      "time_usec": 344335625612
    },
    {
      "x": 0.2896881103515625,
      "y": 9.888046264648438,
      "z": 0.6464385986328125,
      "time_usec": 344335629610
    },
    {
      "x": 0.284912109375,
      "y": 9.885650634765625,
      "z": 0.64404296875,
      "time_usec": 344335633607
    },
    {
      "x": 0.3471527099609375,
      "y": 9.950302124023438,
      "z": 0.5865936279296875,
      "time_usec": 344335637605
    },
    {
      "x": 0.3112335205078125,
      "y": 9.916778564453125,
      "z": 0.627288818359375,
      "time_usec": 344335641603
    },
    {
      "x": 0.280120849609375,
      "y": 9.9119873046875,
      "z": 0.627288818359375,
      "time_usec": 344335645601
    },
    {
      "x": 0.2729339599609375,
      "y": 9.959869384765625,
      "z": 0.6201019287109375,
      "time_usec": 344335649599
    },
    {
      "x": 0.2513885498046875,
      "y": 9.967056274414062,
      "z": 0.6081390380859375,
      "time_usec": 344335653566
    },
    {
      "x": 0.2106781005859375,
      "y": 9.897628784179688,
      "z": 0.64404296875,
      "time_usec": 344335657564
    },
    {
      "x": 0.1819610595703125,
      "y": 9.895233154296875,
      "z": 0.6416473388671875,
      "time_usec": 344335661562
    },
    {
      "x": 0.1556243896484375,
      "y": 9.871292114257812,
      "z": 0.6871490478515625,
      "time_usec": 344335665559
    },
    {
      "x": 0.2561798095703125,
      "y": 9.849746704101562,
      "z": 0.689544677734375,
      "time_usec": 344335669557
    },
    {
      "x": 0.28729248046875,
      "y": 9.852142333984375,
      "z": 0.7733306884765625,
      "time_usec": 344335673555
    },
    {
      "x": 0.2992706298828125,
      "y": 9.830596923828125,
      "z": 0.7374267578125,
      "time_usec": 344335677553
    },
    {
      "x": 0.2465972900390625,
      "y": 9.8258056640625,
      "z": 0.79010009765625,
      "time_usec": 344335681551
    },
    {
      "x": 0.3280029296875,
      "y": 9.840164184570312,
      "z": 0.7877044677734375,
      "time_usec": 344335685548
    },
    {
      "x": 0.2681427001953125,
      "y": 9.85931396484375,
      "z": 0.77093505859375,
      "time_usec": 344335689546
    },
    {
      "x": 0.280120849609375,
      "y": 9.828201293945312,
      "z": 0.711090087890625,
      "time_usec": 344335693544
    },
    {
      "x": 0.3208160400390625,
      "y": 9.830596923828125,
      "z": 0.636871337890625,
      "time_usec": 344335697542
    },
    {
      "x": 0.366302490234375,
      "y": 9.797073364257812,
      "z": 0.6201019287109375,
      "time_usec": 344335701540
    },
    {
      "x": 0.3639068603515625,
      "y": 9.725250244140625,
      "z": 0.5147552490234375,
      "time_usec": 344335705537
    },
    {
      "x": 0.3902435302734375,
      "y": 9.749191284179688,
      "z": 0.4764556884765625,
      "time_usec": 344335709535
    },
    {
      "x": 0.4213714599609375,
      "y": 9.749191284179688,
      "z": 0.4644775390625,
      "time_usec": 344335713502
    },
    {
      "x": 0.4692535400390625,
      "y": 9.768341064453125,
      "z": 0.4525146484375,
      "time_usec": 344335717500
    },
    {
      "x": 0.4740447998046875,
      "y": 9.749191284179688,
      "z": 0.43096923828125,
      "time_usec": 344335721498
    },
    {
      "x": 0.4788360595703125,
      "y": 9.722854614257812,
      "z": 0.4022369384765625,
      "time_usec": 344335725496
    },
    {
      "x": 0.4836273193359375,
      "y": 9.713272094726562,
      "z": 0.3926544189453125,
      "time_usec": 344335729494
    },
    {
      "x": 0.4740447998046875,
      "y": 9.6893310546875,
      "z": 0.3902587890625,
      "time_usec": 344335733491
    },
    {
      "x": 0.4907989501953125,
      "y": 9.706085205078125,
      "z": 0.4333648681640625,
      "time_usec": 344335737489
    },
    {
      "x": 0.4261627197265625,
      "y": 9.718063354492188,
      "z": 0.39984130859375,
      "time_usec": 344335741487
    },
    {
      "x": 0.433349609375,
      "y": 9.718063354492188,
      "z": 0.3663177490234375,
      "time_usec": 344335745485
    },
    {
      "x": 0.385467529296875,
      "y": 9.66778564453125,
      "z": 0.385467529296875,
      "time_usec": 344335749483
    },
    {
      "x": 0.38067626953125,
      "y": 9.619903564453125,
      "z": 0.363922119140625,
      "time_usec": 344335753480
    },
    {
      "x": 0.3639068603515625,
      "y": 9.665390014648438,
      "z": 0.3782958984375,
      "time_usec": 344335757478
    },
    {
      "x": 0.3639068603515625,
      "y": 9.619903564453125,
      "z": 0.3495635986328125,
      "time_usec": 344335761476
    },
    {
      "x": 0.359130859375,
      "y": 9.6270751953125,
      "z": 0.3328094482421875,
      "time_usec": 344335765443
    },
    {
      "x": 0.359130859375,
      "y": 9.634262084960938,
      "z": 0.26336669921875,
      "time_usec": 344335769441
    },
    {
      "x": 0.359130859375,
      "y": 9.653411865234375,
      "z": 0.256195068359375,
      "time_usec": 344335773439
    },
    {
      "x": 0.3615264892578125,
      "y": 9.591171264648438,
      "z": 0.237030029296875,
      "time_usec": 344335777437
    },
    {
      "x": 0.407012939453125,
      "y": 9.639053344726562,
      "z": 0.225067138671875,
      "time_usec": 344335781435
    },
    {
      "x": 0.4094085693359375,
      "y": 9.653411865234375,
      "z": 0.184356689453125,
      "time_usec": 344335785432
    },
    {
      "x": 0.46685791015625,
      "y": 9.622299194335938,
      "z": 0.2657623291015625,
      "time_usec": 344335789430
    },
    {
      "x": 0.4907989501953125,
      "y": 9.598358154296875,
      "z": 0.237030029296875,
      "time_usec": 344335793428
    },
    {
      "x": 0.49798583984375,
      "y": 9.591171264648438,
      "z": 0.299285888671875,
      "time_usec": 344335797426
    },
    {
      "x": 0.5051727294921875,
      "y": 9.641448974609375,
      "z": 0.3232269287109375,
      "time_usec": 344335801424
    },
    {
      "x": 0.54107666015625,
      "y": 9.646240234375,
      "z": 0.3399810791015625,
      "time_usec": 344335805421
    },
    {
      "x": 0.5626373291015625,
      "y": 9.660598754882812,
      "z": 0.3543548583984375,
      "time_usec": 344335809419
    },
    {
      "x": 0.5219268798828125,
      "y": 9.617507934570312,
      "z": 0.342376708984375,
      "time_usec": 344335813417
    },
    {
      "x": 0.5147552490234375,
      "y": 9.63665771484375,
      "z": 0.289703369140625,
      "time_usec": 344335817415
    },
    {
      "x": 0.45489501953125,
      "y": 9.639053344726562,
      "z": 0.29449462890625,
      "time_usec": 344335821413
    },
    {
      "x": 0.4165802001953125,
      "y": 9.643844604492188,
      "z": 0.268157958984375,
      "time_usec": 344335825380
    },
    {
      "x": 0.4213714599609375,
      "y": 9.686935424804688,
      "z": 0.215484619140625,
      "time_usec": 344335829378
    },
    {
      "x": 0.4141845703125,
      "y": 9.648635864257812,
      "z": 0.1699981689453125,
      "time_usec": 344335833376
    },
    {
      "x": 0.418975830078125,
      "y": 9.6151123046875,
      "z": 0.1676025390625,
      "time_usec": 344335837373
    },
    {
      "x": 0.34954833984375,
      "y": 9.651031494140625,
      "z": 0.1652069091796875,
      "time_usec": 344335841371
    },
    {
      "x": 0.332794189453125,
      "y": 9.708480834960938,
      "z": 0.150848388671875,
      "time_usec": 344335845369
    },
    {
      "x": 0.292083740234375,
      "y": 9.720458984375,
      "z": 0.14605712890625,
      "time_usec": 344335849367
    },
    {
      "x": 0.292083740234375,
      "y": 9.725250244140625,
      "z": 0.1604156494140625,
      "time_usec": 344335853365
    },
    {
      "x": 0.260955810546875,
      "y": 9.77313232421875,
      "z": 0.18914794921875,
      "time_usec": 344335857362
    },
    {
      "x": 0.258575439453125,
      "y": 9.765945434570312,
      "z": 0.172393798828125,
      "time_usec": 344335861360
    },
    {
      "x": 0.2537841796875,
      "y": 9.8258056640625,
      "z": 0.15802001953125,
      "time_usec": 344335865358
    },
    {
      "x": 0.2082977294921875,
      "y": 9.81622314453125,
      "z": 0.17718505859375,
      "time_usec": 344335869356
    },
    {
      "x": 0.2106781005859375,
      "y": 9.797073364257812,
      "z": 0.1388702392578125,
      "time_usec": 344335873354
    },
    {
      "x": 0.3040618896484375,
      "y": 9.852142333984375,
      "z": 0.14605712890625,
      "time_usec": 344335877351
    },
    {
      "x": 0.3423614501953125,
      "y": 9.856918334960938,
      "z": 0.1292877197265625,
      "time_usec": 344335881349
    },
    {
      "x": 0.3351898193359375,
      "y": 9.842559814453125,
      "z": 0.131683349609375,
      "time_usec": 344335885347
    },
    {
      "x": 0.28729248046875,
      "y": 9.840164184570312,
      "z": 0.1077423095703125,
      "time_usec": 344335889345
    },
    {
      "x": 0.3399658203125,
      "y": 9.828201293945312,
      "z": 0.1269073486328125,
      "time_usec": 344335893312
    },
    {
      "x": 0.3351898193359375,
      "y": 9.830596923828125,
      "z": 0.1699981689453125,
      "time_usec": 344335897310
    },
    {
      "x": 0.3208160400390625,
      "y": 9.823410034179688,
      "z": 0.210693359375,
      "time_usec": 344335901308
    },
    {
      "x": 0.332794189453125,
      "y": 9.854537963867188,
      "z": 0.2801361083984375,
      "time_usec": 344335905305
    },
    {
      "x": 0.385467529296875,
      "y": 9.828201293945312,
      "z": 0.3351898193359375,
      "time_usec": 344335909303
    },
    {
      "x": 0.3375701904296875,
      "y": 9.895233154296875,
      "z": 0.3711090087890625,
      "time_usec": 344335913301
    },
    {
      "x": 0.3160247802734375,
      "y": 9.888046264648438,
      "z": 0.3902587890625,
      "time_usec": 344335917299
    },
    {
      "x": 0.323211669921875,
      "y": 9.940719604492188,
      "z": 0.4549102783203125,
      "time_usec": 344335921297
    },
    {
      "x": 0.31842041015625,
      "y": 9.962265014648438,
      "z": 0.457305908203125,
      "time_usec": 344335925294
    },
    {
      "x": 0.3160247802734375,
      "y": 9.99578857421875,
      "z": 0.4812469482421875,
      "time_usec": 344335929292
    },
    {
      "x": 0.30645751953125,
      "y": 9.957489013671875,
      "z": 0.562652587890625,
      "time_usec": 344335933290
    },
    {
      "x": 0.284912109375,
      "y": 9.9742431640625,
      "z": 0.565032958984375,
      "time_usec": 344335937288
    },
    {
      "x": 0.313629150390625,
      "y": 9.945510864257812,
      "z": 0.5291290283203125,
      "time_usec": 344335941286
    },
    {
      "x": 0.284912109375,
      "y": 9.943115234375,
      "z": 0.53631591796875,
      "time_usec": 344335945283
    },
    {
      "x": 0.3088531494140625,
      "y": 9.885650634765625,
      "z": 0.4668731689453125,
      "time_usec": 344335949281
    },
    {
      "x": 0.2298431396484375,
      "y": 9.87847900390625,
      "z": 0.4141998291015625,
      "time_usec": 344335953279
    },
    {
      "x": 0.292083740234375,
      "y": 9.885650634765625,
      "z": 0.3591461181640625,
      "time_usec": 344335957246
    },
    {
      "x": 0.2465972900390625,
      "y": 9.835372924804688,
      "z": 0.3088531494140625,
      "time_usec": 344335961244
    },
    {
      "x": 0.2681427001953125,
      "y": 9.868896484375,
      "z": 0.2657623291015625,
      "time_usec": 344335965242
    },
    {
      "x": 0.2202606201171875,
      "y": 9.818618774414062,
      "z": 0.2011260986328125,
      "time_usec": 344335969240
    },
    {
      "x": 0.2418060302734375,
      "y": 9.861709594726562,
      "z": 0.2130889892578125,
      "time_usec": 344335973238
    },
    {
      "x": 0.280120849609375,
      "y": 9.787490844726562,
      "z": 0.1484527587890625,
      "time_usec": 344335977235
    },
    {
      "x": 0.292083740234375,
      "y": 9.746795654296875,
      "z": 0.136474609375,
      "time_usec": 344335981233
    },
    {
      "x": 0.3088531494140625,
      "y": 9.686935424804688,
      "z": 0.150848388671875,
      "time_usec": 344335985231
    },
    {
      "x": 0.34954833984375,
      "y": 9.703689575195312,
      "z": 0.1556243896484375,
      "time_usec": 344335989229
    },
    {
      "x": 0.375885009765625,
      "y": 9.674972534179688,
      "z": 0.14605712890625,
      "time_usec": 344335993227
    },
    {
      "x": 0.4357452392578125,
      "y": 9.684539794921875,
      "z": 0.1819610595703125,
      "time_usec": 344335997224
    },
    {
      "x": 0.4524993896484375,
      "y": 9.6773681640625,
      "z": 0.26336669921875,
      "time_usec": 344336001222
    },
    {
      "x": 0.4094085693359375,
      "y": 9.71087646484375,
      "z": 0.3016815185546875,
      "time_usec": 344336005220
    },
    {
      "x": 0.3902435302734375,
      "y": 9.715667724609375,
      "z": 0.3615264892578125,
      "time_usec": 344336009187
    },
    {
      "x": 0.4453125,
      "y": 9.682144165039062,
      "z": 0.311248779296875,
      "time_usec": 344336013185
    },
    {
      "x": 0.471649169921875,
      "y": 9.670181274414062,
      "z": 0.35675048828125,
      "time_usec": 344336017183
    },
    {
      "x": 0.46685791015625,
      "y": 9.66778564453125,
      "z": 0.34716796875,
      "time_usec": 344336021181
    },
    {
      "x": 0.4907989501953125,
      "y": 9.629470825195312,
      "z": 0.3591461181640625,
      "time_usec": 344336025178
    },
    {
      "x": 0.5482635498046875,
      "y": 9.622299194335938,
      "z": 0.34716796875,
      "time_usec": 344336029176
    },
    {
      "x": 0.5578460693359375,
      "y": 9.607925415039062,
      "z": 0.33758544921875,
      "time_usec": 344336033174
    },
    {
      "x": 0.5889739990234375,
      "y": 9.5528564453125,
      "z": 0.3160400390625,
      "time_usec": 344336037172
    },
    {
      "x": 0.57220458984375,
      "y": 9.507369995117188,
      "z": 0.3663177490234375,
      "time_usec": 344336041170
    },
    {
      "x": 0.5482635498046875,
      "y": 9.473846435546875,
      "z": 0.28253173828125,
      "time_usec": 344336045167
    },
    {
      "x": 0.555450439453125,
      "y": 9.437942504882812,
      "z": 0.299285888671875,
      "time_usec": 344336049165
    },
    {
      "x": 0.5506591796875,
      "y": 9.406814575195312,
      "z": 0.3040771484375,
      "time_usec": 344336053163
    },
    {
      "x": 0.56024169921875,
      "y": 9.409210205078125,
      "z": 0.3184356689453125,
      "time_usec": 344336057161
    },
    {
      "x": 0.6057281494140625,
      "y": 9.4044189453125,
      "z": 0.28253173828125,
      "time_usec": 344336061128
    },
    {
      "x": 0.608123779296875,
      "y": 9.363723754882812,
      "z": 0.268157958984375,
      "time_usec": 344336065126
    },
    {
      "x": 0.5482635498046875,
      "y": 9.368515014648438,
      "z": 0.2298583984375,
      "time_usec": 344336069124
    },
    {
      "x": 0.5841827392578125,
      "y": 9.346954345703125,
      "z": 0.1484527587890625,
      "time_usec": 344336073122
    },
    {
      "x": 0.5530548095703125,
      "y": 9.323013305664062,
      "z": 0.0694427490234375,
      "time_usec": 344336077119
    },
    {
      "x": 0.5363006591796875,
      "y": 9.334991455078125,
      "z": -0.007171630859375,
      "time_usec": 344336081117
    },
    {
      "x": 0.59136962890625,
      "y": 9.3302001953125,
      "z": -0.0430908203125,
      "time_usec": 344336085115
    },
    {
      "x": 0.5578460693359375,
      "y": 9.299072265625,
      "z": -0.1268768310546875,
      "time_usec": 344336089113
    },
    {
      "x": 0.54107666015625,
      "y": 9.30865478515625,
      "z": -0.20111083984375,
      "time_usec": 344336093111
    },
    {
      "x": 0.54107666015625,
      "y": 9.299072265625,
      "z": -0.2633514404296875,
      "time_usec": 344336097108
    },
    {
      "x": 0.5386962890625,
      "y": 9.282318115234375,
      "z": -0.36151123046875,
      "time_usec": 344336101106
    },
    {
      "x": 0.5506591796875,
      "y": 9.227249145507812,
      "z": -0.3902435302734375,
      "time_usec": 344336105104
    },
    {
      "x": 0.5530548095703125,
      "y": 9.217666625976562,
      "z": -0.43572998046875,
      "time_usec": 344336109071
    },
    {
      "x": 0.5578460693359375,
      "y": 9.272735595703125,
      "z": -0.5219268798828125,
      "time_usec": 344336113069
    },
    {
      "x": 0.6105194091796875,
      "y": 9.220062255859375,
      "z": -0.5626220703125,
      "time_usec": 344336117067
    },
    {
      "x": 0.57220458984375,
      "y": 9.220062255859375,
      "z": -0.6176910400390625,
      "time_usec": 344336121065
    },
    {
      "x": 0.5267181396484375,
      "y": 9.16021728515625,
      "z": -0.620086669921875,
      "time_usec": 344336125063
    },
    {
      "x": 0.59136962890625,
      "y": 9.169784545898438,
      "z": -0.5578460693359375,
      "time_usec": 344336129060
    },
    {
      "x": 0.5051727294921875,
      "y": 9.215286254882812,
      "z": -0.5793914794921875,
      "time_usec": 344336133058
    },
    {
      "x": 0.533905029296875,
      "y": 9.20330810546875,
      "z": -0.5386810302734375,
      "time_usec": 344336137056
    },
    {
      "x": 0.5003814697265625,
      "y": 9.236831665039062,
      "z": -0.493194580078125,
      "time_usec": 344336141054
    },
    {
      "x": 0.5171356201171875,
      "y": 9.27752685546875,
      "z": -0.5171356201171875,
      "time_usec": 344336145052
    },
    {
      "x": 0.507568359375,
      "y": 9.289505004882812,
      "z": -0.533905029296875,
      "time_usec": 344336149049
    },
    {
      "x": 0.5147552490234375,
      "y": 9.344573974609375,
      "z": -0.5530548095703125,
      "time_usec": 344336153047
    },
    {
      "x": 0.4620819091796875,
      "y": 9.334991455078125,
      "z": -0.545867919921875,
      "time_usec": 344336157045
    },
    {
      "x": 0.4572906494140625,
      "y": 9.315841674804688,
      "z": -0.5003814697265625,
      "time_usec": 344336161043
    },
    {
      "x": 0.418975830078125,
      "y": 9.361328125,
      "z": -0.5506591796875,
      "time_usec": 344336165010
    },
    {
      "x": 0.3639068603515625,
      "y": 9.334991455078125,
      "z": -0.51953125,
      "time_usec": 344336169008
    },
    {
      "x": 0.3256072998046875,
      "y": 9.311050415039062,
      "z": -0.5578460693359375,
      "time_usec": 344336173006
    },
    {
      "x": 0.3160247802734375,
      "y": 9.327804565429688,
      "z": -0.56024169921875,
      "time_usec": 344336177003
    },
    {
      "x": 0.227447509765625,
      "y": 9.358932495117188,
      "z": -0.576995849609375,
      "time_usec": 344336181001
    },
    {
      "x": 0.196319580078125,
      "y": 9.354141235351562,
      "z": -0.5650177001953125,
      "time_usec": 344336184999
    },
    {
      "x": 0.186737060546875,
      "y": 9.399627685546875,
      "z": -0.581787109375,
      "time_usec": 344336188997
    },
    {
      "x": 0.1795654296875,
      "y": 9.38287353515625,
      "z": -0.52911376953125,
      "time_usec": 344336192995
    },
    {
      "x": 0.13885498046875,
      "y": 9.411605834960938,
      "z": -0.4381256103515625,
      "time_usec": 344336196992
    },
    {
      "x": 0.1843414306640625,
      "y": 9.418792724609375,
      "z": -0.4117889404296875,
      "time_usec": 344336200990
    },
    {
      "x": 0.1508331298828125,
      "y": 9.402023315429688,
      "z": -0.3686981201171875,
      "time_usec": 344336204988
    },
    {
      "x": 0.1484375,
      "y": 9.399627685546875,
      "z": -0.313629150390625,
      "time_usec": 344336208986
    },
    {
      "x": 0.1819610595703125,
      "y": 9.385269165039062,
      "z": -0.3423614501953125,
      "time_usec": 344336212984
    },
    {
      "x": 0.2082977294921875,
      "y": 9.390060424804688,
      "z": -0.2944793701171875,
      "time_usec": 344336216981
    },
    {
      "x": 0.1939239501953125,
      "y": 9.394851684570312,
      "z": -0.375885009765625,
      "time_usec": 344336220979
    },
    {
      "x": 0.284912109375,
      "y": 9.402023315429688,
      "z": -0.428558349609375,
      "time_usec": 344336224947
    },
    {
      "x": 0.2633514404296875,
      "y": 9.397232055664062,
      "z": -0.4955902099609375,
      "time_usec": 344336228944
    },
    {
      "x": 0.31842041015625,
      "y": 9.423568725585938,
      "z": -0.4955902099609375,
      "time_usec": 344336232942
    },
    {
      "x": 0.2992706298828125,
      "y": 9.385269165039062,
      "z": -0.52911376953125,
      "time_usec": 344336236940
    },
    {
      "x": 0.301666259765625,
      "y": 9.38287353515625,
      "z": -0.5626220703125,
      "time_usec": 344336240938
    },
    {
      "x": 0.3471527099609375,
      "y": 9.390060424804688,
      "z": -0.545867919921875,
      "time_usec": 344336244936
    },
    {
      "x": 0.3375701904296875,
      "y": 9.363723754882812,
      "z": -0.5386810302734375,
      "time_usec": 344336248933
    },
    {
      "x": 0.3830718994140625,
      "y": 9.38287353515625,
      "z": -0.54107666015625,
      "time_usec": 344336252931
    },
    {
      "x": 0.323211669921875,
      "y": 9.44512939453125,
      "z": -0.49798583984375,
      "time_usec": 344336256929
    },
    {
      "x": 0.359130859375,
      "y": 9.469070434570312,
      "z": -0.4907989501953125,
      "time_usec": 344336260927
    },
    {
      "x": 0.366302490234375,
      "y": 9.533706665039062,
      "z": -0.37109375,
      "time_usec": 344336264925
    },
    {
      "x": 0.459686279296875,
      "y": 9.569625854492188,
      "z": -0.323211669921875,
      "time_usec": 344336268922
    },
    {
      "x": 0.481231689453125,
      "y": 9.579193115234375,
      "z": -0.3280029296875,
      "time_usec": 344336272920
    },
    {
      "x": 0.502777099609375,
      "y": 9.607925415039062,
      "z": -0.2729339599609375,
      "time_usec": 344336276918
    },
    {
      "x": 0.5626373291015625,
      "y": 9.567230224609375,
      "z": -0.282501220703125,
      "time_usec": 344336280885
    },
    {
      "x": 0.5841827392578125,
      "y": 9.60552978515625,
      "z": -0.2681427001953125,
      "time_usec": 344336284883
    },
    {
      "x": 0.5746002197265625,
      "y": 9.579193115234375,
      "z": -0.2154693603515625,
      "time_usec": 344336288911
    },
    {
      "x": 0.5698089599609375,
      "y": 9.56243896484375,
      "z": -0.1939239501953125,
      "time_usec": 344336292879
    },
    {
      "x": 0.5793914794921875,
      "y": 9.576797485351562,
      "z": -0.227447509765625,
      "time_usec": 344336296876
    },
    {
      "x": 0.620086669921875,
      "y": 9.60552978515625,
      "z": -0.2777252197265625,
      "time_usec": 344336300874
    },
    {
      "x": 0.617706298828125,
      "y": 9.6151123046875,
      "z": -0.3423614501953125,
      "time_usec": 344336304872
    },
    {
      "x": 0.6440277099609375,
      "y": 9.60552978515625,
      "z": -0.3519439697265625,
      "time_usec": 344336308870
    },
    {
      "x": 0.6799468994140625,
      "y": 9.567230224609375,
      "z": -0.3950347900390625,
      "time_usec": 344336312868
    },
    {
      "x": 0.70867919921875,
      "y": 9.622299194335938,
      "z": -0.4165802001953125,
      "time_usec": 344336316865
    },
    {
      "x": 0.7230377197265625,
      "y": 9.6270751953125,
      "z": -0.418975830078125,
      "time_usec": 344336320863
    },
    {
      "x": 0.7110748291015625,
      "y": 9.660598754882812,
      "z": -0.46685791015625,
      "time_usec": 344336324861
    },
    {
      "x": 0.6847381591796875,
      "y": 9.66778564453125,
      "z": -0.5386810302734375,
      "time_usec": 344336328859
    },
    {
      "x": 0.6751556396484375,
      "y": 9.718063354492188,
      "z": -0.51953125,
      "time_usec": 344336332857
    },
    {
      "x": 0.67755126953125,
      "y": 9.753982543945312,
      "z": -0.5171356201171875,
      "time_usec": 344336336855
    },
    {
      "x": 0.629669189453125,
      "y": 9.787490844726562,
      "z": -0.514739990234375,
      "time_usec": 344336340852
    },
    {
      "x": 0.6679840087890625,
      "y": 9.797073364257812,
      "z": -0.4692535400390625,
      "time_usec": 344336344850
    },
    {
      "x": 0.6584014892578125,
      "y": 9.868896484375,
      "z": -0.418975830078125,
      "time_usec": 344336348817
    },
    {
      "x": 0.7014923095703125,
      "y": 9.823410034179688,
      "z": -0.3280029296875,
      "time_usec": 344336352815
    },
    {
      "x": 0.6248779296875,
      "y": 9.933547973632812,
      "z": -0.260955810546875,
      "time_usec": 344336356813
    },
    {
      "x": 0.5698089599609375,
      "y": 9.928756713867188,
      "z": -0.1460418701171875,
      "time_usec": 344336360811
    },
    {
      "x": 0.586578369140625,
      "y": 9.95269775390625,
      "z": -0.059844970703125,
      "time_usec": 344336364809
    },
    {
      "x": 0.5506591796875,
      "y": 10.062820434570312,
      "z": -0.02154541015625,
      "time_usec": 344336368806
    },
    {
      "x": 0.507568359375,
      "y": 10.134658813476562,
      "z": 0.0023956298828125,
      "time_usec": 344336372804
    },
    {
      "x": 0.4836273193359375,
      "y": 10.1849365234375,
      "z": 0.0215606689453125,
      "time_usec": 344336376802
    },
    {
      "x": 0.5051727294921875,
      "y": 10.24957275390625,
      "z": -0.0095672607421875,
      "time_usec": 344336380800
    },
    {
      "x": 0.54107666015625,
      "y": 10.283096313476562,
      "z": -0.0047760009765625,
      "time_usec": 344336384767
    },
    {
      "x": 0.4620819091796875,
      "y": 10.321395874023438,
      "z": -0.02154541015625,
      "time_usec": 344336388765
    },
    {
      "x": 0.5267181396484375,
      "y": 10.29266357421875,
      "z": -0.1292724609375,
      "time_usec": 344336392763
    },
    {
      "x": 0.493194580078125,
      "y": 10.309432983398438,
      "z": -0.1891326904296875,
      "time_usec": 344336396761
    },
    {
      "x": 0.5386962890625,
      "y": 10.3453369140625,
      "z": -0.2657470703125,
      "time_usec": 344336400758
    },
    {
      "x": 0.565032958984375,
      "y": 10.338165283203125,
      "z": -0.31842041015625,
      "time_usec": 344336404756
    },
    {
      "x": 0.5793914794921875,
      "y": 10.37646484375,
      "z": -0.3902435302734375,
      "time_usec": 344336408754
    },
    {
      "x": 0.565032958984375,
      "y": 10.342941284179688,
      "z": -0.440521240234375,
      "time_usec": 344336412752
    },
    {
      "x": 0.6057281494140625,
      "y": 10.357315063476562,
      "z": -0.524322509765625,
      "time_usec": 344336416750
    },
    {
      "x": 0.639251708984375,
      "y": 10.342941284179688,
      "z": -0.5793914794921875,
      "time_usec": 344336420747
    },
    {
      "x": 0.6129150390625,
      "y": 10.359710693359375,
      "z": -0.5746002197265625,
      "time_usec": 344336424745
    },
    {
      "x": 0.703887939453125,
      "y": 10.350128173828125,
      "z": -0.533905029296875,
      "time_usec": 344336428743
    },
    {
      "x": 0.67755126953125,
      "y": 10.357315063476562,
      "z": -0.4692535400390625,
      "time_usec": 344336432741
    },
    {
      "x": 0.7374114990234375,
      "y": 10.357315063476562,
      "z": -0.433349609375,
      "time_usec": 344336436739
    },
    {
      "x": 0.7014923095703125,
      "y": 10.335769653320312,
      "z": -0.38067626953125,
      "time_usec": 344336440706
    },
    {
      "x": 0.6631927490234375,
      "y": 10.383651733398438,
      "z": -0.3112335205078125,
      "time_usec": 344336444704
    },
    {
      "x": 0.5746002197265625,
      "y": 10.366897583007812,
      "z": -0.3399658203125,
      "time_usec": 344336448701
    },
    {
      "x": 0.555450439453125,
      "y": 10.445892333984375,
      "z": -0.3567352294921875,
      "time_usec": 344336452699
    },
    {
      "x": 0.5099639892578125,
      "y": 10.486602783203125,
      "z": -0.383056640625,
      "time_usec": 344336456697
    },
    {
      "x": 0.45489501953125,
      "y": 10.572799682617188,
      "z": -0.4477081298828125,
      "time_usec": 344336460695
    },
    {
      "x": 0.39263916015625,
      "y": 10.716445922851562,
      "z": -0.6272735595703125,
      "time_usec": 344336464693
    },
    {
      "x": 0.385467529296875,
      "y": 10.960647583007812,
      "z": -0.8906402587890625,
      "time_usec": 344336468690
    },
    {
      "x": 0.3950347900390625,
      "y": 11.171340942382812,
      "z": -1.16357421875,
      "time_usec": 344336472688
    },
    {
      "x": 0.37109375,
      "y": 11.382034301757812,
      "z": -1.4508819580078125,
      "time_usec": 344336476686
    },
    {
      "x": 0.3830718994140625,
      "y": 11.616668701171875,
      "z": -1.707061767578125,
      "time_usec": 344336480684
    },
    {
      "x": 0.3471527099609375,
      "y": 11.8560791015625,
      "z": -2.025482177734375,
      "time_usec": 344336484682
    },
    {
      "x": 0.385467529296875,
      "y": 11.88720703125,
      "z": -2.21942138671875,
      "time_usec": 344336488649
    },
    {
      "x": 0.507568359375,
      "y": 11.906356811523438,
      "z": -2.2696990966796875,
      "time_usec": 344336492647
    },
    {
      "x": 0.6871337890625,
      "y": 11.853683471679688,
      "z": -2.3008270263671875,
      "time_usec": 344336496645
    },
    {
      "x": 0.735015869140625,
      "y": 11.71722412109375,
      "z": -2.1547698974609375,
      "time_usec": 344336500642
    },
    {
      "x": 0.507568359375,
      "y": 11.573562622070312,
      "z": -1.9871826171875,
      "time_usec": 344336504640
    },
    {
      "x": 0.471649169921875,
      "y": 11.365280151367188,
      "z": -1.6472015380859375,
      "time_usec": 344336508638
    },
    {
      "x": 0.5506591796875,
      "y": 11.238372802734375,
      "z": -1.2689208984375,
      "time_usec": 344336512636
    },
    {
      "x": 0.6105194091796875,
      "y": 11.111480712890625,
      "z": -0.8643035888671875,
      "time_usec": 344336516634
    },
    {
      "x": 0.617706298828125,
      "y": 11.01092529296875,
      "z": -0.4453125,
      "time_usec": 344336520631
    },
    {
      "x": 0.5698089599609375,
      "y": 10.9031982421875,
      "z": -0.00238037109375,
      "time_usec": 344336524629
    },
    {
      "x": 0.5363006591796875,
      "y": 10.8720703125,
      "z": 0.3543548583984375,
      "time_usec": 344336528627
    },
    {
      "x": 0.5698089599609375,
      "y": 10.783477783203125,
      "z": 0.5770111083984375,
      "time_usec": 344336532625
    },
    {
      "x": 0.629669189453125,
      "y": 10.71405029296875,
      "z": 0.7829132080078125,
      "time_usec": 344336536623
    },
    {
      "x": 0.6105194091796875,
      "y": 10.654190063476562,
      "z": 1.0462799072265625,
      "time_usec": 344336540590
    },
    {
      "x": 0.6631927490234375,
      "y": 10.601516723632812,
      "z": 1.249786376953125,
      "time_usec": 344336544588
    },
    {
      "x": 0.756561279296875,
      "y": 10.553634643554688,
      "z": 1.5131378173828125,
      "time_usec": 344336548585
    },
    {
      "x": 0.78289794921875,
      "y": 10.484207153320312,
      "z": 1.7525634765625,
      "time_usec": 344336552583
    },
    {
      "x": 0.7110748291015625,
      "y": 10.508148193359375,
      "z": 1.948883056640625,
      "time_usec": 344336556581
    },
    {
      "x": 0.7374114990234375,
      "y": 10.462661743164062,
      "z": 2.1308441162109375,
      "time_usec": 344336560579
    },
    {
      "x": 0.6272735595703125,
      "y": 10.371673583984375,
      "z": 2.2481689453125,
      "time_usec": 344336564577
    },
    {
      "x": 0.6320648193359375,
      "y": 10.28070068359375,
      "z": 2.3726654052734375,
      "time_usec": 344336568574
    },
    {
      "x": 0.651214599609375,
      "y": 10.23760986328125,
      "z": 2.48040771484375,
      "time_usec": 344336572572
    },
    {
      "x": 0.6368560791015625,
      "y": 10.156204223632812,
      "z": 2.5258941650390625,
      "time_usec": 344336576570
    },
    {
      "x": 0.7422027587890625,
      "y": 10.019729614257812,
      "z": 2.5330810546875,
      "time_usec": 344336580568
    },
    {
      "x": 0.7685394287109375,
      "y": 9.969451904296875,
      "z": 2.5474395751953125,
      "time_usec": 344336584566
    },
    {
      "x": 0.8020477294921875,
      "y": 9.902420043945312,
      "z": 2.475616455078125,
      "time_usec": 344336588563
    },
    {
      "x": 0.8643035888671875,
      "y": 9.84735107421875,
      "z": 2.391815185546875,
      "time_usec": 344336592531
    },
    {
      "x": 0.883453369140625,
      "y": 9.739608764648438,
      "z": 2.264923095703125,
      "time_usec": 344336596529
    },
    {
      "x": 0.893035888671875,
      "y": 9.686935424804688,
      "z": 2.08056640625,
      "time_usec": 344336600526
    },
    {
      "x": 0.8499298095703125,
      "y": 9.660598754882812,
      "z": 1.91058349609375,
      "time_usec": 344336604524
    },
    {
      "x": 0.9385223388671875,
      "y": 9.572021484375,
      "z": 1.673553466796875,
      "time_usec": 344336608522
    },
    {
      "x": 0.9911956787109375,
      "y": 9.550460815429688,
      "z": 1.48919677734375,
      "time_usec": 344336612520
    },
    {
      "x": 0.94091796875,
      "y": 9.45709228515625,
      "z": 1.1827392578125,
      "time_usec": 344336616518
    },
    {
      "x": 1.027099609375,
      "y": 9.476242065429688,
      "z": 0.890655517578125,
      "time_usec": 344336620515
    },
    {
      "x": 0.988800048828125,
      "y": 9.394851684570312,
      "z": 0.658416748046875,
      "time_usec": 344336624513
    },
    {
      "x": 1.03668212890625,
      "y": 9.370895385742188,
      "z": 0.438140869140625,
      "time_usec": 344336628511
    },
    {
      "x": 1.072601318359375,
      "y": 9.315841674804688,
      "z": 0.2082977294921875,
      "time_usec": 344336632509
    },
    {
      "x": 1.115692138671875,
      "y": 9.239227294921875,
      "z": 0.0431060791015625,
      "time_usec": 344336636507
    },
    {
      "x": 1.1276702880859375,
      "y": 9.200912475585938,
      "z": -0.0837860107421875,
      "time_usec": 344336640474
    },
    {
      "x": 1.18511962890625,
      "y": 9.102752685546875,
      "z": -0.2537841796875,
      "time_usec": 344336644472
    },
    {
      "x": 1.225830078125,
      "y": 8.995010375976562,
      "z": -0.34954833984375,
      "time_usec": 344336648469
    },
    {
      "x": 1.2282257080078125,
      "y": 8.937545776367188,
      "z": -0.4740447998046875,
      "time_usec": 344336652467
    },
    {
      "x": 1.21624755859375,
      "y": 8.803482055664062,
      "z": -0.5099639892578125,
      "time_usec": 344336656465
    },
    {
      "x": 1.2066650390625,
      "y": 8.743621826171875,
      "z": -0.5650177001953125,
      "time_usec": 344336660463
    },
    {
      "x": 1.2066650390625,
      "y": 8.645462036132812,
      "z": -0.567413330078125,
      "time_usec": 344336664461
    },
    {
      "x": 1.177947998046875,
      "y": 8.511383056640625,
      "z": -0.555450439453125,
      "time_usec": 344336668459
    },
    {
      "x": 1.2186431884765625,
      "y": 8.49462890625,
      "z": -0.5913543701171875,
      "time_usec": 344336672456
    },
    {
      "x": 1.2569580078125,
      "y": 8.403640747070312,
      "z": -0.5171356201171875,
      "time_usec": 344336676454
    },
    {
      "x": 1.2282257080078125,
      "y": 8.355758666992188,
      "z": -0.5003814697265625,
      "time_usec": 344336680452
    },
    {
      "x": 1.2976531982421875,
      "y": 8.267181396484375,
      "z": -0.5386810302734375,
      "time_usec": 344336684419
    },
    {
      "x": 1.2761077880859375,
