{
  "frames": [
    {
      "frame_id": 0,
      "sensor_timestamp": 344336047681094,
      "time_usec": 565768887324
    },
    {
      "frame_id": 1,
      "sensor_timestamp": 344336081053094,
      "time_usec": 565768920696
    },
    {
      "frame_id": 2,
      "sensor_timestamp": 344336114374094,
      "time_usec": 565768954017
    },
    {
      "frame_id": 3,
      "sensor_timestamp": 344336147708094,
      "time_usec": 565768987351
    },
    {
      "frame_id": 4,
      "sensor_timestamp": 344336181039094,
      "time_usec": 565769020682
    },
    {
      "frame_id": 5,
      "sensor_timestamp": 344336214379094,
      "time_usec": 565769054022
    },
    {
      "frame_id": 6,
      "sensor_timestamp": 344336247723094,
      "time_usec": 565769087366
    },
    {
      "frame_id": 7,
      "sensor_timestamp": 344336281043094,
      "time_usec": 565769120686
    },
    {
      "frame_id": 8,
      "sensor_timestamp": 344336314379094,
      "time_usec": 565769154022
    },
    {
      "frame_id": 9,
      "sensor_timestamp": 344336347721094,
      "time_usec": 565769187364
    },
    {
      "frame_id": 10,
      "sensor_timestamp": 344336381047094,
      "time_usec": 565769220690
    },
    {
      "frame_id": 11,
      "sensor_timestamp": 344336414383094,
      "time_usec": 565769254026
    },
    {
      "frame_id": 12,
      "sensor_timestamp": 344336447737094,
      "time_usec": 565769287380
    },
    {
      "frame_id": 13,
      "sensor_timestamp": 344336481071094,
      "time_usec": 565769320714
    },
    {
      "frame_id": 14,
      "sensor_timestamp": 344336514391094,
      "time_usec": 565769354034
    },
    {
      "frame_id": 15,
      "sensor_timestamp": 344336547779094,
      "time_usec": 565769387422
    },
    {
      "frame_id": 16,
      "sensor_timestamp": 344336581081094,
      "time_usec": 565769420724
    },
    {
      "frame_id": 17,
      "sensor_timestamp": 344336614399094,
      "time_usec": 565769454042
    },
    {
      "frame_id": 18,
      "sensor_timestamp": 344336647738094,
      "time_usec": 565769487381
    },
    {
      "frame_id": 19,
      "sensor_timestamp": 344336681088094,
      "time_usec": 565769520731
    },
    {
      "frame_id": 20,
      "sensor_timestamp": 344336714453094,
      "time_usec": 565769554096
    },
    {
      "frame_id": 21,
      "sensor_timestamp": 344336747789094,
      "time_usec": 565769587432
    },
    {
      "frame_id": 22,
      "sensor_timestamp": 344336781082094,
      "time_usec": 565769620725
    },
    {
      "frame_id": 23,
      "sensor_timestamp": 344336814429094,
      "time_usec": 565769654072
    },
    {
      "frame_id": 24,
      "sensor_timestamp": 344336847750094,
      "time_usec": 565769687393
    },
    {
      "frame_id": 25,
      "sensor_timestamp": 344336881091094,
      "time_usec": 565769720734
    },
    {
      "frame_id": 26,
      "sensor_timestamp": 344336914429094,
      "time_usec": 565769754072
    },
    {
      "frame_id": 27,
      "sensor_timestamp": 344336947784094,
      "time_usec": 565769787427
    },
    {
      "frame_id": 28,
      "sensor_timestamp": 344336981104094,
      "time_usec": 565769820747
    },
    {
      "frame_id": 29,
      "sensor_timestamp": 344337014435094,
      "time_usec": 565769854078
    },
    {
      "frame_id": 30,
      "sensor_timestamp": 344337047777094,
      "time_usec": 565769887420
    },
    {
      "frame_id": 31,
      "sensor_timestamp": 344337081109094,
      "time_usec": 565769920752
    },
    {
      "frame_id": 32,
      "sensor_timestamp": 344337181109094,
      "time_usec": 565770020752
    },
    {
      "frame_id": 33,
      "sensor_timestamp": 344337214447094,
      "time_usec": 565770054090
    },
    {
      "frame_id": 34,
      "sensor_timestamp": 344337247815094,
      "time_usec": 565770087458
    },
    {
      "frame_id": 35,
      "sensor_timestamp": 344337281126094,
      "time_usec": 565770120769
    },
    {
      "frame_id": 36,
      "sensor_timestamp": 344337314477094,
      "time_usec": 565770154120
    },
    {
      "frame_id": 37,
      "sensor_timestamp": 344337347859094,
      "time_usec": 565770187502
    },
    {
      "frame_id": 38,
      "sensor_timestamp": 344337381154094,
      "time_usec": 565770220797
    },
    {
      "frame_id": 39,
      "sensor_timestamp": 344337414485094,
      "time_usec": 565770254128
    },
    {
      "frame_id": 40,
      "sensor_timestamp": 344337447810094,
      "time_usec": 565770287453
    },
    {
      "frame_id": 41,
      "sensor_timestamp": 344337481143094,
      "time_usec": 565770320786
    },
    {
      "frame_id": 42,
      "sensor_timestamp": 344337514490094,
      "time_usec": 565770354133
    },
    {
      "frame_id": 43,
      "sensor_timestamp": 344337547812094,
      "time_usec": 565770387455
    },
    {
      "frame_id": 44,
      "sensor_timestamp": 344337581164094,
      "time_usec": 565770420807
    },
    {
      "frame_id": 45,
      "sensor_timestamp": 344337614485094,
      "time_usec": 565770454128
    },
    {
      "frame_id": 46,
      "sensor_timestamp": 344337647837094,
      "time_usec": 565770487480
    },
    {
      "frame_id": 47,
      "sensor_timestamp": 344337681168094,
      "time_usec": 565770520811
    },
    {
      "frame_id": 48,
      "sensor_timestamp": 344337714493094,
      "time_usec": 565770554136
    },
    {
      "frame_id": 49,
      "sensor_timestamp": 344337747858094,
      "time_usec": 565770587501
    },
    {
      "frame_id": 50,
      "sensor_timestamp": 344337781168094,
      "time_usec": 565770620811
    },
    {
      "frame_id": 51,
      "sensor_timestamp": 344337814551094,
      "time_usec": 565770654194
    },
    {
      "frame_id": 52,
      "sensor_timestamp": 344337847837094,
      "time_usec": 565770687480
    },
    {
      "frame_id": 53,
      "sensor_timestamp": 344337881181094,
      "time_usec": 565770720824
    },
    {
      "frame_id": 54,
      "sensor_timestamp": 344337914522094,
      "time_usec": 565770754165
    },
    {
      "frame_id": 55,
      "sensor_timestamp": 344337947845094,
      "time_usec": 565770787488
    },
    {
      "frame_id": 56,
      "sensor_timestamp": 344337981189094,
      "time_usec": 565770820832
    },
    {
      "frame_id": 57,
      "sensor_timestamp": 344338014524094,
      "time_usec": 565770854167
    },
    {
      "frame_id": 58,
      "sensor_timestamp": 344338047877094,
      "time_usec": 565770887520
    },
    {
      "frame_id": 59,
      "sensor_timestamp": 344338081195094,
      "time_usec": 565770920838
    },
    {
      "frame_id": 60,
      "sensor_timestamp": 344338114526094,
      "time_usec": 565770954169
    },
    {
      "frame_id": 61,
      "sensor_timestamp": 344338147867094,
      "time_usec": 565770987510
    },
    {
      "frame_id": 62,
      "sensor_timestamp": 344338181200094,
      "time_usec": 565771020843
    },
    {
      "frame_id": 63,
      "sensor_timestamp": 344338214553094,
      "time_usec": 565771054196
    },
    {
      "frame_id": 64,
      "sensor_timestamp": 344338247892094,
      "time_usec": 565771087535
    },
    {
      "frame_id": 65,
      "sensor_timestamp": 344338281218094,
      "time_usec": 565771120861
    },
    {
      "frame_id": 66,
      "sensor_timestamp": 344338314543094,
      "time_usec": 565771154186
    },
    {
      "frame_id": 67,
      "sensor_timestamp": 344338381223094,
      "time_usec": 565771220866
    },
    {
      "frame_id": 68,
      "sensor_timestamp": 344338414559094,
      "time_usec": 565771254202
    },
    {
      "frame_id": 69,
      "sensor_timestamp": 344338447899094,
      "time_usec": 565771287542
    },
    {
      "frame_id": 70,
      "sensor_timestamp": 344338481230094,
      "time_usec": 565771320873
    },
    {
      "frame_id": 71,
      "sensor_timestamp": 344338514566094,
      "time_usec": 565771354209
    },
    {
      "frame_id": 72,
      "sensor_timestamp": 344338547898094,
      "time_usec": 565771387541
    },
    {
      "frame_id": 73,
      "sensor_timestamp": 344338581246094,
      "time_usec": 565771420889
    },
    {
      "frame_id": 74,
      "sensor_timestamp": 344338614608094,
      "time_usec": 565771454251
    },
    {
      "frame_id": 75,
      "sensor_timestamp": 344338647907094,
      "time_usec": 565771487550
    },
    {
      "frame_id": 76,
      "sensor_timestamp": 344338681254094,
      "time_usec": 565771520897
    },
    {
      "frame_id": 77,
      "sensor_timestamp": 344338747919094,
      "time_usec": 565771587562
    },
    {
      "frame_id": 78,
      "sensor_timestamp": 344338781250094,
      "time_usec": 565771620893
    },
    {
      "frame_id": 79,
      "sensor_timestamp": 344338814612094,
      "time_usec": 565771654255
    },
    {
      "frame_id": 80,
      "sensor_timestamp": 344338847933094,
      "time_usec": 565771687576
    },
    {
      "frame_id": 81,
      "sensor_timestamp": 344338881279094,
      "time_usec": 565771720922
    },
    {
      "frame_id": 82,
      "sensor_timestamp": 344338914611094,
      "time_usec": 565771754254
    },
    {
      "frame_id": 83,
      "sensor_timestamp": 344338947945094,
      "time_usec": 565771787588
    },
    {
      "frame_id": 84,
      "sensor_timestamp": 344338981274094,
      "time_usec": 565771820917
    },
    {
      "frame_id": 85,
      "sensor_timestamp": 344339014621094,
      "time_usec": 565771854264
    },
    {
      "frame_id": 86,
      "sensor_timestamp": 344339047948094,
      "time_usec": 565771887591
    },
    {
      "frame_id": 87,
      "sensor_timestamp": 344339081283094,
      "time_usec": 565771920926
    },
    {
      "frame_id": 88,
      "sensor_timestamp": 344339114627094,
      "time_usec": 565771954270
    },
    {
      "frame_id": 89,
      "sensor_timestamp": 344339147958094,
      "time_usec": 565771987601
    },
    {
      "frame_id": 90,
      "sensor_timestamp": 344339181299094,
      "time_usec": 565772020942
    },
    {
      "frame_id": 91,
      "sensor_timestamp": 344339214631094,
      "time_usec": 565772054274
    },
    {
      "frame_id": 92,
      "sensor_timestamp": 344339247970094,
      "time_usec": 565772087613
    },
    {
      "frame_id": 93,
      "sensor_timestamp": 344339281299094,
      "time_usec": 565772120942
    },
    {
      "frame_id": 94,
      "sensor_timestamp": 344339314639094,
      "time_usec": 565772154282
    },
    {
      "frame_id": 95,
      "sensor_timestamp": 344339347977094,
      "time_usec": 565772187620
    },
    {
      "frame_id": 96,
      "sensor_timestamp": 344339381308094,
      "time_usec": 565772220951
    },
    {
      "frame_id": 97,
      "sensor_timestamp": 344339414656094,
      "time_usec": 565772254299
    },
    {
      "frame_id": 98,
      "sensor_timestamp": 344339447988094,
      "time_usec": 565772287631
    },
    {
      "frame_id": 99,
      "sensor_timestamp": 344339481328094,
      "time_usec": 565772320971
    },
    {
      "frame_id": 100,
      "sensor_timestamp": 344339514649094,
      "time_usec": 565772354292
    },
    {
      "frame_id": 101,
      "sensor_timestamp": 344339548030094,
      "time_usec": 565772387673
    },
    {
      "frame_id": 102,
      "sensor_timestamp": 344339581323094,
      "time_usec": 565772420966
    },
    {
      "frame_id": 103,
      "sensor_timestamp": 344339614675094,
      "time_usec": 565772454318
    },
    {
      "frame_id": 104,
      "sensor_timestamp": 344339647992094,
      "time_usec": 565772487635
    },
    {
      "frame_id": 105,
      "sensor_timestamp": 344339681345094,
      "time_usec": 565772520988
    },
    {
      "frame_id": 106,
      "sensor_timestamp": 344339714685094,
      "time_usec": 565772554328
    },
    {
      "frame_id": 107,
      "sensor_timestamp": 344339748005094,
      "time_usec": 565772587648
    },
    {
      "frame_id": 108,
      "sensor_timestamp": 344339781350094,
      "time_usec": 565772620993
    },
    {
      "frame_id": 109,
      "sensor_timestamp": 344339814677094,
      "time_usec": 565772654320
    },
    {
      "frame_id": 110,
      "sensor_timestamp": 344339848023094,
      "time_usec": 565772687666
    },
    {
      "frame_id": 111,
      "sensor_timestamp": 344339881358094,
      "time_usec": 565772721001
    },
    {
      "frame_id": 112,
      "sensor_timestamp": 344339914681094,
      "time_usec": 565772754324
    },
    {
      "frame_id": 113,
      "sensor_timestamp": 344339948019094,
      "time_usec": 565772787662
    },
    {
      "frame_id": 114,
      "sensor_timestamp": 344339981371094,
      "time_usec": 565772821014
    },
    {
      "frame_id": 115,
      "sensor_timestamp": 344340014703094,
      "time_usec": 565772854346
    },
    {
      "frame_id": 116,
      "sensor_timestamp": 344340048033094,
      "time_usec": 565772887676
    },
    {
      "frame_id": 117,
      "sensor_timestamp": 344340081366094,
      "time_usec": 565772921009
    },
    {
      "frame_id": 118,
      "sensor_timestamp": 344340114712094,
      "time_usec": 565772954355
    },
    {
      "frame_id": 119,
      "sensor_timestamp": 344340148045094,
      "time_usec": 565772987688
    },
    {
      "frame_id": 120,
      "sensor_timestamp": 344340181374094,
      "time_usec": 565773021017
    },
    {
      "frame_id": 121,
      "sensor_timestamp": 344340214726094,
      "time_usec": 565773054369
    },
    {
      "frame_id": 122,
      "sensor_timestamp": 344340248066094,
      "time_usec": 565773087709
    },
    {
      "frame_id": 123,
      "sensor_timestamp": 344340281384094,
      "time_usec": 565773121027
    },
    {
      "frame_id": 124,
      "sensor_timestamp": 344340314723094,
      "time_usec": 565773154366
    },
    {
      "frame_id": 125,
      "sensor_timestamp": 344340348058094,
      "time_usec": 565773187701
    },
    {
      "frame_id": 126,
      "sensor_timestamp": 344340381406094,
      "time_usec": 565773221049
    },
    {
      "frame_id": 127,
      "sensor_timestamp": 344340414744094,
      "time_usec": 565773254387
    },
    {
      "frame_id": 128,
      "sensor_timestamp": 344340448060094,
      "time_usec": 565773287703
    },
    {
      "frame_id": 129,
      "sensor_timestamp": 344340481400094,
      "time_usec": 565773321043
    },
    {
      "frame_id": 130,
      "sensor_timestamp": 344340514802094,
      "time_usec": 565773354445
    },
    {
      "frame_id": 131,
      "sensor_timestamp": 344340548083094,
      "time_usec": 565773387726
    },
    {
      "frame_id": 132,
      "sensor_timestamp": 344340581417094,
      "time_usec": 565773421060
    },
    {
      "frame_id": 133,
      "sensor_timestamp": 344340614761094,
      "time_usec": 565773454404
    },
    {
      "frame_id": 134,
      "sensor_timestamp": 344340648082094,
      "time_usec": 565773487725
    },
    {
      "frame_id": 135,
      "sensor_timestamp": 344340681443094,
      "time_usec": 565773521086
    },
    {
      "frame_id": 136,
      "sensor_timestamp": 344340714762094,
      "time_usec": 565773554405
    },
    {
      "frame_id": 137,
      "sensor_timestamp": 344340748088094,
      "time_usec": 565773587731
    },
    {
      "frame_id": 138,
      "sensor_timestamp": 344340781428094,
      "time_usec": 565773621071
    },
    {
      "frame_id": 139,
      "sensor_timestamp": 344340814779094,
      "time_usec": 565773654422
    },
    {
      "frame_id": 140,
      "sensor_timestamp": 344340848112094,
      "time_usec": 565773687755
    },
    {
      "frame_id": 141,
      "sensor_timestamp": 344340881456094,
      "time_usec": 565773721099
    },
    {
      "frame_id": 142,
      "sensor_timestamp": 344340914813094,
      "time_usec": 565773754456
    },
    {
      "frame_id": 143,
      "sensor_timestamp": 344340948127094,
      "time_usec": 565773787770
    },
    {
      "frame_id": 144,
      "sensor_timestamp": 344340981463094,
      "time_usec": 565773821106
    },
    {
      "frame_id": 145,
      "sensor_timestamp": 344341014787094,
      "time_usec": 565773854430
    },
    {
      "frame_id": 146,
      "sensor_timestamp": 344341048113094,
      "time_usec": 565773887756
    },
    {
      "frame_id": 147,
      "sensor_timestamp": 344341081455094,
      "time_usec": 565773921098
    },
    {
      "frame_id": 148,
      "sensor_timestamp": 344341114892094,
      "time_usec": 565773954535
    },
    {
      "frame_id": 149,
      "sensor_timestamp": 344341148121094,
      "time_usec": 565773987764
    },
    {
      "frame_id": 150,
      "sensor_timestamp": 344341181566094,
      "time_usec": 565774021209
    },
    {
      "frame_id": 151,
      "sensor_timestamp": 344341214912094,
      "time_usec": 565774054555
    },
    {
      "frame_id": 152,
      "sensor_timestamp": 344341248216094,
      "time_usec": 565774087859
    },
    {
      "frame_id": 153,
      "sensor_timestamp": 344341281468094,
      "time_usec": 565774121111
    },
    {
      "frame_id": 154,
      "sensor_timestamp": 344341314866094,
      "time_usec": 565774154509
    },
    {
      "frame_id": 155,
      "sensor_timestamp": 344341348153094,
      "time_usec": 565774187796
    },
    {
      "frame_id": 156,
      "sensor_timestamp": 344341381494094,
      "time_usec": 565774221137
    },
    {
      "frame_id": 157,
      "sensor_timestamp": 344341414812094,
      "time_usec": 565774254455
    },
    {
      "frame_id": 158,
      "sensor_timestamp": 344341448169094,
      "time_usec": 565774287812
    },
    {
      "frame_id": 159,
      "sensor_timestamp": 344341481669094,
      "time_usec": 565774321312
    },
    {
      "frame_id": 160,
      "sensor_timestamp": 344341514940094,
      "time_usec": 565774354583
    },
    {
      "frame_id": 161,
      "sensor_timestamp": 344341548194094,
      "time_usec": 565774387837
    },
    {
      "frame_id": 162,
      "sensor_timestamp": 344341581498094,
      "time_usec": 565774421141
    },
    {
      "frame_id": 163,
      "sensor_timestamp": 344341614828094,
      "time_usec": 565774454471
    },
    {
      "frame_id": 164,
      "sensor_timestamp": 344341648215094,
      "time_usec": 565774487858
    },
    {
      "frame_id": 165,
      "sensor_timestamp": 344341681518094,
      "time_usec": 565774521161
    },
    {
      "frame_id": 166,
      "sensor_timestamp": 344341714837094,
      "time_usec": 565774554480
    },
    {
      "frame_id": 167,
      "sensor_timestamp": 344341748193094,
      "time_usec": 565774587836
    },
    {
      "frame_id": 168,
      "sensor_timestamp": 344341781659094,
      "time_usec": 565774621302
    },
    {
      "frame_id": 169,
      "sensor_timestamp": 344341814875094,
      "time_usec": 565774654518
    },
    {
      "frame_id": 170,
      "sensor_timestamp": 344341848245094,
      "time_usec": 565774687888
    },
    {
      "frame_id": 171,
      "sensor_timestamp": 344341881541094,
      "time_usec": 565774721184
    },
    {
      "frame_id": 172,
      "sensor_timestamp": 344341914883094,
      "time_usec": 565774754526
    },
    {
      "frame_id": 173,
      "sensor_timestamp": 344341948209094,
      "time_usec": 565774787852
    },
    {
      "frame_id": 174,
      "sensor_timestamp": 344341981567094,
      "time_usec": 565774821210
    },
    {
      "frame_id": 175,
      "sensor_timestamp": 344342014892094,
      "time_usec": 565774854535
    },
    {
      "frame_id": 176,
      "sensor_timestamp": 344342048219094,
      "time_usec": 565774887862
    },
    {
      "frame_id": 177,
      "sensor_timestamp": 344342081579094,
      "time_usec": 565774921222
    },
    {
      "frame_id": 178,
      "sensor_timestamp": 344342114871094,
      "time_usec": 565774954514
    },
    {
      "frame_id": 179,
      "sensor_timestamp": 344342148221094,
      "time_usec": 565774987864
    },
    {
      "frame_id": 180,
      "sensor_timestamp": 344342181557094,
      "time_usec": 565775021200
    },
    {
      "frame_id": 181,
      "sensor_timestamp": 344342214898094,
      "time_usec": 565775054541
    },
    {
      "frame_id": 182,
      "sensor_timestamp": 344342248225094,
      "time_usec": 565775087868
    },
    {
      "frame_id": 183,
      "sensor_timestamp": 344342281574094,
      "time_usec": 565775121217
    },
    {
      "frame_id": 184,
      "sensor_timestamp": 344342314907094,
      "time_usec": 565775154550
    },
    {
      "frame_id": 185,
      "sensor_timestamp": 344342348223094,
      "time_usec": 565775187866
    },
    {
      "frame_id": 186,
      "sensor_timestamp": 344342381563094,
      "time_usec": 565775221206
    },
    {
      "frame_id": 187,
      "sensor_timestamp": 344342414975094,
      "time_usec": 565775254618
    },
    {
      "frame_id": 188,
      "sensor_timestamp": 344342448261094,
      "time_usec": 565775287904
    },
    {
      "frame_id": 189,
      "sensor_timestamp": 344342481622094,
      "time_usec": 565775321265
    },
    {
      "frame_id": 190,
      "sensor_timestamp": 344342514931094,
      "time_usec": 565775354574
    },
    {
      "frame_id": 191,
      "sensor_timestamp": 344342548355094,
      "time_usec": 565775387998
    },
    {
      "frame_id": 192,
      "sensor_timestamp": 344342581652094,
      "time_usec": 565775421295
    },
    {
      "frame_id": 193,
      "sensor_timestamp": 344342614915094,
      "time_usec": 565775454558
    },
    {
      "frame_id": 194,
      "sensor_timestamp": 344342648250094,
      "time_usec": 565775487893
    },
    {
      "frame_id": 195,
      "sensor_timestamp": 344342681613094,
      "time_usec": 565775521256
    },
    {
      "frame_id": 196,
      "sensor_timestamp": 344342714926094,
      "time_usec": 565775554569
    },
    {
      "frame_id": 197,
      "sensor_timestamp": 344342748275094,
      "time_usec": 565775587918
    },
    {
      "frame_id": 198,
      "sensor_timestamp": 344342781598094,
      "time_usec": 565775621241
    },
    {
      "frame_id": 199,
      "sensor_timestamp": 344342814934094,
      "time_usec": 565775654577
    },
    {
      "frame_id": 200,
      "sensor_timestamp": 344342848284094,
      "time_usec": 565775687927
    },
    {
      "frame_id": 201,
      "sensor_timestamp": 344342881622094,
      "time_usec": 565775721265
    },
    {
      "frame_id": 202,
      "sensor_timestamp": 344342914955094,
      "time_usec": 565775754598
    },
    {
      "frame_id": 203,
      "sensor_timestamp": 344342948344094,
      "time_usec": 565775787987
    },
    {
      "frame_id": 204,
      "sensor_timestamp": 344342981614094,
      "time_usec": 565775821257
    },
    {
      "frame_id": 205,
      "sensor_timestamp": 344343014945094,
      "time_usec": 565775854588
    },
    {
      "frame_id": 206,
      "sensor_timestamp": 344343048293094,
      "time_usec": 565775887936
    },
    {
      "frame_id": 207,
      "sensor_timestamp": 344343081630094,
      "time_usec": 565775921273
    },
    {
      "frame_id": 208,
      "sensor_timestamp": 344343115048094,
      "time_usec": 565775954691
    },
    {
      "frame_id": 209,
      "sensor_timestamp": 344343148298094,
      "time_usec": 565775987941
    },
    {
      "frame_id": 210,
      "sensor_timestamp": 344343181674094,
      "time_usec": 565776021317
    },
    {
      "frame_id": 211,
      "sensor_timestamp": 344343215027094,
      "time_usec": 565776054670
    },
    {
      "frame_id": 212,
      "sensor_timestamp": 344343248317094,
      "time_usec": 565776087960
    },
    {
      "frame_id": 213,
      "sensor_timestamp": 344343281828094,
      "time_usec": 565776121471
    },
    {
      "frame_id": 214,
      "sensor_timestamp": 344343314999094,
      "time_usec": 565776154642
    },
    {
      "frame_id": 215,
      "sensor_timestamp": 344343348342094,
      "time_usec": 565776187985
    },
    {
      "frame_id": 216,
      "sensor_timestamp": 344343381663094,
      "time_usec": 565776221306
    },
    {
      "frame_id": 217,
      "sensor_timestamp": 344343415004094,
      "time_usec": 565776254647
    },
    {
      "frame_id": 218,
      "sensor_timestamp": 344343448320094,
      "time_usec": 565776287963
    },
    {
      "frame_id": 219,
      "sensor_timestamp": 344343481665094,
      "time_usec": 565776321308
    },
    {
      "frame_id": 220,
      "sensor_timestamp": 344343515009094,
      "time_usec": 565776354652
    },
    {
      "frame_id": 221,
      "sensor_timestamp": 344343548340094,
      "time_usec": 565776387983
    },
    {
      "frame_id": 222,
      "sensor_timestamp": 344343581671094,
      "time_usec": 565776421314
    },
    {
      "frame_id": 223,
      "sensor_timestamp": 344343615020094,
      "time_usec": 565776454663
    },
    {
      "frame_id": 224,
      "sensor_timestamp": 344343648346094,
      "time_usec": 565776487989
    },
    {
      "frame_id": 225,
      "sensor_timestamp": 344343681675094,
      "time_usec": 565776521318
    },
    {
      "frame_id": 226,
      "sensor_timestamp": 344343715024094,
      "time_usec": 565776554667
    },
    {
      "frame_id": 227,
      "sensor_timestamp": 344343748351094,
      "time_usec": 565776587994
    },
    {
      "frame_id": 228,
      "sensor_timestamp": 344343781683094,
      "time_usec": 565776621326
    },
    {
      "frame_id": 229,
      "sensor_timestamp": 344343815020094,
      "time_usec": 565776654663
    },
    {
      "frame_id": 230,
      "sensor_timestamp": 344343848354094,
      "time_usec": 565776687997
    },
    {
      "frame_id": 231,
      "sensor_timestamp": 344343881702094,
      "time_usec": 565776721345
    },
    {
      "frame_id": 232,
      "sensor_timestamp": 344343915050094,
      "time_usec": 565776754693
    },
    {
      "frame_id": 233,
      "sensor_timestamp": 344343948374094,
      "time_usec": 565776788017
    },
    {
      "frame_id": 234,
      "sensor_timestamp": 344343981700094,
      "time_usec": 565776821343
    },
    {
      "frame_id": 235,
      "sensor_timestamp": 344344015046094,
      "time_usec": 565776854689
    },
    {
      "frame_id": 236,
      "sensor_timestamp": 344344048392094,
      "time_usec": 565776888035
    },
    {
      "frame_id": 237,
      "sensor_timestamp": 344344081726094,
      "time_usec": 565776921369
    },
    {
      "frame_id": 238,
      "sensor_timestamp": 344344115054094,
      "time_usec": 565776954697
    },
    {
      "frame_id": 239,
      "sensor_timestamp": 344344148436094,
      "time_usec": 565776988079
    },
    {
      "frame_id": 240,
      "sensor_timestamp": 344344181789094,
      "time_usec": 565777021432
    },
    {
      "frame_id": 241,
      "sensor_timestamp": 344344215062094,
      "time_usec": 565777054705
    },
    {
      "frame_id": 242,
      "sensor_timestamp": 344344248492094,
      "time_usec": 565777088135
    },
    {
      "frame_id": 243,
      "sensor_timestamp": 344344281740094,
      "time_usec": 565777121383
    },
    {
      "frame_id": 244,
      "sensor_timestamp": 344344315061094,
      "time_usec": 565777154704
    },
    {
      "frame_id": 245,
      "sensor_timestamp": 344344348407094,
      "time_usec": 565777188050
    },
    {
      "frame_id": 246,
      "sensor_timestamp": 344344381732094,
      "time_usec": 565777221375
    },
    {
      "frame_id": 247,
      "sensor_timestamp": 344344415083094,
      "time_usec": 565777254726
    },
    {
      "frame_id": 248,
      "sensor_timestamp": 344344448457094,
      "time_usec": 565777288100
    },
    {
      "frame_id": 249,
      "sensor_timestamp": 344344481758094,
      "time_usec": 565777321401
    },
    {
      "frame_id": 250,
      "sensor_timestamp": 344344515092094,
      "time_usec": 565777354735
    },
    {
      "frame_id": 251,
      "sensor_timestamp": 344344548473094,
      "time_usec": 565777388116
    },
    {
      "frame_id": 252,
      "sensor_timestamp": 344344581797094,
      "time_usec": 565777421440
    },
    {
      "frame_id": 253,
      "sensor_timestamp": 344344615091094,
      "time_usec": 565777454734
    },
    {
      "frame_id": 254,
      "sensor_timestamp": 344344648462094,
      "time_usec": 565777488105
    },
    {
      "frame_id": 255,
      "sensor_timestamp": 344344681791094,
      "time_usec": 565777521434
    },
    {
      "frame_id": 256,
      "sensor_timestamp": 344344715109094,
      "time_usec": 565777554752
    },
    {
      "frame_id": 257,
      "sensor_timestamp": 344344748468094,
      "time_usec": 565777588111
    },
    {
      "frame_id": 258,
      "sensor_timestamp": 344344781766094,
      "time_usec": 565777621409
    },
    {
      "frame_id": 259,
      "sensor_timestamp": 344344815116094,
      "time_usec": 565777654759
    },
    {
      "frame_id": 260,
      "sensor_timestamp": 344344848467094,
      "time_usec": 565777688110
    },
    {
      "frame_id": 261,
      "sensor_timestamp": 344344881785094,
      "time_usec": 565777721428
    },
    {
      "frame_id": 262,
      "sensor_timestamp": 344344915125094,
      "time_usec": 565777754768
    },
    {
      "frame_id": 263,
      "sensor_timestamp": 344344948488094,
      "time_usec": 565777788131
    },
    {
      "frame_id": 264,
      "sensor_timestamp": 344344981911094,
      "time_usec": 565777821554
    },
    {
      "frame_id": 265,
      "sensor_timestamp": 344345015132094,
      "time_usec": 565777854775
    },
    {
      "frame_id": 266,
      "sensor_timestamp": 344345048460094,
      "time_usec": 565777888103
    },
    {
      "frame_id": 267,
      "sensor_timestamp": 344345081796094,
      "time_usec": 565777921439
    },
    {
      "frame_id": 268,
      "sensor_timestamp": 344345115132094,
      "time_usec": 565777954775
    },
    {
      "frame_id": 269,
      "sensor_timestamp": 344345148484094,
      "time_usec": 565777988127
    },
    {
      "frame_id": 270,
      "sensor_timestamp": 344345181879094,
      "time_usec": 565778021522
    },
    {
      "frame_id": 271,
      "sensor_timestamp": 344345215141094,
      "time_usec": 565778054784
    },
    {
      "frame_id": 272,
      "sensor_timestamp": 344345248477094,
      "time_usec": 565778088120
    },
    {
      "frame_id": 273,
      "sensor_timestamp": 344345281839094,
      "time_usec": 565778121482
    },
    {
      "frame_id": 274,
      "sensor_timestamp": 344345315152094,
      "time_usec": 565778154795
    },
    {
      "frame_id": 275,
      "sensor_timestamp": 344345348494094,
      "time_usec": 565778188137
    },
    {
      "frame_id": 276,
      "sensor_timestamp": 344345381841094,
      "time_usec": 565778221484
    },
    {
      "frame_id": 277,
      "sensor_timestamp": 344345415156094,
      "time_usec": 565778254799
    },
    {
      "frame_id": 278,
      "sensor_timestamp": 344345448507094,
      "time_usec": 565778288150
    },
    {
      "frame_id": 279,
      "sensor_timestamp": 344345481832094,
      "time_usec": 565778321475
    },
    {
      "frame_id": 280,
      "sensor_timestamp": 344345515176094,
      "time_usec": 565778354819
    },
    {
      "frame_id": 281,
      "sensor_timestamp": 344345548501094,
      "time_usec": 565778388144
    },
    {
      "frame_id": 282,
      "sensor_timestamp": 344345581862094,
      "time_usec": 565778421505
    },
    {
      "frame_id": 283,
      "sensor_timestamp": 344345615257094,
      "time_usec": 565778454900
    },
    {
      "frame_id": 284,
      "sensor_timestamp": 344345648512094,
      "time_usec": 565778488155
    },
    {
      "frame_id": 285,
      "sensor_timestamp": 344345681857094,
      "time_usec": 565778521500
    },
    {
      "frame_id": 286,
      "sensor_timestamp": 344345715352094,
      "time_usec": 565778554995
    },
    {
      "frame_id": 287,
      "sensor_timestamp": 344345748525094,
      "time_usec": 565778588168
    },
    {
      "frame_id": 288,
      "sensor_timestamp": 344345781872094,
      "time_usec": 565778621515
    },
    {
      "frame_id": 289,
      "sensor_timestamp": 344345816379094,
      "time_usec": 565778656022
    },
    {
      "frame_id": 290,
      "sensor_timestamp": 344345848555094,
      "time_usec": 565778688198
    },
    {
      "frame_id": 291,
      "sensor_timestamp": 344345881885094,
      "time_usec": 565778721528
    },
    {
      "frame_id": 292,
      "sensor_timestamp": 344345915220094,
      "time_usec": 565778754863
    },
    {
      "frame_id": 293,
      "sensor_timestamp": 344345948536094,
      "time_usec": 565778788179
    },
    {
      "frame_id": 294,
      "sensor_timestamp": 344345981883094,
      "time_usec": 565778821526
    },
    {
      "frame_id": 295,
      "sensor_timestamp": 344346015223094,
      "time_usec": 565778854866
    },
    {
      "frame_id": 296,
      "sensor_timestamp": 344346048564094,
      "time_usec": 565778888207
    },
    {
      "frame_id": 297,
      "sensor_timestamp": 344346081895094,
      "time_usec": 565778921538
    },
    {
      "frame_id": 298,
      "sensor_timestamp": 344346115215094,
      "time_usec": 565778954858
    },
    {
      "frame_id": 299,
      "sensor_timestamp": 344346148574094,
      "time_usec": 565778988217
    },
    {
      "frame_id": 300,
      "sensor_timestamp": 344346181896094,
      "time_usec": 565779021539
    },
    {
      "frame_id": 301,
      "sensor_timestamp": 344346215236094,
      "time_usec": 565779054879
    },
    {
      "frame_id": 302,
      "sensor_timestamp": 344346248574094,
      "time_usec": 565779088217
    },
    {
      "frame_id": 303,
      "sensor_timestamp": 344346281912094,
      "time_usec": 565779121555
    },
    {
      "frame_id": 304,
      "sensor_timestamp": 344346315233094,
      "time_usec": 565779154876
    },
    {
      "frame_id": 305,
      "sensor_timestamp": 344346348587094,
      "time_usec": 565779188230
    },
    {
      "frame_id": 306,
      "sensor_timestamp": 344346381913094,
      "time_usec": 565779221556
    },
    {
      "frame_id": 307,
      "sensor_timestamp": 344346415260094,
      "time_usec": 565779254903
    },
    {
      "frame_id": 308,
      "sensor_timestamp": 344346448581094,
      "time_usec": 565779288224
    },
    {
      "frame_id": 309,
      "sensor_timestamp": 344346481915094,
      "time_usec": 565779321558
    },
    {
      "frame_id": 310,
      "sensor_timestamp": 344346515255094,
      "time_usec": 565779354898
    },
    {
      "frame_id": 311,
      "sensor_timestamp": 344346548610094,
      "time_usec": 565779388253
    },
    {
      "frame_id": 312,
      "sensor_timestamp": 344346582058094,
      "time_usec": 565779421701
    },
    {
      "frame_id": 313,
      "sensor_timestamp": 344346615263094,
      "time_usec": 565779454906
    },
    {
      "frame_id": 314,
      "sensor_timestamp": 344346648598094,
      "time_usec": 565779488241
    },
    {
      "frame_id": 315,
      "sensor_timestamp": 344346681945094,
      "time_usec": 565779521588
    },
    {
      "frame_id": 316,
      "sensor_timestamp": 344346715292094,
      "time_usec": 565779554935
    },
    {
      "frame_id": 317,
      "sensor_timestamp": 344346748605094,
      "time_usec": 565779588248
    },
    {
      "frame_id": 318,
      "sensor_timestamp": 344346781942094,
      "time_usec": 565779621585
    },
    {
      "frame_id": 319,
      "sensor_timestamp": 344346815278094,
      "time_usec": 565779654921
    },
    {
      "frame_id": 320,
      "sensor_timestamp": 344346848615094,
      "time_usec": 565779688258
    },
    {
      "frame_id": 321,
      "sensor_timestamp": 344346881948094,
      "time_usec": 565779721591
    },
    {
      "frame_id": 322,
      "sensor_timestamp": 344346915294094,
      "time_usec": 565779754937
    },
    {
      "frame_id": 323,
      "sensor_timestamp": 344346948734094,
      "time_usec": 565779788377
    },
    {
      "frame_id": 324,
      "sensor_timestamp": 344346982110094,
      "time_usec": 565779821753
    },
    {
      "frame_id": 325,
      "sensor_timestamp": 344347015292094,
      "time_usec": 565779854935
    },
    {
      "frame_id": 326,
      "sensor_timestamp": 344347048738094,
      "time_usec": 565779888381
    },
    {
      "frame_id": 327,
      "sensor_timestamp": 344347081988094,
      "time_usec": 565779921631
    },
    {
      "frame_id": 328,
      "sensor_timestamp": 344347115348094,
      "time_usec": 565779954991
    },
    {
      "frame_id": 329,
      "sensor_timestamp": 344347148660094,
      "time_usec": 565779988303
    },
    {
      "frame_id": 330,
      "sensor_timestamp": 344347181981094,
      "time_usec": 565780021624
    },
    {
      "frame_id": 331,
      "sensor_timestamp": 344347215314094,
      "time_usec": 565780054957
    },
    {
      "frame_id": 332,
      "sensor_timestamp": 344347248656094,
      "time_usec": 565780088299
    },
    {
      "frame_id": 333,
      "sensor_timestamp": 344347282003094,
      "time_usec": 565780121646
    },
    {
      "frame_id": 334,
      "sensor_timestamp": 344347315319094,
      "time_usec": 565780154962
    },
    {
      "frame_id": 335,
      "sensor_timestamp": 344347348681094,
      "time_usec": 565780188324
    },
    {
      "frame_id": 336,
      "sensor_timestamp": 344347382134094,
      "time_usec": 565780221777
    },
    {
      "frame_id": 337,
      "sensor_timestamp": 344347415332094,
      "time_usec": 565780254975
    },
    {
      "frame_id": 338,
      "sensor_timestamp": 344347448680094,
      "time_usec": 565780288323
    },
    {
      "frame_id": 339,
      "sensor_timestamp": 344347482017094,
      "time_usec": 565780321660
    },
    {
      "frame_id": 340,
      "sensor_timestamp": 344347515351094,
      "time_usec": 565780354994
    },
    {
      "frame_id": 341,
      "sensor_timestamp": 344347548689094,
      "time_usec": 565780388332
    },
    {
      "frame_id": 342,
      "sensor_timestamp": 344347582035094,
      "time_usec": 565780421678
    },
    {
      "frame_id": 343,
      "sensor_timestamp": 344347615354094,
      "time_usec": 565780454997
    },
    {
      "frame_id": 344,
      "sensor_timestamp": 344347648700094,
      "time_usec": 565780488343
    },
    {
      "frame_id": 345,
      "sensor_timestamp": 344347682032094,
      "time_usec": 565780521675
    },
    {
      "frame_id": 346,
      "sensor_timestamp": 344347715364094,
      "time_usec": 565780555007
    },
    {
      "frame_id": 347,
      "sensor_timestamp": 344347748706094,
      "time_usec": 565780588349
    },
    {
      "frame_id": 348,
      "sensor_timestamp": 344347782037094,
      "time_usec": 565780621680
    },
    {
      "frame_id": 349,
      "sensor_timestamp": 344347815389094,
      "time_usec": 565780655032
    },
    {
      "frame_id": 350,
      "sensor_timestamp": 344347848696094,
      "time_usec": 565780688339
    },
    {
      "frame_id": 351,
      "sensor_timestamp": 344347882084094,
      "time_usec": 565780721727
    },
    {
      "frame_id": 352,
      "sensor_timestamp": 344347915389094,
      "time_usec": 565780755032
    },
    {
      "frame_id": 353,
      "sensor_timestamp": 344347948717094,
      "time_usec": 565780788360
    },
    {
      "frame_id": 354,
      "sensor_timestamp": 344347982061094,
      "time_usec": 565780821704
    },
    {
      "frame_id": 355,
      "sensor_timestamp": 344348015383094,
      "time_usec": 565780855026
    },
    {
      "frame_id": 356,
      "sensor_timestamp": 344348048731094,
      "time_usec": 565780888374
    },
    {
      "frame_id": 357,
      "sensor_timestamp": 344348082085094,
      "time_usec": 565780921728
    },
    {
      "frame_id": 358,
      "sensor_timestamp": 344348115439094,
      "time_usec": 565780955082
    },
    {
      "frame_id": 359,
      "sensor_timestamp": 344348148757094,
      "time_usec": 565780988400
    },
    {
      "frame_id": 360,
      "sensor_timestamp": 344348182067094,
      "time_usec": 565781021710
    },
    {
      "frame_id": 361,
      "sensor_timestamp": 344348215477094,
      "time_usec": 565781055120
    },
    {
      "frame_id": 362,
      "sensor_timestamp": 344348248874094,
      "time_usec": 565781088517
    },
    {
      "frame_id": 363,
      "sensor_timestamp": 344348282094094,
      "time_usec": 565781121737
    },
    {
      "frame_id": 364,
      "sensor_timestamp": 344348315426094,
      "time_usec": 565781155069
    },
    {
      "frame_id": 365,
      "sensor_timestamp": 344348348914094,
      "time_usec": 565781188557
    },
    {
      "frame_id": 366,
      "sensor_timestamp": 344348382212094,
      "time_usec": 565781221855
    },
    {
      "frame_id": 367,
      "sensor_timestamp": 344348415461094,
      "time_usec": 565781255104
    },
    {
      "frame_id": 368,
      "sensor_timestamp": 344348448892094,
      "time_usec": 565781288535
    },
    {
      "frame_id": 369,
      "sensor_timestamp": 344348482103094,
      "time_usec": 565781321746
    },
    {
      "frame_id": 370,
      "sensor_timestamp": 344348515437094,
      "time_usec": 565781355080
    },
    {
      "frame_id": 371,
      "sensor_timestamp": 344348548772094,
      "time_usec": 565781388415
    },
    {
      "frame_id": 372,
      "sensor_timestamp": 344348582111094,
      "time_usec": 565781421754
    },
    {
      "frame_id": 373,
      "sensor_timestamp": 344348615434094,
      "time_usec": 565781455077
    },
    {
      "frame_id": 374,
      "sensor_timestamp": 344348648778094,
      "time_usec": 565781488421
    },
    {
      "frame_id": 375,
      "sensor_timestamp": 344348682103094,
      "time_usec": 565781521746
    },
    {
      "frame_id": 376,
      "sensor_timestamp": 344348715632094,
      "time_usec": 565781555275
    },
    {
      "frame_id": 377,
      "sensor_timestamp": 344348748814094,
      "time_usec": 565781588457
    },
    {
      "frame_id": 378,
      "sensor_timestamp": 344348782115094,
      "time_usec": 565781621758
    },
    {
      "frame_id": 379,
      "sensor_timestamp": 344348815451094,
      "time_usec": 565781655094
    },
    {
      "frame_id": 380,
      "sensor_timestamp": 344348848796094,
      "time_usec": 565781688439
    },
    {
      "frame_id": 381,
      "sensor_timestamp": 344348882131094,
      "time_usec": 565781721774
    },
    {
      "frame_id": 382,
      "sensor_timestamp": 344348915461094,
      "time_usec": 565781755104
    },
    {
      "frame_id": 383,
      "sensor_timestamp": 344348948817094,
      "time_usec": 565781788460
    },
    {
      "frame_id": 384,
      "sensor_timestamp": 344348982135094,
      "time_usec": 565781821778
    },
    {
      "frame_id": 385,
      "sensor_timestamp": 344349015546094,
      "time_usec": 565781855189
    },
    {
      "frame_id": 386,
      "sensor_timestamp": 344349048831094,
      "time_usec": 565781888474
    },
    {
      "frame_id": 387,
      "sensor_timestamp": 344349082276094,
      "time_usec": 565781921919
    },
    {
      "frame_id": 388,
      "sensor_timestamp": 344349115525094,
      "time_usec": 565781955168
    },
    {
      "frame_id": 389,
      "sensor_timestamp": 344349148839094,
      "time_usec": 565781988482
    },
    {
      "frame_id": 390,
      "sensor_timestamp": 344349182157094,
      "time_usec": 565782021800
    },
    {
      "frame_id": 391,
      "sensor_timestamp": 344349215500094,
      "time_usec": 565782055143
    },
    {
      "frame_id": 392,
      "sensor_timestamp": 344349248838094,
      "time_usec": 565782088481
    },
    {
      "frame_id": 393,
      "sensor_timestamp": 344349282255094,
      "time_usec": 565782121898
    },
    {
      "frame_id": 394,
      "sensor_timestamp": 344349315515094,
      "time_usec": 565782155158
    },
    {
      "frame_id": 395,
      "sensor_timestamp": 344349348935094,
      "time_usec": 565782188578
    },
    {
      "frame_id": 396,
      "sensor_timestamp": 344349382174094,
      "time_usec": 565782221817
    },
    {
      "frame_id": 397,
      "sensor_timestamp": 344349415525094,
      "time_usec": 565782255168
    },
    {
      "frame_id": 398,
      "sensor_timestamp": 344349448936094,
      "time_usec": 565782288579
    },
    {
      "frame_id": 399,
      "sensor_timestamp": 344349482178094,
      "time_usec": 565782321821
    },
    {
      "frame_id": 400,
      "sensor_timestamp": 344349515511094,
      "time_usec": 565782355154
    },
    {
      "frame_id": 401,
      "sensor_timestamp": 344349548858094,
      "time_usec": 565782388501
    },
    {
      "frame_id": 402,
      "sensor_timestamp": 344349582216094,
      "time_usec": 565782421859
    },
    {
      "frame_id": 403,
      "sensor_timestamp": 344349615537094,
      "time_usec": 565782455180
    },
    {
      "frame_id": 404,
      "sensor_timestamp": 344349648863094,
      "time_usec": 565782488506
    },
    {
      "frame_id": 405,
      "sensor_timestamp": 344349682251094,
      "time_usec": 565782521894
    },
    {
      "frame_id": 406,
      "sensor_timestamp": 344349715551094,
      "time_usec": 565782555194
    },
    {
      "frame_id": 407,
      "sensor_timestamp": 344349749003094,
      "time_usec": 565782588646
    },
    {
      "frame_id": 408,
      "sensor_timestamp": 344349782317094,
      "time_usec": 565782621960
    },
    {
      "frame_id": 409,
      "sensor_timestamp": 344349815553094,
      "time_usec": 565782655196
    },
    {
      "frame_id": 410,
      "sensor_timestamp": 344349848994094,
      "time_usec": 565782688637
    },
    {
      "frame_id": 411,
      "sensor_timestamp": 344349882208094,
      "time_usec": 565782721851
    },
    {
      "frame_id": 412,
      "sensor_timestamp": 344349915555094,
      "time_usec": 565782755198
    },
    {
      "frame_id": 413,
      "sensor_timestamp": 344349949083094,
      "time_usec": 565782788726
    },
    {
      "frame_id": 414,
      "sensor_timestamp": 344349982233094,
      "time_usec": 565782821876
    },
    {
      "frame_id": 415,
      "sensor_timestamp": 344350015585094,
      "time_usec": 565782855228
    },
    {
      "frame_id": 416,
      "sensor_timestamp": 344350048952094,
      "time_usec": 565782888595
    },
    {
      "frame_id": 417,
      "sensor_timestamp": 344350082243094,
      "time_usec": 565782921886
    },
    {
      "frame_id": 418,
      "sensor_timestamp": 344350115582094,
      "time_usec": 565782955225
    },
    {
      "frame_id": 419,
      "sensor_timestamp": 344350148911094,
      "time_usec": 565782988554
    },
    {
      "frame_id": 420,
      "sensor_timestamp": 344350182245094,
      "time_usec": 565783021888
    },
    {
      "frame_id": 421,
      "sensor_timestamp": 344350215569094,
      "time_usec": 565783055212
    },
    {
      "frame_id": 422,
      "sensor_timestamp": 344350248906094,
      "time_usec": 565783088549
    },
    {
      "frame_id": 423,
      "sensor_timestamp": 344350282261094,
      "time_usec": 565783121904
    },
    {
      "frame_id": 424,
      "sensor_timestamp": 344350315636094,
      "time_usec": 565783155279
    },
    {
      "frame_id": 425,
      "sensor_timestamp": 344350348948094,
      "time_usec": 565783188591
    },
    {
      "frame_id": 426,
      "sensor_timestamp": 344350382255094,
      "time_usec": 565783221898
    },
    {
      "frame_id": 427,
      "sensor_timestamp": 344350415646094,
      "time_usec": 565783255289
    },
    {
      "frame_id": 428,
      "sensor_timestamp": 344350448968094,
      "time_usec": 565783288611
    },
    {
      "frame_id": 429,
      "sensor_timestamp": 344350482265094,
      "time_usec": 565783321908
    },
    {
      "frame_id": 430,
      "sensor_timestamp": 344350515593094,
      "time_usec": 565783355236
    },
    {
      "frame_id": 431,
      "sensor_timestamp": 344350548944094,
      "time_usec": 565783388587
    },
    {
      "frame_id": 432,
      "sensor_timestamp": 344350582281094,
      "time_usec": 565783421924
    },
    {
      "frame_id": 433,
      "sensor_timestamp": 344350615628094,
      "time_usec": 565783455271
    },
    {
      "frame_id": 434,
      "sensor_timestamp": 344350648957094,
      "time_usec": 565783488600
    },
    {
      "frame_id": 435,
      "sensor_timestamp": 344350682456094,
      "time_usec": 565783522099
    },
    {
      "frame_id": 436,
      "sensor_timestamp": 344350715615094,
      "time_usec": 565783555258
    },
    {
      "frame_id": 437,
      "sensor_timestamp": 344350748961094,
      "time_usec": 565783588604
    },
    {
      "frame_id": 438,
      "sensor_timestamp": 344350782296094,
      "time_usec": 565783621939
    },
    {
      "frame_id": 439,
      "sensor_timestamp": 344350815646094,
      "time_usec": 565783655289
    },
    {
      "frame_id": 440,
      "sensor_timestamp": 344350848969094,
      "time_usec": 565783688612
    },
    {
      "frame_id": 441,
      "sensor_timestamp": 344350882472094,
      "time_usec": 565783722115
    },
    {
      "frame_id": 442,
      "sensor_timestamp": 344350915636094,
      "time_usec": 565783755279
    },
    {
      "frame_id": 443,
      "sensor_timestamp": 344350949017094,
      "time_usec": 565783788660
    },
    {
      "frame_id": 444,
      "sensor_timestamp": 344350982311094,
      "time_usec": 565783821954
    },
    {
      "frame_id": 445,
      "sensor_timestamp": 344351015662094,
      "time_usec": 565783855305
    },
    {
      "frame_id": 446,
      "sensor_timestamp": 344351048987094,
      "time_usec": 565783888630
    },
    {
      "frame_id": 447,
      "sensor_timestamp": 344351082430094,
      "time_usec": 565783922073
    },
    {
      "frame_id": 448,
      "sensor_timestamp": 344351115648094,
      "time_usec": 565783955291
    },
    {
      "frame_id": 449,
      "sensor_timestamp": 344351149110094,
      "time_usec": 565783988753
    },
    {
      "frame_id": 450,
      "sensor_timestamp": 344351182344094,
      "time_usec": 565784021987
    },
    {
      "frame_id": 451,
      "sensor_timestamp": 344351215658094,
      "time_usec": 565784055301
    },
    {
      "frame_id": 452,
      "sensor_timestamp": 344351249009094,
      "time_usec": 565784088652
    },
    {
      "frame_id": 453,
      "sensor_timestamp": 344351282330094,
      "time_usec": 565784121973
    },
    {
      "frame_id": 454,
      "sensor_timestamp": 344351315670094,
      "time_usec": 565784155313
    },
    {
      "frame_id": 455,
      "sensor_timestamp": 344351349001094,
      "time_usec": 565784188644
    },
    {
      "frame_id": 456,
      "sensor_timestamp": 344351382359094,
      "time_usec": 565784222002
    },
    {
      "frame_id": 457,
      "sensor_timestamp": 344351415689094,
      "time_usec": 565784255332
    },
    {
      "frame_id": 458,
      "sensor_timestamp": 344351449016094,
      "time_usec": 565784288659
    },
    {
      "frame_id": 459,
      "sensor_timestamp": 344351482365094,
      "time_usec": 565784322008
    },
    {
      "frame_id": 460,
      "sensor_timestamp": 344351515718094,
      "time_usec": 565784355361
    },
    {
      "frame_id": 461,
      "sensor_timestamp": 344351549020094,
      "time_usec": 565784388663
    },
    {
      "frame_id": 462,
      "sensor_timestamp": 344351582374094,
      "time_usec": 565784422017
    },
    {
      "frame_id": 463,
      "sensor_timestamp": 344351615835094,
      "time_usec": 565784455478
    },
    {
      "frame_id": 464,
      "sensor_timestamp": 344351649169094,
      "time_usec": 565784488812
    },
    {
      "frame_id": 465,
      "sensor_timestamp": 344351682386094,
      "time_usec": 565784522029
    },
    {
      "frame_id": 466,
      "sensor_timestamp": 344351715721094,
      "time_usec": 565784555364
    },
    {
      "frame_id": 467,
      "sensor_timestamp": 344351749039094,
      "time_usec": 565784588682
    },
    {
      "frame_id": 468,
      "sensor_timestamp": 344351782389094,
      "time_usec": 565784622032
    },
    {
      "frame_id": 469,
      "sensor_timestamp": 344351815723094,
      "time_usec": 565784655366
    },
    {
      "frame_id": 470,
      "sensor_timestamp": 344351849046094,
      "time_usec": 565784688689
    },
    {
      "frame_id": 471,
      "sensor_timestamp": 344351882397094,
      "time_usec": 565784722040
    },
    {
      "frame_id": 472,
      "sensor_timestamp": 344351915727094,
      "time_usec": 565784755370
    },
    {
      "frame_id": 473,
      "sensor_timestamp": 344351949086094,
      "time_usec": 565784788729
    },
    {
      "frame_id": 474,
      "sensor_timestamp": 344351982560094,
      "time_usec": 565784822203
    },
    {
      "frame_id": 475,
      "sensor_timestamp": 344352015735094,
      "time_usec": 565784855378
    },
    {
      "frame_id": 476,
      "sensor_timestamp": 344352049077094,
      "time_usec": 565784888720
    },
    {
      "frame_id": 477,
      "sensor_timestamp": 344352082397094,
      "time_usec": 565784922040
    },
    {
      "frame_id": 478,
      "sensor_timestamp": 344352115736094,
      "time_usec": 565784955379
    },
    {
      "frame_id": 479,
      "sensor_timestamp": 344352149082094,
      "time_usec": 565784988725
    },
    {
      "frame_id": 480,
      "sensor_timestamp": 344352182404094,
      "time_usec": 565785022047
    },
    {
      "frame_id": 481,
      "sensor_timestamp": 344352215864094,
      "time_usec": 565785055507
    },
    {
      "frame_id": 482,
      "sensor_timestamp": 344352249108094,
      "time_usec": 565785088751
    },
    {
      "frame_id": 483,
      "sensor_timestamp": 344352282425094,
      "time_usec": 565785122068
    },
    {
      "frame_id": 484,
      "sensor_timestamp": 344352315768094,
      "time_usec": 565785155411
    },
    {
      "frame_id": 485,
      "sensor_timestamp": 344352349102094,
      "time_usec": 565785188745
    },
    {
      "frame_id": 486,
      "sensor_timestamp": 344352382431094,
      "time_usec": 565785222074
    },
    {
      "frame_id": 487,
      "sensor_timestamp": 344352415766094,
      "time_usec": 565785255409
    },
    {
      "frame_id": 488,
      "sensor_timestamp": 344352449112094,
      "time_usec": 565785288755
    },
    {
      "frame_id": 489,
      "sensor_timestamp": 344352482434094,
      "time_usec": 565785322077
    },
    {
      "frame_id": 490,
      "sensor_timestamp": 344352515808094,
      "time_usec": 565785355451
    },
    {
      "frame_id": 491,
      "sensor_timestamp": 344352549265094,
      "time_usec": 565785388908
    },
    {
      "frame_id": 492,
      "sensor_timestamp": 344352582566094,
      "time_usec": 565785422209
    },
    {
      "frame_id": 493,
      "sensor_timestamp": 344352615787094,
      "time_usec": 565785455430
    },
    {
      "frame_id": 494,
      "sensor_timestamp": 344352649274094,
      "time_usec": 565785488917
    },
    {
      "frame_id": 495,
      "sensor_timestamp": 344352682464094,
      "time_usec": 565785522107
    },
    {
      "frame_id": 496,
      "sensor_timestamp": 344352715833094,
      "time_usec": 565785555476
    },
    {
      "frame_id": 497,
      "sensor_timestamp": 344352749120094,
      "time_usec": 565785588763
    },
    {
      "frame_id": 498,
      "sensor_timestamp": 344352782459094,
      "time_usec": 565785622102
    },
    {
      "frame_id": 499,
      "sensor_timestamp": 344352815794094,
      "time_usec": 565785655437
    },
    {
      "frame_id": 500,
      "sensor_timestamp": 344352849129094,
      "time_usec": 565785688772
    },
    {
      "frame_id": 501,
      "sensor_timestamp": 344352882485094,
      "time_usec": 565785722128
    },
    {
      "frame_id": 502,
      "sensor_timestamp": 344352915839094,
      "time_usec": 565785755482
    },
    {
      "frame_id": 503,
      "sensor_timestamp": 344352949140094,
      "time_usec": 565785788783
    },
    {
      "frame_id": 504,
      "sensor_timestamp": 344352982472094,
      "time_usec": 565785822115
    },
    {
      "frame_id": 505,
      "sensor_timestamp": 344353015821094,
      "time_usec": 565785855464
    },
    {
      "frame_id": 506,
      "sensor_timestamp": 344353049163094,
      "time_usec": 565785888806
    },
    {
      "frame_id": 507,
      "sensor_timestamp": 344353082482094,
      "time_usec": 565785922125
    },
    {
      "frame_id": 508,
      "sensor_timestamp": 344353115930094,
      "time_usec": 565785955573
    },
    {
      "frame_id": 509,
      "sensor_timestamp": 344353149181094,
      "time_usec": 565785988824
    },
    {
      "frame_id": 510,
      "sensor_timestamp": 344353182509094,
      "time_usec": 565786022152
    },
    {
      "frame_id": 511,
      "sensor_timestamp": 344353215827094,
      "time_usec": 565786055470
    },
    {
      "frame_id": 512,
      "sensor_timestamp": 344353249177094,
      "time_usec": 565786088820
    },
    {
      "frame_id": 513,
      "sensor_timestamp": 344353282514094,
      "time_usec": 565786122157
    },
    {
      "frame_id": 514,
      "sensor_timestamp": 344353315862094,
      "time_usec": 565786155505
    },
    {
      "frame_id": 515,
      "sensor_timestamp": 344353349191094,
      "time_usec": 565786188834
    },
    {
      "frame_id": 516,
      "sensor_timestamp": 344353382548094,
      "time_usec": 565786222191
    },
    {
      "frame_id": 517,
      "sensor_timestamp": 344353415848094,
      "time_usec": 565786255491
    },
    {
      "frame_id": 518,
      "sensor_timestamp": 344353449192094,
      "time_usec": 565786288835
    },
    {
      "frame_id": 519,
      "sensor_timestamp": 344353482529094,
      "time_usec": 565786322172
    },
    {
      "frame_id": 520,
      "sensor_timestamp": 344353515877094,
      "time_usec": 565786355520
    },
    {
      "frame_id": 521,
      "sensor_timestamp": 344353549186094,
      "time_usec": 565786388829
    },
    {
      "frame_id": 522,
      "sensor_timestamp": 344353582585094,
      "time_usec": 565786422228
    },
    {
      "frame_id": 523,
      "sensor_timestamp": 344353615870094,
      "time_usec": 565786455513
    },
    {
      "frame_id": 524,
      "sensor_timestamp": 344353649379094,
      "time_usec": 565786489022
    },
    {
      "frame_id": 525,
      "sensor_timestamp": 344353682546094,
      "time_usec": 565786522189
    },
    {
      "frame_id": 526,
      "sensor_timestamp": 344353715899094,
      "time_usec": 565786555542
    },
    {
      "frame_id": 527,
      "sensor_timestamp": 344353749320094,
      "time_usec": 565786588963
    },
    {
      "frame_id": 528,
      "sensor_timestamp": 344353782553094,
      "time_usec": 565786622196
    },
    {
      "frame_id": 529,
      "sensor_timestamp": 344353815884094,
      "time_usec": 565786655527
    },
    {
      "frame_id": 530,
      "sensor_timestamp": 344353849215094,
      "time_usec": 565786688858
    },
    {
      "frame_id": 531,
      "sensor_timestamp": 344353882555094,
      "time_usec": 565786722198
    },
    {
      "frame_id": 532,
      "sensor_timestamp": 344353915892094,
      "time_usec": 565786755535
    },
    {
      "frame_id": 533,
      "sensor_timestamp": 344353949227094,
      "time_usec": 565786788870
    },
    {
      "frame_id": 534,
      "sensor_timestamp": 344353982560094,
      "time_usec": 565786822203
    },
    {
      "frame_id": 535,
      "sensor_timestamp": 344354016049094,
      "time_usec": 565786855692
    },
    {
      "frame_id": 536,
      "sensor_timestamp": 344354049300094,
      "time_usec": 565786888943
    },
    {
      "frame_id": 537,
      "sensor_timestamp": 344354082571094,
      "time_usec": 565786922214
    },
    {
      "frame_id": 538,
      "sensor_timestamp": 344354115915094,
      "time_usec": 565786955558
    },
    {
      "frame_id": 539,
      "sensor_timestamp": 344354149243094,
      "time_usec": 565786988886
    },
    {
      "frame_id": 540,
      "sensor_timestamp": 344354182596094,
      "time_usec": 565787022239
    },
    {
      "frame_id": 541,
