{
  "rotations": [
    {
      "x": -0.0170440673828125,
      "y": -0.0374603271484375,
      "z": -0.01141357421875,
      "time_usec": 344334914308
    },
    {
      "x": -0.0042572021484375,
      "y": -0.0385284423828125,
      "z": -0.0199432373046875,
      "time_usec": 344334918306
    },
    {
      "x": 0.003204345703125,
      "y": -0.0385284423828125,
      "z": -0.024200439453125,
      "time_usec": 344334922304
    },
    {
      "x": 0.010650634765625,
      "y": -0.034271240234375,
      "z": -0.0295257568359375,
      "time_usec": 344334926302
    },
    {
      "x": 0.0095977783203125,
      "y": -0.0300140380859375,
      "z": -0.033782958984375,
      "time_usec": 344334930299
    },
    {
      "x": 0.01385498046875,
      "y": -0.0289459228515625,
      "z": -0.035919189453125,
      "time_usec": 344334934297
    },
    {
      "x": 0.0181121826171875,
      "y": -0.033203125,
      "z": -0.0391082763671875,
      "time_usec": 344334938295
    },
    {
      "x": 0.012786865234375,
      "y": -0.0395965576171875,
      "z": -0.0423126220703125,
      "time_usec": 344334942293
    },
    {
      "x": 0.0053253173828125,
      "y": -0.0385284423828125,
      "z": -0.04443359375,
      "time_usec": 344334946291
    },
    {
      "x": 0.0053253173828125,
      "y": -0.03533935546875,
      "z": -0.04443359375,
      "time_usec": 344334950288
    },
    {
      "x": 0.0,
      "y": -0.03533935546875,
      "z": -0.04443359375,
      "time_usec": 344334954286
    },
    {
      "x": -0.0053253173828125,
      "y": -0.033203125,
      "z": -0.04443359375,
      "time_usec": 344334958253
    },
    {
      "x": -0.00958251953125,
      "y": -0.033203125,
      "z": -0.0412445068359375,
      "time_usec": 344334962251
    },
    {
      "x": -0.0159759521484375,
      "y": -0.033203125,
      "z": -0.0391082763671875,
      "time_usec": 344334966249
    },
    {
      "x": -0.012786865234375,
      "y": -0.0310821533203125,
      "z": -0.0380401611328125,
      "time_usec": 344334970247
    },
    {
      "x": -0.0149078369140625,
      "y": -0.0289459228515625,
      "z": -0.035919189453125,
      "time_usec": 344334974245
    },
    {
      "x": -0.0191650390625,
      "y": -0.0268096923828125,
      "z": -0.03271484375,
      "time_usec": 344334978242
    },
    {
      "x": -0.012786865234375,
      "y": -0.02362060546875,
      "z": -0.0295257568359375,
      "time_usec": 344334982240
    },
    {
      "x": -0.010650634765625,
      "y": -0.02362060546875,
      "z": -0.0295257568359375,
      "time_usec": 344334986238
    },
    {
      "x": -0.0138397216796875,
      "y": -0.022552490234375,
      "z": -0.024200439453125,
      "time_usec": 344334990236
    },
    {
      "x": -0.008514404296875,
      "y": -0.022552490234375,
      "z": -0.02099609375,
      "time_usec": 344334994234
    },
    {
      "x": -0.0074462890625,
      "y": -0.0257568359375,
      "z": -0.0167388916015625,
      "time_usec": 344334998231
    },
    {
      "x": 0.00213623046875,
      "y": -0.024688720703125,
      "z": -0.0135498046875,
      "time_usec": 344335002229
    },
    {
      "x": 0.010650634765625,
      "y": -0.0268096923828125,
      "z": -0.010345458984375,
      "time_usec": 344335006227
    },
    {
      "x": 0.0095977783203125,
      "y": -0.0278778076171875,
      "z": -0.0050201416015625,
      "time_usec": 344335010225
    },
    {
      "x": 0.0170440673828125,
      "y": -0.0257568359375,
      "z": -0.0018310546875,
      "time_usec": 344335014223
    },
    {
      "x": 0.0213165283203125,
      "y": -0.024688720703125,
      "z": 0.001373291015625,
      "time_usec": 344335018220
    },
    {
      "x": 0.014923095703125,
      "y": -0.0193634033203125,
      "z": 0.0045623779296875,
      "time_usec": 344335022218
    },
    {
      "x": 0.0170440673828125,
      "y": -0.01190185546875,
      "z": 0.0066986083984375,
      "time_usec": 344335026216
    },
    {
      "x": 0.0042572021484375,
      "y": -0.0044403076171875,
      "z": 0.0056304931640625,
      "time_usec": 344335030214
    },
    {
      "x": 0.0,
      "y": 0.0040740966796875,
      "z": 0.0045623779296875,
      "time_usec": 344335034212
    },
    {
      "x": -0.0053253173828125,
      "y": 0.0072784423828125,
      "z": 0.0034942626953125,
      "time_usec": 344335038209
    },
    {
      "x": -0.0159759521484375,
      "y": 0.01153564453125,
      "z": 0.00244140625,
      "time_usec": 344335042207
    },
    {
      "x": -0.02130126953125,
      "y": 0.0168609619140625,
      "z": 0.00244140625,
      "time_usec": 344335046205
    },
    {
      "x": -0.0181121826171875,
      "y": 0.0189971923828125,
      "z": 0.001373291015625,
      "time_usec": 344335050203
    },
    {
      "x": -0.0266265869140625,
      "y": 0.0211181640625,
      "z": -7.62939453125E-4,
      "time_usec": 344335054201
    },
    {
      "x": -0.0298309326171875,
      "y": 0.0275115966796875,
      "z": -0.0018310546875,
      "time_usec": 344335058168
    },
    {
      "x": -0.03515625,
      "y": 0.036041259765625,
      "z": 0.001373291015625,
      "time_usec": 344335062166
    },
    {
      "x": -0.034088134765625,
      "y": 0.045623779296875,
      "z": 0.00244140625,
      "time_usec": 344335066164
    },
    {
      "x": -0.03302001953125,
      "y": 0.047760009765625,
      "z": 0.001373291015625,
      "time_usec": 344335070161
    },
    {
      "x": -0.0426025390625,
      "y": 0.0488128662109375,
      "z": 0.0034942626953125,
      "time_usec": 344335074159
    },
    {
      "x": -0.0479278564453125,
      "y": 0.0498809814453125,
      "z": 0.00244140625,
      "time_usec": 344335078157
    },
    {
      "x": -0.04473876953125,
      "y": 0.0488128662109375,
      "z": 3.0517578125E-4,
      "time_usec": 344335082155
    },
    {
      "x": -0.046875,
      "y": 0.043487548828125,
      "z": 0.001373291015625,
      "time_usec": 344335086153
    },
    {
      "x": -0.0500640869140625,
      "y": 0.043487548828125,
      "z": 0.00244140625,
      "time_usec": 344335090150
    },
    {
      "x": -0.04473876953125,
      "y": 0.0413665771484375,
      "z": 3.0517578125E-4,
      "time_usec": 344335094148
    },
    {
      "x": -0.0426025390625,
      "y": 0.0424346923828125,
      "z": 3.0517578125E-4,
      "time_usec": 344335098146
    },
    {
      "x": -0.03515625,
      "y": 0.043487548828125,
      "z": -0.002899169921875,
      "time_usec": 344335102144
    },
    {
      "x": -0.03515625,
      "y": 0.0402984619140625,
      "z": -0.0050201416015625,
      "time_usec": 344335106142
    },
    {
      "x": -0.0372772216796875,
      "y": 0.0370941162109375,
      "z": -0.0050201416015625,
      "time_usec": 344335110139
    },
    {
      "x": -0.0298309326171875,
      "y": 0.0307159423828125,
      "z": -0.0071563720703125,
      "time_usec": 344335114137
    },
    {
      "x": -0.0287628173828125,
      "y": 0.022186279296875,
      "z": -0.0060882568359375,
      "time_usec": 344335118135
    },
    {
      "x": -0.03302001953125,
      "y": 0.013671875,
      "z": -0.0060882568359375,
      "time_usec": 344335122133
    },
    {
      "x": -0.0298309326171875,
      "y": 0.0062103271484375,
      "z": -0.0050201416015625,
      "time_usec": 344335126131
    },
    {
      "x": -0.0298309326171875,
      "y": 8.85009765625E-4,
      "z": -0.0082244873046875,
      "time_usec": 344335130128
    },
    {
      "x": -0.0255584716796875,
      "y": -0.0055084228515625,
      "z": -0.0060882568359375,
      "time_usec": 344335134126
    },
    {
      "x": -0.0244903564453125,
      "y": -0.0150909423828125,
      "z": -0.0071563720703125,
      "time_usec": 344335138124
    },
    {
      "x": -0.0266265869140625,
      "y": -0.0193634033203125,
      "z": -0.002899169921875,
      "time_usec": 344335142122
    },
    {
      "x": -0.02130126953125,
      "y": -0.021484375,
      "z": -0.002899169921875,
      "time_usec": 344335146120
    },
    {
      "x": -0.020233154296875,
      "y": -0.0289459228515625,
      "z": -7.62939453125E-4,
      "time_usec": 344335150117
    },
    {
      "x": -0.0255584716796875,
      "y": -0.033203125,
      "z": 0.00244140625,
      "time_usec": 344335154085
    },
    {
      "x": -0.0234375,
      "y": -0.0385284423828125,
      "z": 0.0045623779296875,
      "time_usec": 344335158083
    },
    {
      "x": -0.0287628173828125,
      "y": -0.048126220703125,
      "z": 0.0056304931640625,
      "time_usec": 344335162080
    },
    {
      "x": -0.0266265869140625,
      "y": -0.0513153076171875,
      "z": 0.008819580078125,
      "time_usec": 344335166078
    },
    {
      "x": -0.0287628173828125,
      "y": -0.057708740234375,
      "z": 0.010955810546875,
      "time_usec": 344335170076
    },
    {
      "x": -0.034088134765625,
      "y": -0.057708740234375,
      "z": 0.013092041015625,
      "time_usec": 344335174074
    },
    {
      "x": -0.03302001953125,
      "y": -0.05450439453125,
      "z": 0.013092041015625,
      "time_usec": 344335178072
    },
    {
      "x": -0.0244903564453125,
      "y": -0.0491790771484375,
      "z": 0.010955810546875,
      "time_usec": 344335182069
    },
    {
      "x": -0.0266265869140625,
      "y": -0.04705810546875,
      "z": 0.0077667236328125,
      "time_usec": 344335186067
    },
    {
      "x": -0.0234375,
      "y": -0.0428009033203125,
      "z": 0.0077667236328125,
      "time_usec": 344335190065
    },
    {
      "x": -0.020233154296875,
      "y": -0.0385284423828125,
      "z": 0.0077667236328125,
      "time_usec": 344335194063
    },
    {
      "x": -0.0138397216796875,
      "y": -0.03533935546875,
      "z": 0.0098876953125,
      "time_usec": 344335198061
    },
    {
      "x": -0.0063934326171875,
      "y": -0.036407470703125,
      "z": 0.013092041015625,
      "time_usec": 344335202058
    },
    {
      "x": -0.0053253173828125,
      "y": -0.033203125,
      "z": 0.0173492431640625,
      "time_usec": 344335206056
    },
    {
      "x": -0.0053253173828125,
      "y": -0.0300140380859375,
      "z": 0.022674560546875,
      "time_usec": 344335210054
    },
    {
      "x": 0.0,
      "y": -0.0278778076171875,
      "z": 0.0258636474609375,
      "time_usec": 344335214052
    },
    {
      "x": -0.001068115234375,
      "y": -0.0278778076171875,
      "z": 0.0269317626953125,
      "time_usec": 344335218050
    },
    {
      "x": -0.001068115234375,
      "y": -0.024688720703125,
      "z": 0.0269317626953125,
      "time_usec": 344335222047
    },
    {
      "x": 0.003204345703125,
      "y": -0.021484375,
      "z": 0.0279998779296875,
      "time_usec": 344335226045
    },
    {
      "x": 0.0063934326171875,
      "y": -0.0161590576171875,
      "z": 0.02374267578125,
      "time_usec": 344335230043
    },
    {
      "x": 0.014923095703125,
      "y": -0.0087127685546875,
      "z": 0.0216064453125,
      "time_usec": 344335234010
    },
    {
      "x": 0.0181121826171875,
      "y": -0.0033721923828125,
      "z": 0.0194854736328125,
      "time_usec": 344335238008
    },
    {
      "x": 0.0234375,
      "y": 0.0040740966796875,
      "z": 0.020538330078125,
      "time_usec": 344335242006
    },
    {
      "x": 0.034088134765625,
      "y": 0.0072784423828125,
      "z": 0.0184173583984375,
      "time_usec": 344335246004
    },
    {
      "x": 0.0394134521484375,
      "y": 0.0168609619140625,
      "z": 0.020538330078125,
      "time_usec": 344335250001
    },
    {
      "x": 0.0415496826171875,
      "y": 0.025390625,
      "z": 0.0216064453125,
      "time_usec": 344335253999
    },
    {
      "x": 0.046875,
      "y": 0.03497314453125,
      "z": 0.020538330078125,
      "time_usec": 344335257997
    },
    {
      "x": 0.0500640869140625,
      "y": 0.0402984619140625,
      "z": 0.0194854736328125,
      "time_usec": 344335261995
    },
    {
      "x": 0.05645751953125,
      "y": 0.0445556640625,
      "z": 0.0173492431640625,
      "time_usec": 344335265993
    },
    {
      "x": 0.0522003173828125,
      "y": 0.043487548828125,
      "z": 0.0152130126953125,
      "time_usec": 344335269990
    },
    {
      "x": 0.04473876953125,
      "y": 0.0413665771484375,
      "z": 0.0141448974609375,
      "time_usec": 344335273988
    },
    {
      "x": 0.0394134521484375,
      "y": 0.03497314453125,
      "z": 0.013092041015625,
      "time_usec": 344335277986
    },
    {
      "x": 0.0308990478515625,
      "y": 0.0296478271484375,
      "z": 0.0141448974609375,
      "time_usec": 344335281984
    },
    {
      "x": 0.0170440673828125,
      "y": 0.0264434814453125,
      "z": 0.0141448974609375,
      "time_usec": 344335285982
    },
    {
      "x": 0.014923095703125,
      "y": 0.024322509765625,
      "z": 0.0173492431640625,
      "time_usec": 344335289980
    },
    {
      "x": 0.01171875,
      "y": 0.0179290771484375,
      "z": 0.0194854736328125,
      "time_usec": 344335293977
    },
    {
      "x": 0.0159759521484375,
      "y": 0.0083465576171875,
      "z": 0.0173492431640625,
      "time_usec": 344335297975
    },
    {
      "x": 0.0181121826171875,
      "y": -0.001251220703125,
      "z": 0.0162811279296875,
      "time_usec": 344335301942
    },
    {
      "x": 0.01385498046875,
      "y": -0.010833740234375,
      "z": 0.0141448974609375,
      "time_usec": 344335305940
    },
    {
      "x": 0.0213165283203125,
      "y": -0.0172271728515625,
      "z": 0.01202392578125,
      "time_usec": 344335309938
    },
    {
      "x": 0.0234375,
      "y": -0.0257568359375,
      "z": 0.013092041015625,
      "time_usec": 344335313997
    },
    {
      "x": 0.0181121826171875,
      "y": -0.0310821533203125,
      "z": 0.0152130126953125,
      "time_usec": 344335317934
    },
    {
      "x": 0.0159759521484375,
      "y": -0.033203125,
      "z": 0.0173492431640625,
      "time_usec": 344335321931
    },
    {
      "x": 0.01385498046875,
      "y": -0.0374603271484375,
      "z": 0.0162811279296875,
      "time_usec": 344335325929
    },
    {
      "x": 0.010650634765625,
      "y": -0.0374603271484375,
      "z": 0.0141448974609375,
      "time_usec": 344335329927
    },
    {
      "x": 0.0053253173828125,
      "y": -0.036407470703125,
      "z": 0.008819580078125,
      "time_usec": 344335333925
    },
    {
      "x": -0.0042572021484375,
      "y": -0.0310821533203125,
      "z": 0.0066986083984375,
      "time_usec": 344335337923
    },
    {
      "x": -0.0063934326171875,
      "y": -0.021484375,
      "z": 0.0045623779296875,
      "time_usec": 344335341920
    },
    {
      "x": -0.0031890869140625,
      "y": -0.0150909423828125,
      "z": 0.001373291015625,
      "time_usec": 344335345918
    },
    {
      "x": -0.0138397216796875,
      "y": -0.0076446533203125,
      "z": 0.001373291015625,
      "time_usec": 344335349916
    },
    {
      "x": -0.0159759521484375,
      "y": 8.85009765625E-4,
      "z": -7.62939453125E-4,
      "time_usec": 344335353883
    },
    {
      "x": -0.0181121826171875,
      "y": 0.0051422119140625,
      "z": 3.0517578125E-4,
      "time_usec": 344335357881
    },
    {
      "x": -0.0266265869140625,
      "y": 0.010467529296875,
      "z": -0.0018310546875,
      "time_usec": 344335361879
    },
    {
      "x": -0.0276947021484375,
      "y": 0.0157928466796875,
      "z": -7.62939453125E-4,
      "time_usec": 344335365877
    },
    {
      "x": -0.0383453369140625,
      "y": 0.022186279296875,
      "z": -0.002899169921875,
      "time_usec": 344335369875
    },
    {
      "x": -0.0383453369140625,
      "y": 0.0275115966796875,
      "z": -7.62939453125E-4,
      "time_usec": 344335373903
    },
    {
      "x": -0.03302001953125,
      "y": 0.0307159423828125,
      "z": 0.001373291015625,
      "time_usec": 344335377870
    },
    {
      "x": -0.034088134765625,
      "y": 0.031768798828125,
      "z": 0.00244140625,
      "time_usec": 344335381868
    },
    {
      "x": -0.031951904296875,
      "y": 0.033905029296875,
      "z": 0.00244140625,
      "time_usec": 344335385866
    },
    {
      "x": -0.0255584716796875,
      "y": 0.033905029296875,
      "z": 0.0056304931640625,
      "time_usec": 344335389864
    },
    {
      "x": -0.0287628173828125,
      "y": 0.031768798828125,
      "z": 0.0077667236328125,
      "time_usec": 344335393892
    },
    {
      "x": -0.0266265869140625,
      "y": 0.0285797119140625,
      "z": 0.010955810546875,
      "time_usec": 344335397859
    },
    {
      "x": -0.03515625,
      "y": 0.025390625,
      "z": 0.013092041015625,
      "time_usec": 344335401857
    },
    {
      "x": -0.0404815673828125,
      "y": 0.0264434814453125,
      "z": 0.0194854736328125,
      "time_usec": 344335405855
    },
    {
      "x": -0.0383453369140625,
      "y": 0.022186279296875,
      "z": 0.022674560546875,
      "time_usec": 344335409853
    },
    {
      "x": -0.0404815673828125,
      "y": 0.0157928466796875,
      "z": 0.0258636474609375,
      "time_usec": 344335413820
    },
    {
      "x": -0.0404815673828125,
      "y": 0.01153564453125,
      "z": 0.0279998779296875,
      "time_usec": 344335417848
    },
    {
      "x": -0.031951904296875,
      "y": 0.0093994140625,
      "z": 0.0301361083984375,
      "time_usec": 344335421846
    },
    {
      "x": -0.0266265869140625,
      "y": 0.001953125,
      "z": 0.03118896484375,
      "time_usec": 344335425813
    },
    {
      "x": -0.0181121826171875,
      "y": -1.8310546875E-4,
      "z": 0.03118896484375,
      "time_usec": 344335429811
    },
    {
      "x": -0.0149078369140625,
      "y": -0.0023193359375,
      "z": 0.0301361083984375,
      "time_usec": 344335433809
    },
    {
      "x": -0.0149078369140625,
      "y": 0.0040740966796875,
      "z": 0.0290679931640625,
      "time_usec": 344335437807
    },
    {
      "x": -0.008514404296875,
      "y": 0.0093994140625,
      "z": 0.0269317626953125,
      "time_usec": 344335441804
    },
    {
      "x": -0.010650634765625,
      "y": 0.0157928466796875,
      "z": 0.02374267578125,
      "time_usec": 344335445802
    },
    {
      "x": -0.0191650390625,
      "y": 0.025390625,
      "z": 0.020538330078125,
      "time_usec": 344335449800
    },
    {
      "x": -0.0181121826171875,
      "y": 0.033905029296875,
      "z": 0.0184173583984375,
      "time_usec": 344335453798
    },
    {
      "x": -0.020233154296875,
      "y": 0.0381622314453125,
      "z": 0.013092041015625,
      "time_usec": 344335457796
    },
    {
      "x": -0.02130126953125,
      "y": 0.045623779296875,
      "z": 0.0077667236328125,
      "time_usec": 344335461793
    },
    {
      "x": -0.0255584716796875,
      "y": 0.045623779296875,
      "z": 0.0056304931640625,
      "time_usec": 344335465791
    },
    {
      "x": -0.03515625,
      "y": 0.04669189453125,
      "z": 0.0045623779296875,
      "time_usec": 344335469789
    },
    {
      "x": -0.03302001953125,
      "y": 0.047760009765625,
      "z": 0.0034942626953125,
      "time_usec": 344335473787
    },
    {
      "x": -0.03515625,
      "y": 0.0445556640625,
      "z": 0.0034942626953125,
      "time_usec": 344335477754
    },
    {
      "x": -0.041534423828125,
      "y": 0.0413665771484375,
      "z": 0.0045623779296875,
      "time_usec": 344335481752
    },
    {
      "x": -0.043670654296875,
      "y": 0.0392303466796875,
      "z": 0.008819580078125,
      "time_usec": 344335485750
    },
    {
      "x": -0.0404815673828125,
      "y": 0.036041259765625,
      "z": 0.008819580078125,
      "time_usec": 344335489748
    },
    {
      "x": -0.0383453369140625,
      "y": 0.0275115966796875,
      "z": 0.01202392578125,
      "time_usec": 344335493745
    },
    {
      "x": -0.0394134521484375,
      "y": 0.02325439453125,
      "z": 0.0173492431640625,
      "time_usec": 344335497743
    },
    {
      "x": -0.043670654296875,
      "y": 0.024322509765625,
      "z": 0.0194854736328125,
      "time_usec": 344335501741
    },
    {
      "x": -0.0372772216796875,
      "y": 0.02325439453125,
      "z": 0.0216064453125,
      "time_usec": 344335505739
    },
    {
      "x": -0.031951904296875,
      "y": 0.0189971923828125,
      "z": 0.0216064453125,
      "time_usec": 344335509737
    },
    {
      "x": -0.03302001953125,
      "y": 0.0168609619140625,
      "z": 0.02374267578125,
      "time_usec": 344335513734
    },
    {
      "x": -0.0276947021484375,
      "y": 0.012603759765625,
      "z": 0.02374267578125,
      "time_usec": 344335517732
    },
    {
      "x": -0.0191650390625,
      "y": 0.010467529296875,
      "z": 0.022674560546875,
      "time_usec": 344335521730
    },
    {
      "x": -0.0159759521484375,
      "y": 0.0083465576171875,
      "z": 0.022674560546875,
      "time_usec": 344335525728
    },
    {
      "x": -0.010650634765625,
      "y": 0.0072784423828125,
      "z": 0.020538330078125,
      "time_usec": 344335529726
    },
    {
      "x": -0.0159759521484375,
      "y": 0.01153564453125,
      "z": 0.020538330078125,
      "time_usec": 344335533693
    },
    {
      "x": -0.010650634765625,
      "y": 0.0168609619140625,
      "z": 0.0173492431640625,
      "time_usec": 344335537691
    },
    {
      "x": -0.0063934326171875,
      "y": 0.0189971923828125,
      "z": 0.0141448974609375,
      "time_usec": 344335541688
    },
    {
      "x": -0.00958251953125,
      "y": 0.0179290771484375,
      "z": 0.0098876953125,
      "time_usec": 344335545686
    },
    {
      "x": -0.010650634765625,
      "y": 0.020050048828125,
      "z": 0.0045623779296875,
      "time_usec": 344335549684
    },
    {
      "x": -0.0074462890625,
      "y": 0.0189971923828125,
      "z": 0.00244140625,
      "time_usec": 344335553682
    },
    {
      "x": -0.012786865234375,
      "y": 0.020050048828125,
      "z": -0.002899169921875,
      "time_usec": 344335557680
    },
    {
      "x": -0.012786865234375,
      "y": 0.0211181640625,
      "z": -0.0039520263671875,
      "time_usec": 344335561678
    },
    {
      "x": -0.020233154296875,
      "y": 0.024322509765625,
      "z": -0.0039520263671875,
      "time_usec": 344335565675
    },
    {
      "x": -0.0244903564453125,
      "y": 0.0275115966796875,
      "z": -0.0039520263671875,
      "time_usec": 344335569673
    },
    {
      "x": -0.020233154296875,
      "y": 0.0307159423828125,
      "z": -0.002899169921875,
      "time_usec": 344335573671
    },
    {
      "x": -0.0244903564453125,
      "y": 0.025390625,
      "z": -0.0018310546875,
      "time_usec": 344335577669
    },
    {
      "x": -0.0266265869140625,
      "y": 0.024322509765625,
      "z": 3.0517578125E-4,
      "time_usec": 344335581667
    },
    {
      "x": -0.0234375,
      "y": 0.022186279296875,
      "z": 0.0045623779296875,
      "time_usec": 344335585664
    },
    {
      "x": -0.020233154296875,
      "y": 0.022186279296875,
      "z": 0.0066986083984375,
      "time_usec": 344335589632
    },
    {
      "x": -0.020233154296875,
      "y": 0.025390625,
      "z": 0.0098876953125,
      "time_usec": 344335593629
    },
    {
      "x": -0.0159759521484375,
      "y": 0.0285797119140625,
      "z": 0.0098876953125,
      "time_usec": 344335597627
    },
    {
      "x": -0.0170440673828125,
      "y": 0.0328369140625,
      "z": 0.0141448974609375,
      "time_usec": 344335601625
    },
    {
      "x": -0.008514404296875,
      "y": 0.0370941162109375,
      "z": 0.010955810546875,
      "time_usec": 344335605623
    },
    {
      "x": -0.0053253173828125,
      "y": 0.0370941162109375,
      "z": 0.0098876953125,
      "time_usec": 344335609621
    },
    {
      "x": -0.008514404296875,
      "y": 0.0381622314453125,
      "z": 0.0077667236328125,
      "time_usec": 344335613618
    },
    {
      "x": -0.0053253173828125,
      "y": 0.0392303466796875,
      "z": 0.0077667236328125,
      "time_usec": 344335617616
    },
    {
      "x": -0.0053253173828125,
      "y": 0.033905029296875,
      "z": 0.0077667236328125,
      "time_usec": 344335621614
    },
    {
      "x": -0.010650634765625,
      "y": 0.0307159423828125,
      "z": 0.010955810546875,
      "time_usec": 344335625612
    },
    {
      "x": -0.010650634765625,
      "y": 0.0307159423828125,
      "z": 0.008819580078125,
      "time_usec": 344335629610
    },
    {
      "x": -0.0191650390625,
      "y": 0.0275115966796875,
      "z": 0.010955810546875,
      "time_usec": 344335633607
    },
    {
      "x": -0.0159759521484375,
      "y": 0.0264434814453125,
      "z": 0.010955810546875,
      "time_usec": 344335637605
    },
    {
      "x": -0.0138397216796875,
      "y": 0.022186279296875,
      "z": 0.008819580078125,
      "time_usec": 344335641603
    },
    {
      "x": -0.02130126953125,
      "y": 0.0189971923828125,
      "z": 0.008819580078125,
      "time_usec": 344335645601
    },
    {
      "x": -0.02130126953125,
      "y": 0.0157928466796875,
      "z": 0.0077667236328125,
      "time_usec": 344335649599
    },
    {
      "x": -0.0191650390625,
      "y": 0.0093994140625,
      "z": 0.0056304931640625,
      "time_usec": 344335653566
    },
    {
      "x": -0.0255584716796875,
      "y": 8.85009765625E-4,
      "z": 0.0056304931640625,
      "time_usec": 344335657564
    },
    {
      "x": -0.0276947021484375,
      "y": -0.0044403076171875,
      "z": 0.0056304931640625,
      "time_usec": 344335661562
    },
    {
      "x": -0.0276947021484375,
      "y": -0.009765625,
      "z": 0.0056304931640625,
      "time_usec": 344335665559
    },
    {
      "x": -0.0244903564453125,
      "y": -0.01190185546875,
      "z": 0.0077667236328125,
      "time_usec": 344335669557
    },
    {
      "x": -0.020233154296875,
      "y": -0.009765625,
      "z": 0.0077667236328125,
      "time_usec": 344335673555
    },
    {
      "x": -0.012786865234375,
      "y": -0.0087127685546875,
      "z": 0.0066986083984375,
      "time_usec": 344335677553
    },
    {
      "x": -0.0053253173828125,
      "y": -0.009765625,
      "z": 0.0066986083984375,
      "time_usec": 344335681551
    },
    {
      "x": 0.001068115234375,
      "y": -0.012969970703125,
      "z": 0.0077667236328125,
      "time_usec": 344335685548
    },
    {
      "x": 0.0085296630859375,
      "y": -0.0193634033203125,
      "z": 0.010955810546875,
      "time_usec": 344335689546
    },
    {
      "x": 0.0170440673828125,
      "y": -0.0268096923828125,
      "z": 0.0152130126953125,
      "time_usec": 344335693544
    },
    {
      "x": 0.022369384765625,
      "y": -0.03533935546875,
      "z": 0.0162811279296875,
      "time_usec": 344335697542
    },
    {
      "x": 0.02557373046875,
      "y": -0.036407470703125,
      "z": 0.0184173583984375,
      "time_usec": 344335701540
    },
    {
      "x": 0.02557373046875,
      "y": -0.034271240234375,
      "z": 0.0184173583984375,
      "time_usec": 344335705537
    },
    {
      "x": 0.0287628173828125,
      "y": -0.0278778076171875,
      "z": 0.0184173583984375,
      "time_usec": 344335709535
    },
    {
      "x": 0.0287628173828125,
      "y": -0.022552490234375,
      "z": 0.0162811279296875,
      "time_usec": 344335713502
    },
    {
      "x": 0.0298309326171875,
      "y": -0.0150909423828125,
      "z": 0.0152130126953125,
      "time_usec": 344335717500
    },
    {
      "x": 0.0308990478515625,
      "y": -0.0076446533203125,
      "z": 0.013092041015625,
      "time_usec": 344335721498
    },
    {
      "x": 0.0319671630859375,
      "y": -1.8310546875E-4,
      "z": 0.010955810546875,
      "time_usec": 344335725496
    },
    {
      "x": 0.0319671630859375,
      "y": 0.010467529296875,
      "z": 0.0066986083984375,
      "time_usec": 344335729494
    },
    {
      "x": 0.03302001953125,
      "y": 0.0189971923828125,
      "z": 0.00244140625,
      "time_usec": 344335733491
    },
    {
      "x": 0.0298309326171875,
      "y": 0.0307159423828125,
      "z": -0.0039520263671875,
      "time_usec": 344335737489
    },
    {
      "x": 0.0319671630859375,
      "y": 0.0381622314453125,
      "z": -0.0082244873046875,
      "time_usec": 344335741487
    },
    {
      "x": 0.03515625,
      "y": 0.0413665771484375,
      "z": -0.014617919921875,
      "time_usec": 344335745485
    },
    {
      "x": 0.038360595703125,
      "y": 0.045623779296875,
      "z": -0.0178070068359375,
      "time_usec": 344335749483
    },
    {
      "x": 0.0404815673828125,
      "y": 0.0445556640625,
      "z": -0.0199432373046875,
      "time_usec": 344335753480
    },
    {
      "x": 0.045806884765625,
      "y": 0.0413665771484375,
      "z": -0.02099609375,
      "time_usec": 344335757478
    },
    {
      "x": 0.0511322021484375,
      "y": 0.0370941162109375,
      "z": -0.02099609375,
      "time_usec": 344335761476
    },
    {
      "x": 0.0543365478515625,
      "y": 0.0264434814453125,
      "z": -0.0199432373046875,
      "time_usec": 344335765443
    },
    {
      "x": 0.0554046630859375,
      "y": 0.0189971923828125,
      "z": -0.0188751220703125,
      "time_usec": 344335769441
    },
    {
      "x": 0.0554046630859375,
      "y": 0.013671875,
      "z": -0.0156707763671875,
      "time_usec": 344335773439
    },
    {
      "x": 0.0522003173828125,
      "y": 0.0072784423828125,
      "z": -0.0135498046875,
      "time_usec": 344335777437
    },
    {
      "x": 0.046875,
      "y": 0.0030059814453125,
      "z": -0.010345458984375,
      "time_usec": 344335781435
    },
    {
      "x": 0.03729248046875,
      "y": -0.0033721923828125,
      "z": -0.010345458984375,
      "time_usec": 344335785432
    },
    {
      "x": 0.0287628173828125,
      "y": -0.001251220703125,
      "z": -0.010345458984375,
      "time_usec": 344335789430
    },
    {
      "x": 0.0202484130859375,
      "y": 0.0040740966796875,
      "z": -0.00927734375,
      "time_usec": 344335793428
    },
    {
      "x": 0.014923095703125,
      "y": 0.0083465576171875,
      "z": -0.01141357421875,
      "time_usec": 344335797426
    },
    {
      "x": 0.010650634765625,
      "y": 0.0157928466796875,
      "z": -0.0135498046875,
      "time_usec": 344335801424
    },
    {
      "x": 0.0095977783203125,
      "y": 0.0211181640625,
      "z": -0.0178070068359375,
      "time_usec": 344335805421
    },
    {
      "x": 0.010650634765625,
      "y": 0.0275115966796875,
      "z": -0.022064208984375,
      "time_usec": 344335809419
    },
    {
      "x": 0.010650634765625,
      "y": 0.0307159423828125,
      "z": -0.0252685546875,
      "time_usec": 344335813417
    },
    {
      "x": 0.012786865234375,
      "y": 0.036041259765625,
      "z": -0.0284576416015625,
      "time_usec": 344335817415
    },
    {
      "x": 0.014923095703125,
      "y": 0.0381622314453125,
      "z": -0.0316619873046875,
      "time_usec": 344335821413
    },
    {
      "x": 0.0159759521484375,
      "y": 0.0424346923828125,
      "z": -0.03271484375,
      "time_usec": 344335825380
    },
    {
      "x": 0.012786865234375,
      "y": 0.045623779296875,
      "z": -0.03485107421875,
      "time_usec": 344335829378
    },
    {
      "x": 0.01171875,
      "y": 0.0530853271484375,
      "z": -0.033782958984375,
      "time_usec": 344335833376
    },
    {
      "x": 0.0085296630859375,
      "y": 0.0562744140625,
      "z": -0.03485107421875,
      "time_usec": 344335837373
    },
    {
      "x": 0.0053253173828125,
      "y": 0.059478759765625,
      "z": -0.033782958984375,
      "time_usec": 344335841371
    },
    {
      "x": 0.0,
      "y": 0.057342529296875,
      "z": -0.03271484375,
      "time_usec": 344335845369
    },
    {
      "x": -0.0053253173828125,
      "y": 0.05413818359375,
      "z": -0.0316619873046875,
      "time_usec": 344335849367
    },
    {
      "x": -0.012786865234375,
      "y": 0.0509490966796875,
      "z": -0.0263214111328125,
      "time_usec": 344335853365
    },
    {
      "x": -0.0191650390625,
      "y": 0.0424346923828125,
      "z": -0.0252685546875,
      "time_usec": 344335857362
    },
    {
      "x": -0.0276947021484375,
      "y": 0.036041259765625,
      "z": -0.02313232421875,
      "time_usec": 344335861360
    },
    {
      "x": -0.0394134521484375,
      "y": 0.0275115966796875,
      "z": -0.0199432373046875,
      "time_usec": 344335865358
    },
    {
      "x": -0.045806884765625,
      "y": 0.022186279296875,
      "z": -0.0188751220703125,
      "time_usec": 344335869356
    },
    {
      "x": -0.053253173828125,
      "y": 0.0147247314453125,
      "z": -0.0135498046875,
      "time_usec": 344335873354
    },
    {
      "x": -0.0607147216796875,
      "y": 0.0083465576171875,
      "z": -0.010345458984375,
      "time_usec": 344335877351
    },
    {
      "x": -0.0660400390625,
      "y": 0.0051422119140625,
      "z": -0.0071563720703125,
      "time_usec": 344335881349
    },
    {
      "x": -0.0713653564453125,
      "y": 0.001953125,
      "z": -0.0060882568359375,
      "time_usec": 344335885347
    },
    {
      "x": -0.0820159912109375,
      "y": 0.0040740966796875,
      "z": -0.0060882568359375,
      "time_usec": 344335889345
    },
    {
      "x": -0.0894775390625,
      "y": 0.0072784423828125,
      "z": -0.0060882568359375,
      "time_usec": 344335893312
    },
    {
      "x": -0.0980072021484375,
      "y": 0.012603759765625,
      "z": -0.0071563720703125,
      "time_usec": 344335897310
    },
    {
      "x": -0.10333251953125,
      "y": 0.0189971923828125,
      "z": -0.0071563720703125,
      "time_usec": 344335901308
    },
    {
      "x": -0.1075897216796875,
      "y": 0.024322509765625,
      "z": -0.0071563720703125,
      "time_usec": 344335905305
    },
    {
      "x": -0.1086578369140625,
      "y": 0.0285797119140625,
      "z": -0.00927734375,
      "time_usec": 344335909303
    },
    {
      "x": -0.1086578369140625,
      "y": 0.033905029296875,
      "z": -0.00927734375,
      "time_usec": 344335913301
    },
    {
      "x": -0.1075897216796875,
      "y": 0.0381622314453125,
      "z": -0.00927734375,
      "time_usec": 344335917299
    },
    {
      "x": -0.1054534912109375,
      "y": 0.043487548828125,
      "z": -0.010345458984375,
      "time_usec": 344335921297
    },
    {
      "x": -0.102264404296875,
      "y": 0.0498809814453125,
      "z": -0.00927734375,
      "time_usec": 344335925294
    },
    {
      "x": -0.0969390869140625,
      "y": 0.055206298828125,
      "z": -0.00927734375,
      "time_usec": 344335929292
    },
    {
      "x": -0.09161376953125,
      "y": 0.0615997314453125,
      "z": -0.0071563720703125,
      "time_usec": 344335933290
    },
    {
      "x": -0.07989501953125,
      "y": 0.0637359619140625,
      "z": -0.0050201416015625,
      "time_usec": 344335937288
    },
    {
      "x": -0.0660400390625,
      "y": 0.0637359619140625,
      "z": -0.0039520263671875,
      "time_usec": 344335941286
    },
    {
      "x": -0.0511322021484375,
      "y": 0.0615997314453125,
      "z": -0.0050201416015625,
      "time_usec": 344335945283
    },
    {
      "x": -0.0404815673828125,
      "y": 0.05413818359375,
      "z": -0.002899169921875,
      "time_usec": 344335949281
    },
    {
      "x": -0.0287628173828125,
      "y": 0.0488128662109375,
      "z": -0.002899169921875,
      "time_usec": 344335953279
    },
    {
      "x": -0.020233154296875,
      "y": 0.0413665771484375,
      "z": 3.0517578125E-4,
      "time_usec": 344335957246
    },
    {
      "x": -0.0170440673828125,
      "y": 0.033905029296875,
      "z": 0.001373291015625,
      "time_usec": 344335961244
    },
    {
      "x": -0.012786865234375,
      "y": 0.0264434814453125,
      "z": 0.0034942626953125,
      "time_usec": 344335965242
    },
    {
      "x": -0.0170440673828125,
      "y": 0.0179290771484375,
      "z": 0.0034942626953125,
      "time_usec": 344335969240
    },
    {
      "x": -0.0181121826171875,
      "y": 0.010467529296875,
      "z": 0.001373291015625,
      "time_usec": 344335973238
    },
    {
      "x": -0.0191650390625,
      "y": 0.0030059814453125,
      "z": 0.0045623779296875,
      "time_usec": 344335977235
    },
    {
      "x": -0.022369384765625,
      "y": -0.0033721923828125,
      "z": 0.008819580078125,
      "time_usec": 344335981233
    },
    {
      "x": -0.0255584716796875,
      "y": -0.0087127685546875,
      "z": 0.0098876953125,
      "time_usec": 344335985231
    },
    {
      "x": -0.0276947021484375,
      "y": -0.009765625,
      "z": 0.008819580078125,
      "time_usec": 344335989229
    },
    {
      "x": -0.0287628173828125,
      "y": -0.0087127685546875,
      "z": 0.0045623779296875,
      "time_usec": 344335993227
    },
    {
      "x": -0.031951904296875,
      "y": -0.009765625,
      "z": 0.0034942626953125,
      "time_usec": 344335997224
    },
    {
      "x": -0.03515625,
      "y": -0.0087127685546875,
      "z": -7.62939453125E-4,
      "time_usec": 344336001222
    },
    {
      "x": -0.0372772216796875,
      "y": -0.0076446533203125,
      "z": -0.002899169921875,
      "time_usec": 344336005220
    },
    {
      "x": -0.0362091064453125,
      "y": -0.010833740234375,
      "z": -0.0050201416015625,
      "time_usec": 344336009187
    },
    {
      "x": -0.034088134765625,
      "y": -0.0140380859375,
      "z": -0.0050201416015625,
      "time_usec": 344336013185
    },
    {
      "x": -0.0308837890625,
      "y": -0.0150909423828125,
      "z": -0.0018310546875,
      "time_usec": 344336017183
    },
    {
      "x": -0.0287628173828125,
      "y": -0.0172271728515625,
      "z": 3.0517578125E-4,
      "time_usec": 344336021181
    },
    {
      "x": -0.0234375,
      "y": -0.0182952880859375,
      "z": 0.0034942626953125,
      "time_usec": 344336025178
    },
    {
      "x": -0.0170440673828125,
      "y": -0.0182952880859375,
      "z": 0.0045623779296875,
      "time_usec": 344336029176
    },
    {
      "x": -0.010650634765625,
      "y": -0.0150909423828125,
      "z": 0.0056304931640625,
      "time_usec": 344336033174
    },
    {
      "x": -0.0042572021484375,
      "y": -0.010833740234375,
      "z": 0.008819580078125,
      "time_usec": 344336037172
    },
    {
      "x": 0.003204345703125,
      "y": -0.009765625,
      "z": 0.0098876953125,
      "time_usec": 344336041170
    },
    {
      "x": 0.0063934326171875,
      "y": -0.0044403076171875,
      "z": 0.013092041015625,
      "time_usec": 344336045167
    },
    {
      "x": 0.012786865234375,
      "y": -0.0023193359375,
      "z": 0.0162811279296875,
      "time_usec": 344336049165
    },
    {
      "x": 0.0181121826171875,
      "y": 8.85009765625E-4,
      "z": 0.0194854736328125,
      "time_usec": 344336053163
    },
    {
      "x": 0.0213165283203125,
      "y": 8.85009765625E-4,
      "z": 0.024810791015625,
      "time_usec": 344336057161
    },
    {
      "x": 0.026641845703125,
      "y": 0.0062103271484375,
      "z": 0.0258636474609375,
      "time_usec": 344336061128
    },
    {
      "x": 0.0308990478515625,
      "y": 0.010467529296875,
      "z": 0.0258636474609375,
      "time_usec": 344336065126
    },
    {
      "x": 0.03302001953125,
      "y": 0.01153564453125,
      "z": 0.02374267578125,
      "time_usec": 344336069124
    },
    {
      "x": 0.03515625,
      "y": 0.012603759765625,
      "z": 0.02374267578125,
      "time_usec": 344336073122
    },
    {
      "x": 0.03729248046875,
      "y": 0.010467529296875,
      "z": 0.02374267578125,
      "time_usec": 344336077119
    },
    {
      "x": 0.0394134521484375,
      "y": 0.0083465576171875,
      "z": 0.02374267578125,
      "time_usec": 344336081117
    },
    {
      "x": 0.0404815673828125,
      "y": 0.0030059814453125,
      "z": 0.02374267578125,
      "time_usec": 344336085115
    },
    {
      "x": 0.038360595703125,
      "y": -0.0033721923828125,
      "z": 0.022674560546875,
      "time_usec": 344336089113
    },
    {
      "x": 0.03729248046875,
      "y": -0.009765625,
      "z": 0.022674560546875,
      "time_usec": 344336093111
    },
    {
      "x": 0.03302001953125,
      "y": -0.0140380859375,
      "z": 0.0216064453125,
      "time_usec": 344336097108
    },
    {
      "x": 0.0276947021484375,
      "y": -0.0182952880859375,
      "z": 0.022674560546875,
      "time_usec": 344336101106
    },
    {
      "x": 0.0213165283203125,
      "y": -0.021484375,
      "z": 0.022674560546875,
      "time_usec": 344336105104
    },
    {
      "x": 0.014923095703125,
      "y": -0.021484375,
      "z": 0.022674560546875,
      "time_usec": 344336109071
    },
    {
      "x": 0.0095977783203125,
      "y": -0.0193634033203125,
      "z": 0.0194854736328125,
      "time_usec": 344336113069
    },
    {
      "x": 0.001068115234375,
      "y": -0.0182952880859375,
      "z": 0.0162811279296875,
      "time_usec": 344336117067
    },
    {
      "x": -0.0074462890625,
      "y": -0.012969970703125,
      "z": 0.010955810546875,
      "time_usec": 344336121065
    },
    {
      "x": -0.0191650390625,
      "y": -0.0087127685546875,
      "z": 0.0056304931640625,
      "time_usec": 344336125063
    },
    {
      "x": -0.0298309326171875,
      "y": -0.0044403076171875,
      "z": 0.001373291015625,
      "time_usec": 344336129060
    },
    {
      "x": -0.0426025390625,
      "y": 0.001953125,
      "z": -7.62939453125E-4,
      "time_usec": 344336133058
    },
    {
      "x": -0.0511322021484375,
      "y": 0.010467529296875,
      "z": -0.002899169921875,
      "time_usec": 344336137056
    },
    {
      "x": -0.0607147216796875,
      "y": 0.0179290771484375,
      "z": -0.0039520263671875,
      "time_usec": 344336141054
    },
    {
      "x": -0.0702972412109375,
      "y": 0.024322509765625,
      "z": -0.0050201416015625,
      "time_usec": 344336145052
    },
    {
      "x": -0.07989501953125,
      "y": 0.0296478271484375,
      "z": -0.0050201416015625,
      "time_usec": 344336149049
    },
    {
      "x": -0.088409423828125,
      "y": 0.033905029296875,
      "z": -0.0071563720703125,
      "time_usec": 344336153047
    },
    {
      "x": -0.0948028564453125,
      "y": 0.0413665771484375,
      "z": -0.0082244873046875,
      "time_usec": 344336157045
    },
    {
      "x": -0.0980072021484375,
      "y": 0.0498809814453125,
      "z": -0.01141357421875,
      "time_usec": 344336161043
    },
    {
      "x": -0.1011962890625,
      "y": 0.05841064453125,
      "z": -0.01141357421875,
      "time_usec": 344336165010
    },
    {
      "x": -0.0969390869140625,
      "y": 0.06585693359375,
      "z": -0.014617919921875,
      "time_usec": 344336169008
    },
    {
      "x": -0.0958709716796875,
      "y": 0.0733184814453125,
      "z": -0.014617919921875,
      "time_usec": 344336173006
    },
    {
      "x": -0.0969390869140625,
      "y": 0.07757568359375,
      "z": -0.0156707763671875,
      "time_usec": 344336177003
    },
    {
      "x": -0.0980072021484375,
      "y": 0.080780029296875,
      "z": -0.0135498046875,
      "time_usec": 344336181001
    },
    {
      "x": -0.1011962890625,
      "y": 0.0839691162109375,
      "z": -0.010345458984375,
      "time_usec": 344336184999
    },
    {
      "x": -0.1086578369140625,
      "y": 0.080780029296875,
      "z": -0.0082244873046875,
      "time_usec": 344336188997
    },
    {
      "x": -0.1182403564453125,
      "y": 0.0797119140625,
      "z": -0.002899169921875,
      "time_usec": 344336192995
    },
    {
      "x": -0.123565673828125,
      "y": 0.0754547119140625,
      "z": 3.0517578125E-4,
      "time_usec": 344336196992
    },
    {
      "x": -0.1310272216796875,
      "y": 0.0743865966796875,
      "z": 0.001373291015625,
      "time_usec": 344336200990
    },
    {
      "x": -0.137420654296875,
      "y": 0.0722503662109375,
      "z": 0.0045623779296875,
      "time_usec": 344336204988
    },
    {
      "x": -0.1395416259765625,
      "y": 0.07012939453125,
      "z": 0.0066986083984375,
      "time_usec": 344336208986
    },
    {
      "x": -0.1395416259765625,
      "y": 0.06585693359375,
      "z": 0.0056304931640625,
      "time_usec": 344336212984
    },
    {
      "x": -0.1363525390625,
      "y": 0.0626678466796875,
      "z": 0.00244140625,
      "time_usec": 344336216981
    },
    {
      "x": -0.1320953369140625,
      "y": 0.059478759765625,
      "z": 0.0045623779296875,
      "time_usec": 344336220979
    },
    {
      "x": -0.1278228759765625,
      "y": 0.055206298828125,
      "z": -7.62939453125E-4,
      "time_usec": 344336224947
    },
    {
      "x": -0.125701904296875,
      "y": 0.0498809814453125,
      "z": -0.002899169921875,
      "time_usec": 344336228944
    },
    {
      "x": -0.12249755859375,
      "y": 0.0424346923828125,
      "z": -0.0060882568359375,
      "time_usec": 344336232942
    },
    {
      "x": -0.123565673828125,
      "y": 0.036041259765625,
      "z": -0.0082244873046875,
      "time_usec": 344336236940
    },
    {
      "x": -0.123565673828125,
      "y": 0.0307159423828125,
      "z": -0.0082244873046875,
      "time_usec": 344336240938
    },
    {
      "x": -0.1246337890625,
      "y": 0.024322509765625,
      "z": -0.010345458984375,
      "time_usec": 344336244936
    },
    {
      "x": -0.12677001953125,
      "y": 0.0157928466796875,
      "z": -0.010345458984375,
      "time_usec": 344336248933
    },
    {
      "x": -0.1299591064453125,
      "y": 0.0072784423828125,
      "z": -0.010345458984375,
      "time_usec": 344336252931
    },
    {
      "x": -0.13421630859375,
      "y": -0.0044403076171875,
      "z": -0.010345458984375,
      "time_usec": 344336256929
    },
    {
      "x": -0.135284423828125,
      "y": -0.0172271728515625,
      "z": -0.0071563720703125,
      "time_usec": 344336260927
    },
    {
      "x": -0.135284423828125,
      "y": -0.0268096923828125,
      "z": -0.002899169921875,
      "time_usec": 344336264925
    },
    {
      "x": -0.135284423828125,
      "y": -0.0395965576171875,
      "z": -7.62939453125E-4,
      "time_usec": 344336268922
    },
    {
      "x": -0.1288909912109375,
      "y": -0.0502471923828125,
      "z": 0.00244140625,
      "time_usec": 344336272920
    },
    {
      "x": -0.123565673828125,
      "y": -0.05877685546875,
      "z": 0.0045623779296875,
      "time_usec": 344336276918
    },
    {
      "x": -0.1171722412109375,
      "y": -0.0641021728515625,
      "z": 0.0056304931640625,
      "time_usec": 344336280885
    },
    {
      "x": -0.1086578369140625,
      "y": -0.068359375,
      "z": 0.008819580078125,
      "time_usec": 344336284883
    },
    {
      "x": -0.09906005859375,
      "y": -0.0715484619140625,
      "z": 0.008819580078125,
      "time_usec": 344336288911
    },
    {
      "x": -0.09161376953125,
      "y": -0.0758209228515625,
      "z": 0.0098876953125,
      "time_usec": 344336292879
    },
    {
      "x": -0.080963134765625,
      "y": -0.0758209228515625,
      "z": 0.0098876953125,
      "time_usec": 344336296876
    },
    {
      "x": -0.0724334716796875,
      "y": -0.079010009765625,
      "z": 0.0098876953125,
      "time_usec": 344336300874
    },
    {
      "x": -0.0660400390625,
      "y": -0.079010009765625,
      "z": 0.0077667236328125,
      "time_usec": 344336304872
    },
    {
      "x": -0.0585784912109375,
      "y": -0.0758209228515625,
      "z": 0.0077667236328125,
      "time_usec": 344336308870
    },
    {
      "x": -0.0489959716796875,
      "y": -0.0726165771484375,
      "z": 0.0056304931640625,
      "time_usec": 344336312868
    },
    {
      "x": -0.041534423828125,
      "y": -0.067291259765625,
      "z": 0.001373291015625,
      "time_usec": 344336316865
    },
    {
      "x": -0.0362091064453125,
      "y": -0.0651702880859375,
      "z": -0.0018310546875,
      "time_usec": 344336320863
    },
    {
      "x": -0.031951904296875,
      "y": -0.059844970703125,
      "z": -0.0050201416015625,
      "time_usec": 344336324861
    },
    {
      "x": -0.0276947021484375,
      "y": -0.05450439453125,
      "z": -0.0082244873046875,
      "time_usec": 344336328859
    },
    {
      "x": -0.0255584716796875,
      "y": -0.04705810546875,
      "z": -0.0082244873046875,
      "time_usec": 344336332857
    },
    {
      "x": -0.0266265869140625,
      "y": -0.0385284423828125,
      "z": -0.0060882568359375,
      "time_usec": 344336336855
    },
    {
      "x": -0.0266265869140625,
      "y": -0.0289459228515625,
      "z": -0.0050201416015625,
      "time_usec": 344336340852
    },
    {
      "x": -0.0244903564453125,
      "y": -0.0182952880859375,
      "z": -0.002899169921875,
      "time_usec": 344336344850
    },
    {
      "x": -0.0244903564453125,
      "y": -0.0065765380859375,
      "z": -0.002899169921875,
      "time_usec": 344336348817
    },
    {
      "x": -0.020233154296875,
      "y": 0.0051422119140625,
      "z": -0.0018310546875,
      "time_usec": 344336352815
    },
    {
      "x": -0.012786865234375,
      "y": 0.012603759765625,
      "z": -7.62939453125E-4,
      "time_usec": 344336356813
    },
    {
      "x": -0.0042572021484375,
      "y": 0.0179290771484375,
      "z": 0.001373291015625,
      "time_usec": 344336360811
    },
    {
      "x": 0.0074615478515625,
      "y": 0.0189971923828125,
      "z": 0.0066986083984375,
      "time_usec": 344336364809
    },
    {
      "x": 0.0181121826171875,
      "y": 0.0147247314453125,
      "z": 0.01202392578125,
      "time_usec": 344336368806
    },
    {
      "x": 0.0276947021484375,
      "y": 0.0051422119140625,
      "z": 0.0184173583984375,
      "time_usec": 344336372804
    },
    {
      "x": 0.0404815673828125,
      "y": -0.0044403076171875,
      "z": 0.0258636474609375,
      "time_usec": 344336376802
    },
    {
      "x": 0.0511322021484375,
      "y": -0.0150909423828125,
      "z": 0.03118896484375,
      "time_usec": 344336380800
    },
    {
      "x": 0.06072998046875,
      "y": -0.0278778076171875,
      "z": 0.0375823974609375,
      "time_usec": 344336384767
    },
    {
      "x": 0.0735015869140625,
      "y": -0.0385284423828125,
      "z": 0.04290771484375,
      "time_usec": 344336388765
    },
    {
      "x": 0.0841522216796875,
      "y": -0.04705810546875,
      "z": 0.046112060546875,
      "time_usec": 344336392763
    },
    {
      "x": 0.092681884765625,
      "y": -0.0534515380859375,
      "z": 0.0493011474609375,
      "time_usec": 344336396761
    },
    {
      "x": 0.104400634765625,
      "y": -0.059844970703125,
      "z": 0.0514373779296875,
      "time_usec": 344336400758
    },
    {
      "x": 0.1107940673828125,
      "y": -0.0641021728515625,
      "z": 0.05462646484375,
      "time_usec": 344336404756
    },
    {
      "x": 0.1214447021484375,
      "y": -0.07049560546875,
      "z": 0.0567626953125,
      "time_usec": 344336408754
    },
    {
      "x": 0.127838134765625,
      "y": -0.0747528076171875,
      "z": 0.0567626953125,
      "time_usec": 344336412752
    },
    {
      "x": 0.1310272216796875,
      "y": -0.0726165771484375,
      "z": 0.0567626953125,
      "time_usec": 344336416750
    },
    {
      "x": 0.1352996826171875,
      "y": -0.069427490234375,
      "z": 0.0525054931640625,
      "time_usec": 344336420747
    },
    {
      "x": 0.13848876953125,
      "y": -0.0608978271484375,
      "z": 0.0493011474609375,
      "time_usec": 344336424745
    },
    {
      "x": 0.1427459716796875,
      "y": -0.044921875,
      "z": 0.0450439453125,
      "time_usec": 344336428743
    },
    {
      "x": 0.1427459716796875,
      "y": -0.0278778076171875,
      "z": 0.036529541015625,
      "time_usec": 344336432741
    },
    {
      "x": 0.1459503173828125,
      "y": -0.0055084228515625,
      "z": 0.032257080078125,
      "time_usec": 344336436739
    },
    {
      "x": 0.15234375,
      "y": 0.012603759765625,
      "z": 0.024810791015625,
      "time_usec": 344336440706
    },
    {
      "x": 0.1576690673828125,
      "y": 0.0307159423828125,
      "z": 0.0184173583984375,
      "time_usec": 344336444704
    },
    {
      "x": 0.1640472412109375,
      "y": 0.0445556640625,
      "z": 0.0152130126953125,
      "time_usec": 344336448701
    },
    {
      "x": 0.170440673828125,
      "y": 0.05841064453125,
      "z": 0.013092041015625,
      "time_usec": 344336452699
    },
    {
      "x": 0.1789703369140625,
      "y": 0.069061279296875,
      "z": 0.0162811279296875,
      "time_usec": 344336456697
    },
    {
      "x": 0.186431884765625,
      "y": 0.0722503662109375,
      "z": 0.0216064453125,
      "time_usec": 344336460695
    },
    {
      "x": 0.193878173828125,
      "y": 0.0765228271484375,
      "z": 0.0290679931640625,
      "time_usec": 344336464693
    },
    {
      "x": 0.1949462890625,
      "y": 0.078643798828125,
      "z": 0.0386505126953125,
      "time_usec": 344336468690
    },
    {
      "x": 0.19708251953125,
      "y": 0.08184814453125,
      "z": 0.0493011474609375,
      "time_usec": 344336472688
    },
    {
      "x": 0.19281005859375,
      "y": 0.0850372314453125,
      "z": 0.055694580078125,
      "time_usec": 344336476686
    },
    {
      "x": 0.184295654296875,
      "y": 0.090362548828125,
      "z": 0.0642242431640625,
      "time_usec": 344336480684
    },
    {
      "x": 0.1757659912109375,
      "y": 0.0967559814453125,
      "z": 0.07061767578125,
      "time_usec": 344336484682
    },
    {
      "x": 0.1661834716796875,
      "y": 0.0978240966796875,
      "z": 0.0748748779296875,
      "time_usec": 344336488649
    },
    {
      "x": 0.149139404296875,
      "y": 0.0861053466796875,
      "z": 0.0748748779296875,
      "time_usec": 344336492647
    },
    {
      "x": 0.1331634521484375,
      "y": 0.059478759765625,
      "z": 0.0759429931640625,
      "time_usec": 344336496645
    },
    {
      "x": 0.1086578369140625,
      "y": 0.02325439453125,
      "z": 0.0748748779296875,
      "time_usec": 344336500642
    },
    {
      "x": 0.07989501953125,
      "y": -0.01190185546875,
      "z": 0.0716705322265625,
      "time_usec": 344336504640
    },
    {
      "x": 0.04901123046875,
      "y": -0.0406646728515625,
      "z": 0.0716705322265625,
      "time_usec": 344336508638
    },
    {
      "x": 0.012786865234375,
      "y": -0.0641021728515625,
      "z": 0.076995849609375,
      "time_usec": 344336512636
    },
    {
      "x": -0.0298309326171875,
      "y": -0.090728759765625,
      "z": 0.0802001953125,
      "time_usec": 344336516634
    },
    {
      "x": -0.0745697021484375,
      "y": -0.1184234619140625,
      "z": 0.07806396484375,
      "time_usec": 344336520631
    },
    {
      "x": -0.1161041259765625,
      "y": -0.1439971923828125,
      "z": 0.0748748779296875,
      "time_usec": 344336524629
    },
    {
      "x": -0.1597900390625,
      "y": -0.17169189453125,
      "z": 0.0748748779296875,
      "time_usec": 344336528627
    },
    {
      "x": -0.1970672607421875,
      "y": -0.1983184814453125,
      "z": 0.076995849609375,
      "time_usec": 344336532625
    },
    {
      "x": -0.226898193359375,
      "y": -0.2164306640625,
      "z": 0.0748748779296875,
      "time_usec": 344336536623
    },
    {
      "x": -0.2535247802734375,
      "y": -0.219635009765625,
      "z": 0.0727386474609375,
      "time_usec": 344336540590
    },
    {
      "x": -0.269500732421875,
      "y": -0.21429443359375,
      "z": 0.07061767578125,
      "time_usec": 344336544588
    },
    {
      "x": -0.2790985107421875,
      "y": -0.2025909423828125,
      "z": 0.06634521484375,
      "time_usec": 344336548585
    },
    {
      "x": -0.2790985107421875,
      "y": -0.191925048828125,
      "z": 0.0599517822265625,
      "time_usec": 344336552583
    },
    {
      "x": -0.272705078125,
      "y": -0.1865997314453125,
      "z": 0.055694580078125,
      "time_usec": 344336556581
    },
    {
      "x": -0.2535247802734375,
      "y": -0.18341064453125,
      "z": 0.0567626953125,
      "time_usec": 344336560579
    },
    {
      "x": -0.2300872802734375,
      "y": -0.182342529296875,
      "z": 0.05889892578125,
      "time_usec": 344336564577
    },
    {
      "x": -0.1949462890625,
      "y": -0.18341064453125,
      "z": 0.0684814453125,
      "time_usec": 344336568574
    },
    {
      "x": -0.156585693359375,
      "y": -0.184478759765625,
      "z": 0.0802001953125,
      "time_usec": 344336572572
    },
    {
      "x": -0.1054534912109375,
      "y": -0.1791534423828125,
      "z": 0.090850830078125,
      "time_usec": 344336576570
    },
    {
      "x": -0.0511322021484375,
      "y": -0.1770172119140625,
      "z": 0.100433349609375,
      "time_usec": 344336580568
    },
    {
      "x": 0.0074615478515625,
      "y": -0.17169189453125,
      "z": 0.112152099609375,
      "time_usec": 344336584566
    },
    {
      "x": 0.069244384765625,
      "y": -0.168487548828125,
      "z": 0.1217498779296875,
      "time_usec": 344336588563
    },
    {
      "x": 0.1310272216796875,
      "y": -0.161041259765625,
      "z": 0.1281280517578125,
      "time_usec": 344336592531
    },
    {
      "x": 0.19281005859375,
      "y": -0.1557159423828125,
      "z": 0.13665771484375,
      "time_usec": 344336596529
    },
    {
      "x": 0.252471923828125,
      "y": -0.1546478271484375,
      "z": 0.1398468017578125,
      "time_usec": 344336600526
    },
    {
      "x": 0.307861328125,
      "y": -0.1514434814453125,
      "z": 0.147308349609375,
      "time_usec": 344336604524
    },
    {
      "x": 0.354736328125,
      "y": -0.14825439453125,
      "z": 0.1547698974609375,
      "time_usec": 344336608522
    },
    {
      "x": 0.3962860107421875,
      "y": -0.139739990234375,
      "z": 0.156890869140625,
      "time_usec": 344336612520
    },
    {
      "x": 0.4282379150390625,
      "y": -0.126953125,
      "z": 0.1537017822265625,
      "time_usec": 344336616518
    },
    {
      "x": 0.4516754150390625,
      "y": -0.1109771728515625,
      "z": 0.149444580078125,
      "time_usec": 344336620515
    },
    {
      "x": 0.4623260498046875,
      "y": -0.09393310546875,
      "z": 0.1398468017578125,
      "time_usec": 344336624513
    },
    {
      "x": 0.4644622802734375,
      "y": -0.0768890380859375,
      "z": 0.1291961669921875,
      "time_usec": 344336628511
    },
    {
      "x": 0.459136962890625,
      "y": -0.057708740234375,
      "z": 0.1196136474609375,
      "time_usec": 344336632509
    },
    {
      "x": 0.445281982421875,
      "y": -0.0385284423828125,
      "z": 0.1068267822265625,
      "time_usec": 344336636507
    },
    {
      "x": 0.426116943359375,
      "y": -0.024688720703125,
      "z": 0.0972442626953125,
      "time_usec": 344336640474
    },
    {
      "x": 0.402679443359375,
      "y": -0.0172271728515625,
      "z": 0.0844573974609375,
      "time_usec": 344336644472
    },
    {
      "x": 0.3696441650390625,
      "y": -0.010833740234375,
      "z": 0.0727386474609375,
      "time_usec": 344336648469
    },
    {
      "x": 0.3355560302734375,
      "y": -0.0055084228515625,
      "z": 0.0610198974609375,
      "time_usec": 344336652467
    },
    {
      "x": 0.297210693359375,
      "y": -0.0033721923828125,
      "z": 0.0482330322265625,
      "time_usec": 344336656465
    },
    {
      "x": 0.2588653564453125,
      "y": -0.0033721923828125,
      "z": 0.036529541015625,
      "time_usec": 344336660463
    },
    {
      "x": 0.2183837890625,
      "y": -0.0065765380859375,
      "z": 0.0269317626953125,
      "time_usec": 344336664461
    },
    {
      "x": 0.1757659912109375,
      "y": -0.009765625,
      "z": 0.0184173583984375,
      "time_usec": 344336668459
    },
    {
      "x": 0.13848876953125,
      "y": -0.012969970703125,
      "z": 0.0077667236328125,
      "time_usec": 344336672456
